t,px,py,pz,qx,qy,qz,qw,roll,pitch,yaw,vx,vy,vz,wx_vicon,wy_vicon,wz_vicon,imu_acc_x,imu_acc_y,imu_acc_z,imu_gyro_x,imu_gyro_y,imu_gyro_z,motor_motor_m1,motor_motor_m2,motor_motor_m3,motor_motor_m4,est_stateEstimate_x,est_stateEstimate_y,est_stateEstimate_z,est_stateEstimate_vx,est_stateEstimate_vy,est_stateEstimate_vz,est_stateEstimate_ax,est_stateEstimate_ay,est_stateEstimate_az,att_stateEstimate_roll,att_stateEstimate_pitch,att_stateEstimate_yaw,att_stateEstimate_qx,att_stateEstimate_qy,att_stateEstimate_qz,att_stateEstimate_qw,sp_ctrltarget_x,sp_ctrltarget_y,sp_ctrltarget_z,sp_ctrltarget_yaw,pid_controller_roll,pid_controller_pitch,pid_controller_yaw,pid_controller_cmd_thrust,pwr_pm_vbat
1772429894.780505180,0.016820000,0.004783000,0.053758000,-0.002014640,-0.001761460,-0.005921240,0.999978890,-0.004008000,-0.003547000,-0.011835000,-0.001315969,0.001939648,-0.000855187,0.000293152,-0.057348850,0.010685278,0.009142081,0.001062349,1.000253525,-0.001335341,0.002114452,0.000910698,0.000000000,0.000000000,0.000000000,0.000000000,0.016926381,0.004833420,0.053760169,0.009092589,0.002137655,0.001072707,0.002951596,0.000032556,-0.000647237,-0.058430308,0.400659221,-0.426520004,-0.000522907,-0.003494485,-0.003723836,0.999985539,0.000000000,0.000000000,0.000000000,0.000000000,0.000000000,0.000000000,-0.426520828,0.000000000,4.175366402
1772429894.790504694,0.016805000,0.004801000,0.053747000,-0.002005740,-0.001899240,-0.005866720,0.999978980,-0.003989000,-0.003822000,-0.011726000,-0.000603497,0.000846640,-0.000452273,0.002035618,-0.019935621,0.002129413,0.009716253,0.000853041,1.000531373,-0.001152433,0.000413103,0.000496392,0.000000000,0.000000000,0.000000000,0.000000000,0.016885411,0.004817328,0.053756707,0.008331996,0.001879852,0.000782562,0.004855604,0.001602937,-0.000866922,-0.054434100,0.414620454,-0.426511424,-0.000488487,-0.003616448,-0.003723695,0.999985337,0.000000000,0.000000000,0.000000000,0.000000000,0.000000000,0.000000000,-0.426509887,0.000000000,4.175366402
1772429894.800505638,0.016804000,0.004805000,0.053750000,-0.001978750,-0.002004910,-0.005822160,0.999979080,-0.003934000,-0.004033000,-0.011637000,-0.000153264,0.000191978,-0.000224534,0.002375248,0.001436463,-0.002109762,0.010309669,0.000626658,1.000781594,-0.001002773,-0.001296099,0.000107947,0.000000000,0.000000000,0.000000000,0.000000000,0.016922518,0.004826710,0.053755425,0.008691848,0.002088596,0.000793698,0.003356663,0.001643279,0.001075606,-0.053590119,0.416637376,-0.425562674,-0.000481158,-0.003634081,-0.003715399,0.999985368,0.000000000,0.000000000,0.000000000,0.000000000,0.000000000,0.000000000,-0.425706381,0.000000000,4.175366402
1772429894.810505629,0.016810000,0.004798000,0.053748000,-0.001984000,-0.002013710,-0.005967180,0.999978200,-0.003944000,-0.004051000,-0.011926000,0.000087879,-0.000124340,-0.000122319,0.001704474,0.010185717,-0.003124046,0.012041903,-0.000612832,0.999387390,-0.002830878,-0.003457434,0.001260187,0.000000000,0.000000000,0.000000000,0.000000000,0.016947883,0.004836547,0.053755479,0.008949937,0.002183656,0.000814238,0.004868999,0.000107777,-0.000408580,-0.054681301,0.417062232,-0.425155642,-0.000490681,-0.003637754,-0.003711883,0.999985397,0.000000000,0.000000000,0.000000000,0.000000000,0.000000000,0.000000000,-0.425166820,0.000000000,4.175366402
1772429894.820506096,0.016813000,0.004797000,0.053745000,-0.002021030,-0.001886880,-0.005891530,0.999978820,-0.004020000,-0.003797000,-0.011776000,0.000173077,-0.000202312,-0.000095979,0.000421722,0.009729018,-0.002005668,0.011913119,0.000767022,1.000806742,0.000552565,0.004527798,0.001370455,0.000000000,0.000000000,0.000000000,0.000000000,0.016967381,0.004839260,0.053758820,0.009256426,0.002217794,0.000801953,0.004681192,0.001075022,0.000750967,-0.056098612,0.418378054,-0.424429327,-0.000503068,-0.003649194,-0.003705595,0.999985366,0.000000000,0.000000000,0.000000000,0.000000000,0.000000000,0.000000000,-0.424536861,0.000000000,4.175366402
1772429894.830506086,0.016800000,0.004807000,0.053736000,-0.001974900,-0.001704240,-0.005956840,0.999978860,-0.003929000,-0.003432000,-0.011907000,0.000155478,-0.000141939,-0.000095863,-0.001081715,0.003484250,0.000150845,0.010068265,0.000202138,1.001549836,-0.004141383,0.001020136,-0.002272080,0.000000000,0.000000000,0.000000000,0.000000000,0.016983830,0.004839953,0.053759471,0.009433454,0.002316515,0.000889556,0.003242956,0.001913715,0.001466888,-0.056331714,0.417231138,-0.423277402,-0.000505029,-0.003639183,-0.003695545,0.999985405,0.000000000,0.000000000,0.000000000,0.000000000,0.000000000,0.000000000,-0.423406510,0.000000000,4.175366402
1772429894.840505838,0.016802000,0.004799000,0.053747000,-0.001928120,-0.001885700,-0.005848910,0.999979260,-0.003834000,-0.003794000,-0.011691000,0.000113928,-0.000172572,0.000086364,-0.002045912,-0.002811381,0.001027627,0.009933083,0.001589039,1.000297226,-0.002073810,-0.002031339,-0.003705992,0.000000000,0.000000000,0.000000000,0.000000000,0.016987569,0.004841737,0.053761437,0.009410623,0.002502927,0.000984048,0.002762902,0.002374989,0.000280766,-0.057496191,0.416043704,-0.423201338,-0.000515150,-0.003628784,-0.003694913,0.999985456,0.000000000,0.000000000,0.000000000,0.000000000,0.000000000,0.000000000,-0.423140942,0.000000000,4.175366402
1772429894.850506306,0.016816000,0.004797000,0.053745000,-0.002025080,-0.002053360,-0.005863460,0.999978650,-0.004026000,-0.004130000,-0.011719000,0.000000816,-0.000071096,0.000157304,-0.001926880,-0.005205810,0.003002537,0.010580393,0.000367460,0.998822184,-0.002407075,0.000993395,-0.000377240,0.000000000,0.000000000,0.000000000,0.000000000,0.016989739,0.004840913,0.053767357,0.009440230,0.002633378,0.000949902,0.002847323,0.001135806,-0.001072100,-0.058098887,0.416092136,-0.424552849,-0.000520454,-0.003629181,-0.003706726,0.999985411,0.000000000,0.000000000,0.000000000,0.000000000,0.000000000,0.000000000,-0.424366488,0.000000000,4.175366402
1772429894.860506058,0.016820000,0.004795000,0.053743000,-0.002061720,-0.001970510,-0.005898180,0.999978540,-0.004100000,-0.003965000,-0.011788000,0.000319814,-0.000402739,0.000302506,-0.002030780,-0.016540978,-0.000455206,0.009939035,-0.000399477,0.999077922,-0.000291003,0.003761420,-0.000575043,0.000000000,0.000000000,0.000000000,0.000000000,0.016990442,0.004843145,0.053765541,0.009405563,0.002671187,0.000775470,0.002959416,0.000506227,-0.000664483,-0.059319777,0.416146103,-0.424542642,-0.000531110,-0.003629613,-0.003706676,0.999985397,0.000000000,0.000000000,0.000000000,0.000000000,0.000000000,0.000000000,-0.424570398,0.000000000,4.175705251
1772429894.870506287,0.016800000,0.004797000,0.053746000,-0.001996200,-0.001950400,-0.005908040,0.999978650,-0.003969000,-0.003924000,-0.011808000,0.000176321,-0.000388501,0.000183275,-0.003489754,-0.024577617,-0.000320503,0.011712532,-0.000629095,1.001164255,-0.000552026,0.001948621,-0.004629943,0.000000000,0.000000000,0.000000000,0.000000000,0.016995764,0.004838159,0.053764745,0.009475159,0.002630416,0.000738522,0.004501686,0.000653011,0.001066286,-0.060138461,0.414608988,-0.423752027,-0.000538179,-0.003616176,-0.003699796,0.999985447,0.000000000,0.000000000,0.000000000,0.000000000,0.000000000,0.000000000,-0.423701147,0.000000000,4.176055084
1772429894.880506277,0.016816000,0.004786000,0.053758000,-0.002038580,-0.002115430,-0.005892780,0.999978320,-0.004052000,-0.004255000,-0.011777000,-0.000328244,-0.000002467,-0.000159596,-0.002003768,-0.017116580,-0.002127438,0.011656484,0.000106164,1.000499166,-0.002834219,0.003076164,-0.002072913,0.000000000,0.000000000,0.000000000,0.000000000,0.016986518,0.004844941,0.053758330,0.009568495,0.002659007,0.000784727,0.004440216,0.001097822,0.000202971,-0.060129140,0.413793348,-0.424934292,-0.000538109,-0.003609053,-0.003710109,0.999985456,0.000000000,0.000000000,0.000000000,0.000000000,0.000000000,0.000000000,-0.424790790,0.000000000,4.176404910
1772429894.890506744,0.016807000,0.004797000,0.053742000,-0.002026630,-0.002139950,-0.005838370,0.999978610,-0.004028000,-0.004303000,-0.011668000,-0.000450544,0.000246931,-0.000276807,0.000874203,-0.011164092,0.001892869,0.011427215,0.001107775,0.999695629,-0.000943411,0.000229401,0.000877218,0.000000000,0.000000000,0.000000000,0.000000000,0.016979839,0.004855249,0.053752384,0.009660040,0.002777677,0.000705486,0.004133710,0.002373525,-0.000224578,-0.061130688,0.412499005,-0.425954979,-0.000546839,-0.003597721,-0.003719042,0.999985456,0.000000000,0.000000000,0.000000000,0.000000000,0.000000000,0.000000000,-0.425908591,0.000000000,4.176754752
1772429894.900507212,0.016824000,0.004776000,0.053753000,-0.002050710,-0.002585170,-0.005923110,0.999977010,-0.004071000,-0.005195000,-0.011836000,-0.000468746,0.000577273,-0.000365152,0.001384264,0.002267425,0.003141056,0.010436322,0.001732738,1.000446787,0.000027751,-0.001454393,-0.001287546,0.000000000,0.000000000,0.000000000,0.000000000,0.016983715,0.004861006,0.053752776,0.009758416,0.003007136,0.000704442,0.003268833,0.003140028,0.000179417,-0.061777544,0.410430690,-0.425319025,-0.000552397,-0.003579653,-0.003713503,0.999985563,0.000000000,0.000000000,0.000000000,0.000000000,0.000000000,0.000000000,-0.425168807,0.000000000,4.177104594
1772429894.910507917,0.016786000,0.004807000,0.053734000,-0.002079000,-0.002336050,-0.005869110,0.999977890,-0.004131000,-0.004696000,-0.011729000,-0.000213034,0.000507868,-0.000141997,0.000540489,0.012427674,0.002690390,0.009709020,0.001042756,0.999823867,-0.000164932,-0.000716688,-0.001983414,0.000000000,0.000000000,0.000000000,0.000000000,0.016985243,0.004862424,0.053753827,0.009772015,0.003089299,0.000710883,0.002848636,0.002864191,0.000109842,-0.062170211,0.409251147,-0.426223979,-0.000555813,-0.003569343,-0.003721407,0.999985576,0.000000000,0.000000000,0.000000000,0.000000000,0.000000000,0.000000000,-0.425434808,0.000000000,4.177454444
1772429894.920507908,0.016789000,0.004814000,0.053732000,-0.002008390,-0.001927620,-0.005865870,0.999978920,-0.003994000,-0.003879000,-0.011724000,-0.000273679,0.000342463,0.000022261,0.001777488,0.018144543,0.003448049,0.009979725,0.000646305,1.000008087,0.000441994,-0.000488330,-0.001200100,0.000000000,0.000000000,0.000000000,0.000000000,0.016985215,0.004863089,0.053754449,0.009761979,0.003119968,0.000706312,0.002972072,0.002402232,0.000035009,-0.062267299,0.409150879,-0.426406273,-0.000556663,-0.003568464,-0.003723001,0.999985576,0.000000000,0.000000000,0.000000000,0.000000000,0.000000000,0.000000000,-0.425700789,0.000000000,4.177804269
1772429894.930508375,0.016804000,0.004808000,0.053742000,-0.001980560,-0.001996300,-0.005776640,0.999979360,-0.003938000,-0.004015000,-0.011545000,0.000240268,-0.000233139,0.000175311,0.001043587,0.015021070,0.003913470,0.010250443,0.000249836,1.000192316,0.001048949,-0.000259961,-0.000416748,0.000000000,0.000000000,0.000000000,0.000000000,0.016985186,0.004863753,0.053755072,0.009751943,0.003150638,0.000701742,0.003095514,0.001940251,-0.000039826,-0.062364390,0.409050607,-0.426588576,-0.000557513,-0.003567585,-0.003724594,0.999985576,0.000000000,0.000000000,0.000000000,0.000000000,0.000000000,0.000000000,-0.425966783,0.000000000,4.178154111
1772429894.940508604,0.016797000,0.004808000,0.053747000,-0.002009780,-0.001905840,-0.005835690,0.999979140,-0.003997000,-0.003835000,-0.011664000,0.000254915,-0.000453283,-0.000016822,-0.000746080,0.014491100,0.003645386,0.010521154,-0.000146624,1.000376540,0.001655890,-0.000031598,0.000366585,0.000000000,0.000000000,0.000000000,0.000000000,0.016985158,0.004864417,0.053755694,0.009741906,0.003181308,0.000697171,0.003218952,0.001478281,-0.000114660,-0.062461480,0.408950336,-0.426770875,-0.000558362,-0.003566706,-0.003726188,0.999985576,0.000000000,0.000000000,0.000000000,0.000000000,0.000000000,0.000000000,-0.426249499,0.000000000,4.178503945
1772429894.950509071,0.016815000,0.004787000,0.053753000,-0.002066720,-0.002144360,-0.005823820,0.999978610,-0.004108000,-0.004313000,-0.011639000,0.000468726,-0.000708237,-0.000004584,-0.001054335,0.000194513,-0.001639845,0.010791872,-0.000543093,1.000560768,0.002262845,0.000196771,0.001149937,0.000000000,0.000000000,0.000000000,0.000000000,0.016985129,0.004865081,0.053756317,0.009731870,0.003211978,0.000692600,0.003342394,0.001016300,-0.000189496,-0.062558572,0.408850064,-0.426953177,-0.000559212,-0.003565827,-0.003727781,0.999985576,0.000000000,0.000000000,0.000000000,0.000000000,0.000000000,0.000000000,-0.426618206,0.000000000,4.178853786
1772429894.960509539,0.016798000,0.004793000,0.053734000,-0.002012850,-0.001965760,-0.005783150,0.999979320,-0.004003000,-0.003955000,-0.011558000,0.000004060,-0.000146387,-0.000109985,-0.001437994,0.003585269,-0.005121030,0.011062590,-0.000939563,1.000744997,0.002869801,0.000425140,0.001933289,0.000000000,0.000000000,0.000000000,0.000000000,0.016986260,0.004864578,0.053757477,0.009734655,0.003227926,0.000692667,0.003486736,0.000568266,-0.000244251,-0.062655664,0.408749791,-0.427135480,-0.000560062,-0.003564948,-0.003729374,0.999985576,0.000000000,0.000000000,0.000000000,0.000000000,0.000000000,0.000000000,-0.426986913,0.000000000,4.179203628
1772429894.970509529,0.016816000,0.004782000,0.053736000,-0.002037390,-0.001893780,-0.005829990,0.999979140,-0.004053000,-0.003811000,-0.011652000,-0.000175175,0.000344736,-0.000223233,-0.000619754,0.016492274,-0.003962694,0.012530824,0.000310282,1.001034364,0.000331034,0.002522920,0.000855378,0.000000000,0.000000000,0.000000000,0.000000000,0.016993805,0.004857613,0.053761609,0.009808369,0.003162421,0.000718389,0.005088465,0.001092833,0.001101215,-0.062622410,0.408152087,-0.427070648,-0.000559750,-0.003559733,-0.003728805,0.999985582,0.000000000,0.000000000,0.000000000,0.000000000,0.000000000,0.000000000,-0.427122074,0.000000000,4.179553454
1772429894.980510473,0.016794000,0.004802000,0.053735000,-0.002059080,-0.001721800,-0.005864050,0.999979200,-0.004098000,-0.003468000,-0.011721000,0.000002914,0.000375836,0.000025816,-0.001547156,0.008870038,0.000184338,0.014228278,0.001141636,1.001311169,0.000381532,0.003508026,-0.000172126,0.000000000,0.000000000,0.000000000,0.000000000,0.016992222,0.004856456,0.053756528,0.010012596,0.003223219,0.000766172,0.007253245,0.001628092,0.001347072,-0.062536685,0.406877986,-0.426591914,-0.000558946,-0.003548620,-0.003724618,0.999985627,0.000000000,0.000000000,0.000000000,0.000000000,0.000000000,0.000000000,-0.426750429,0.000000000,4.179903312
1772429894.990510702,0.016813000,0.004800000,0.053745000,-0.001996180,-0.001963900,-0.005929120,0.999978500,-0.003969000,-0.003951000,-0.011851000,0.000094950,0.000199689,0.000267832,-0.002815899,-0.008201912,-0.000803151,0.014493385,0.000525731,1.001642984,0.003815661,0.002491842,-0.000402583,0.000000000,0.000000000,0.000000000,0.000000000,0.016999063,0.004852721,0.053753701,0.010379513,0.003279110,0.000853260,0.006858221,0.001721168,0.001847403,-0.063174100,0.405494285,-0.425589285,-0.000564432,-0.003536529,-0.003715882,0.999985681,0.000000000,0.000000000,0.000000000,0.000000000,0.000000000,0.000000000,-0.425711379,0.000000000,4.180253146
1772429895.000509977,0.016800000,0.004811000,0.053747000,-0.002067690,-0.001759630,-0.005875380,0.999979050,-0.004115000,-0.003543000,-0.011744000,0.000403516,-0.000144347,0.000233198,-0.002872618,-0.031426225,-0.000715574,0.011903406,-0.000044743,1.002360018,0.000308941,0.002946840,-0.001326089,0.000000000,0.000000000,0.000000000,0.000000000,0.017002032,0.004855046,0.053753324,0.010633904,0.003334093,0.000992355,0.004658448,0.000750990,0.002738743,-0.061923357,0.404791613,-0.425133069,-0.000553481,-0.003530440,-0.003711859,0.999985733,0.000000000,0.000000000,0.000000000,0.000000000,0.000000000,0.000000000,-0.425233556,0.000000000,4.180602946
1772429895.010509491,0.016808000,0.004800000,0.053736000,-0.002097800,-0.001865590,-0.005762230,0.999979460,-0.004174000,-0.003755000,-0.011517000,0.000133217,-0.000208780,0.000019697,-0.000569986,-0.030338566,0.001588543,0.009970381,-0.002381394,1.002977364,-0.001643390,0.000251968,-0.000364158,0.000000000,0.000000000,0.000000000,0.000000000,0.017003910,0.004859868,0.053756040,0.010701935,0.003310213,0.001174280,0.003257798,-0.000385027,0.002694905,-0.061124739,0.404842402,-0.425568042,-0.000546527,-0.003530907,-0.003715630,0.999985727,0.000000000,0.000000000,0.000000000,0.000000000,0.000000000,0.000000000,-0.425471802,0.000000000,4.180199234
1772429895.020509481,0.016821000,0.004783000,0.053752000,-0.002109040,-0.002411590,-0.005835530,0.999977840,-0.004190000,-0.004848000,-0.011661000,0.000226263,-0.000327953,-0.000038345,0.000302767,-0.018072294,0.001366770,0.010042524,-0.001000341,1.000171839,-0.000132240,0.003036796,-0.001753141,0.000000000,0.000000000,0.000000000,0.000000000,0.017009346,0.004862679,0.053762113,0.010673265,0.003195620,0.001338008,0.002020335,0.000034624,0.000340119,-0.060759098,0.404587116,-0.426007220,-0.000543341,-0.003528689,-0.003719451,0.999985695,0.000000000,0.000000000,0.000000000,0.000000000,0.000000000,0.000000000,-0.425942494,0.000000000,4.179691232
1772429895.030510664,0.016815000,0.004790000,0.053743000,-0.002055930,-0.002483000,-0.005933730,0.999977200,-0.004082000,-0.004990000,-0.011857000,-0.000061461,-0.000058061,-0.000114996,0.002028660,0.003400619,-0.000703751,0.010778921,0.000459883,0.997950195,0.002057242,0.000534773,0.001241448,0.000000000,0.000000000,0.000000000,0.000000000,0.017007651,0.004866426,0.053765548,0.010606379,0.003160301,0.001239462,0.003304882,0.000598006,-0.001567155,-0.061429194,0.404340737,-0.426205663,-0.000549187,-0.003526516,-0.003721202,0.999985695,0.000000000,0.000000000,0.000000000,0.000000000,0.000000000,0.000000000,-0.426198767,0.000000000,4.179183169
1772429895.040510893,0.016814000,0.004798000,0.053735000,-0.002033930,-0.002315960,-0.005865880,0.999978050,-0.004041000,-0.004656000,-0.011722000,-0.000015501,0.000054681,-0.000117133,0.003043337,0.012635394,-0.004626404,0.011148870,-0.001497835,0.998946638,0.003301974,-0.003305254,-0.002188131,0.000000000,0.000000000,0.000000000,0.000000000,0.017011798,0.004860923,0.053763695,0.010634668,0.003119358,0.001041338,0.003551665,-0.000283901,-0.001231450,-0.061080091,0.404785355,-0.426003174,-0.000546149,-0.003530408,-0.003719426,0.999985695,0.000000000,0.000000000,0.000000000,0.000000000,0.000000000,0.000000000,-0.426044638,0.000000000,4.178675155
1772429895.050510883,0.016800000,0.004799000,0.053746000,-0.002042090,-0.001897000,-0.005820130,0.999979180,-0.004062000,-0.003818000,-0.011633000,-0.000102797,0.000185723,-0.000004371,0.000866868,0.012751219,-0.004976322,0.011863087,-0.001827063,1.000912924,-0.001692603,0.001341250,-0.001665681,0.000000000,0.000000000,0.000000000,0.000000000,0.017018141,0.004852255,0.053766412,0.010703681,0.002952449,0.000998166,0.004928765,-0.000722499,0.001359285,-0.059465618,0.405826046,-0.425815765,-0.000532088,-0.003539544,-0.003717745,0.999985675,0.000000000,0.000000000,0.000000000,0.000000000,0.000000000,0.000000000,-0.425820419,0.000000000,4.178167153
1772429895.060510874,0.016819000,0.004794000,0.053742000,-0.002049680,-0.001933760,-0.005886810,0.999978700,-0.004077000,-0.003892000,-0.011766000,-0.000042813,0.000068648,-0.000167444,0.000219514,0.008778820,-0.001589708,0.011235357,0.000355580,0.999828578,0.003210899,0.001291353,0.000963648,0.000000000,0.000000000,0.000000000,0.000000000,0.017019757,0.004850430,0.053762112,0.010824683,0.002847289,0.001011590,0.004869571,0.001316561,-0.000118681,-0.058252093,0.404986837,-0.425719454,-0.000521468,-0.003532260,-0.003716864,0.999985666,0.000000000,0.000000000,0.000000000,0.000000000,0.000000000,0.000000000,-0.425732577,0.000000000,4.177659151
1772429895.070511103,0.016809000,0.004797000,0.053738000,-0.002028320,-0.001974350,-0.005932900,0.999978390,-0.004033000,-0.003973000,-0.011858000,-0.000028535,-0.000083159,0.000068434,0.000925333,-0.006049004,0.000772754,0.012981341,0.001653007,1.000707875,-0.003560523,0.006055160,-0.000168776,0.000000000,0.000000000,0.000000000,0.000000000,0.017017905,0.004852955,0.053760361,0.010944077,0.002964295,0.000978983,0.005700591,0.002523297,0.000449748,-0.056881428,0.403901978,-0.425457875,-0.000509464,-0.003522838,-0.003714534,0.999985765,0.000000000,0.000000000,0.000000000,0.000000000,0.000000000,0.000000000,-0.425487407,0.000000000,4.177151137
1772429895.080511093,0.016814000,0.004792000,0.053739000,-0.002067060,-0.002289750,-0.005954500,0.999977510,-0.004107000,-0.004604000,-0.011900000,-0.000068298,-0.000101146,0.000079487,0.001750811,-0.006636133,0.002630604,0.013750236,0.000438720,1.000206820,-0.001178178,0.003906440,-0.001353917,0.000000000,0.000000000,0.000000000,0.000000000,0.017020381,0.004854379,0.053761468,0.011196202,0.003107466,0.000981807,0.006493934,0.001810539,-0.000314827,-0.057587267,0.401722173,-0.424656157,-0.000515528,-0.003503797,-0.003707550,0.999985854,0.000000000,0.000000000,0.000000000,0.000000000,0.000000000,0.000000000,-0.424753422,0.000000000,4.176643135
1772429895.090511084,0.016813000,0.004794000,0.053747000,-0.002027560,-0.002378690,-0.005884670,0.999977800,-0.004027000,-0.004781000,-0.011760000,0.000101904,-0.000061966,0.000128341,0.002670931,0.002044832,0.007161719,0.013167502,0.000042877,0.999655814,-0.002063454,0.001932899,-0.001267996,0.000000000,0.000000000,0.000000000,0.000000000,0.017025900,0.004855432,0.053759330,0.011467327,0.003166826,0.000912037,0.006145416,0.000981199,0.000188338,-0.058380129,0.399298721,-0.424322323,-0.000522359,-0.003482624,-0.003704651,0.999985913,0.000000000,0.000000000,0.000000000,0.000000000,0.000000000,0.000000000,-0.424353347,0.000000000,4.176135133
1772429895.100511312,0.016805000,0.004797000,0.053734000,-0.001975210,-0.001909190,-0.005796550,0.999979430,-0.003928000,-0.003841000,-0.011586000,-0.000137937,0.000186131,0.000255128,0.003874019,0.015122574,0.008867983,0.012375328,-0.000385076,1.002097813,-0.000467198,-0.000395483,-0.002797399,0.000000000,0.000000000,0.000000000,0.000000000,0.017028940,0.004855496,0.053757713,0.011639590,0.003163390,0.000920222,0.006074397,0.000965306,0.002033067,-0.059792370,0.397748923,-0.424391367,-0.000534634,-0.003469054,-0.003705290,0.999985962,0.000000000,0.000000000,0.000000000,0.000000000,0.000000000,0.000000000,-0.424372567,0.000000000,4.175627119
1772429895.110511065,0.016805000,0.004797000,0.053753000,-0.001981830,-0.001973450,-0.005758980,0.999979510,-0.003941000,-0.003970000,-0.011510000,0.000010723,0.000203497,0.000196387,0.004549611,0.016510402,0.006521253,0.013224663,0.001623490,1.002632854,-0.001502890,0.002245916,-0.006077627,0.000000000,0.000000000,0.000000000,0.000000000,0.017032942,0.004854528,0.053758363,0.011774182,0.003165188,0.001040722,0.006529375,0.002134899,0.002065373,-0.060615090,0.397011585,-0.425137868,-0.000541813,-0.003462590,-0.003711825,0.999985974,0.000000000,0.000000000,0.000000000,0.000000000,0.000000000,0.000000000,-0.424930789,0.000000000,4.175366402
1772429895.120511055,0.016817000,0.004792000,0.053747000,-0.002001260,-0.001830440,-0.005783840,0.999979600,-0.003981000,-0.003684000,-0.011560000,-0.000017230,0.000144911,0.000029934,0.004718835,0.014313244,0.001526989,0.009518666,-0.000035036,1.001512419,-0.000999856,0.001828587,-0.000374767,0.000000000,0.000000000,0.000000000,0.000000000,0.017035739,0.004855616,0.053762247,0.011889553,0.003295538,0.001227228,0.002678681,0.001519004,0.001843604,-0.061072845,0.395751830,-0.426287888,-0.000545801,-0.003451576,-0.003721869,0.999985954,0.000000000,0.000000000,0.000000000,0.000000000,0.000000000,0.000000000,-0.426154121,0.000000000,4.175366402
1772429895.130510807,0.016819000,0.004800000,0.053749000,-0.001937750,-0.001930720,-0.005773190,0.999979590,-0.003853000,-0.003884000,-0.011539000,0.000172630,0.000001340,-0.000067541,0.002239175,-0.003349359,-0.002377614,0.008961899,0.000629376,0.999768468,-0.001312765,0.000913902,-0.003728304,0.000000000,0.000000000,0.000000000,0.000000000,0.017033348,0.004858097,0.053761087,0.011685894,0.003321475,0.001264814,0.001573660,0.001658393,-0.000665186,-0.061655005,0.394391783,-0.426315275,-0.000550838,-0.003439688,-0.003722120,0.999986010,0.000000000,0.000000000,0.000000000,0.000000000,0.000000000,0.000000000,-0.426420710,0.000000000,4.175366402
1772429895.140510798,0.016796000,0.004811000,0.053745000,-0.001905970,-0.001964130,-0.005804480,0.999979410,-0.003789000,-0.003950000,-0.011602000,0.000131682,-0.000110664,-0.000088190,0.001834996,-0.013366389,-0.005072179,0.009737860,-0.000419467,0.999916111,0.001614683,0.001316720,-0.002310001,0.000000000,0.000000000,0.000000000,0.000000000,0.017030889,0.004859801,0.053768826,0.011485903,0.003399894,0.001171086,0.003304280,0.001102512,-0.000774680,-0.061913738,0.394011752,-0.426431794,-0.000553087,-0.003436363,-0.003723143,0.999986038,0.000000000,0.000000000,0.000000000,0.000000000,0.000000000,0.000000000,-0.426290446,0.000000000,4.175366402
1772429895.150510311,0.016816000,0.004792000,0.053744000,-0.001923650,-0.001976510,-0.005805000,0.999979350,-0.003824000,-0.003975000,-0.011603000,-0.000125311,-0.000086014,-0.000216570,-0.000229823,-0.008382785,-0.004923854,0.011451378,0.000520397,1.001144615,-0.000477876,0.000593919,0.001480744,0.000000000,0.000000000,0.000000000,0.000000000,0.017034199,0.004859564,0.053769258,0.011425864,0.003378857,0.001149071,0.003881260,0.001212223,0.001612594,-0.061154543,0.393276472,-0.426592255,-0.000546443,-0.003429971,-0.003724517,0.999986013,0.000000000,0.000000000,0.000000000,0.000000000,0.000000000,0.000000000,-0.426698733,0.000000000,4.175366402
1772429895.160510302,0.016814000,0.004793000,0.053741000,-0.001933960,-0.001945070,-0.005853450,0.999979110,-0.003845000,-0.003913000,-0.011699000,-0.000219095,0.000018065,-0.000164064,-0.001886898,-0.007405786,-0.004350752,0.013291113,0.001632490,0.999831495,-0.000583864,0.002476528,0.001479659,0.000000000,0.000000000,0.000000000,0.000000000,0.017034480,0.004864092,0.053770095,0.011517961,0.003460843,0.001196271,0.006601904,0.002732692,-0.000416863,-0.061128269,0.392237292,-0.425943307,-0.000546161,-0.003420906,-0.003718848,0.999986071,0.000000000,0.000000000,0.000000000,0.000000000,0.000000000,0.000000000,-0.426016356,0.000000000,4.175366402
1772429895.170510292,0.016816000,0.004796000,0.053744000,-0.001965760,-0.002199290,-0.005849200,0.999978540,-0.003906000,-0.004421000,-0.011690000,-0.000183334,0.000008333,-0.000072688,-0.000432771,-0.002023536,-0.005124008,0.014059617,0.000052067,1.000554056,-0.002682685,0.001429271,0.000899744,0.000000000,0.000000000,0.000000000,0.000000000,0.017028111,0.004870191,0.053768549,0.011768554,0.003593197,0.001128216,0.007562272,0.000719803,0.000462495,-0.061596568,0.391180344,-0.425627805,-0.000550204,-0.003411669,-0.003716104,0.999986112,0.000000000,0.000000000,0.000000000,0.000000000,0.000000000,0.000000000,-0.425649677,0.000000000,4.175366402
1772429895.180510044,0.016801000,0.004797000,0.053743000,-0.001932630,-0.002025730,-0.005915100,0.999978590,-0.003841000,-0.004074000,-0.011822000,-0.000240365,0.000162490,0.000060334,0.001378119,0.003843278,-0.002023569,0.012917161,0.001328986,1.000124277,0.003997810,-0.002382526,0.002285714,0.000000000,0.000000000,0.000000000,0.000000000,0.017036856,0.004865691,0.053766353,0.012093625,0.003590418,0.001123704,0.006476905,0.002092001,0.000430167,-0.062841519,0.390175745,-0.425236095,-0.000561023,-0.003402864,-0.003712718,0.999986133,0.000000000,0.000000000,0.000000000,0.000000000,0.000000000,0.000000000,-0.425308292,0.000000000,4.175366402
1772429895.190509558,0.016798000,0.004805000,0.053740000,-0.001982220,-0.001982210,-0.005876250,0.999978810,-0.003941000,-0.003988000,-0.011745000,-0.000386073,0.000197261,0.000173815,0.000660020,0.014028948,-0.001743939,0.011899814,0.002240341,1.000059623,-0.002397668,0.001465574,-0.001509441,0.000000000,0.000000000,0.000000000,0.000000000,0.017043497,0.004865628,0.053763960,0.012262358,0.003807862,0.001046953,0.004815449,0.003299179,-0.000141577,-0.062598745,0.390902466,-0.423859046,-0.000558887,-0.003409220,-0.003700697,0.999986204,0.000000000,0.000000000,0.000000000,0.000000000,0.000000000,0.000000000,-0.424046020,0.000000000,4.175366402
1772429895.200509548,0.016804000,0.004804000,0.053739000,-0.001905410,-0.001975660,-0.005898890,0.999978830,-0.003787000,-0.003974000,-0.011790000,-0.000074301,-0.000092385,0.000283411,-0.002355213,0.020605563,0.000883146,0.011659945,0.000088452,1.002283009,0.003850165,-0.001138647,0.001858283,0.000000000,0.000000000,0.000000000,0.000000000,0.017043731,0.004868738,0.053763786,0.012335027,0.003951919,0.001102801,0.004842017,0.001632881,0.001850767,-0.063968561,0.390282858,-0.424853086,-0.000570851,-0.003403764,-0.003709410,0.999986194,0.000000000,0.000000000,0.000000000,0.000000000,0.000000000,0.000000000,-0.424579395,0.000000000,4.175366402
1772429895.210509539,0.016801000,0.004795000,0.053754000,-0.001888120,-0.001894990,-0.005911200,0.999978950,-0.003754000,-0.003812000,-0.011815000,0.000135995,-0.000194600,0.000261247,-0.006032632,0.010377178,0.002565013,0.009883239,0.000458183,1.000879165,-0.000794430,-0.002487265,0.002519154,0.000000000,0.000000000,0.000000000,0.000000000,0.017016007,0.004862326,0.053762348,0.011977564,0.003847015,0.001149517,0.003355203,0.001671975,0.001461069,-0.063409961,0.390021772,-0.424829471,-0.000565967,-0.003401504,-0.003709186,0.999985875,0.000000000,0.000000000,0.000000000,0.000000000,0.000000000,0.000000000,-0.427371491,0.000000000,4.175366402
1772429895.220509529,0.016802000,0.004799000,0.053749000,-0.002011340,-0.001730750,-0.005827430,0.999979500,-0.004002000,-0.003485000,-0.011648000,0.000258198,-0.000238501,0.000139860,-0.008604913,-0.007349506,0.003527663,0.008942933,-0.001915414,1.000474268,0.001272156,0.000153664,-0.000269982,0.000000000,0.000000000,0.000000000,0.000000000,0.016966248,0.004847066,0.053759579,0.011225480,0.003623642,0.001065578,0.002006528,-0.000584900,0.001084620,-0.060847683,0.401931092,-0.428167301,-0.000544095,-0.003505498,-0.003738291,0.999985394,0.000000000,0.000000000,0.000000000,0.000000000,0.000000000,0.000000000,-0.430625826,0.000000000,4.175366402
1772429895.230509996,0.016805000,0.004793000,0.053753000,-0.002066920,-0.001723260,-0.005912870,0.999978900,-0.004113000,-0.003471000,-0.011819000,0.000060082,-0.000098912,0.000045552,-0.008169900,-0.018257663,0.003559133,0.010997293,-0.000552383,0.998381443,0.000650528,-0.000432399,0.000185152,0.000000000,0.000000000,0.000000000,0.000000000,0.016916486,0.004831806,0.053756809,0.010473359,0.003400260,0.000981635,0.003605377,0.000696894,-0.002385971,-0.058639680,0.407758408,-0.429975810,-0.000525073,-0.003556414,-0.003754030,0.999985345,0.000000000,0.000000000,0.000000000,0.000000000,0.000000000,0.000000000,-0.430749816,0.000000000,4.175366402
1772429895.240509510,0.016808000,0.004794000,0.053751000,-0.002090560,-0.001979300,-0.005800110,0.999979040,-0.004158000,-0.003983000,-0.011592000,0.000023718,0.000143668,-0.000253808,-0.007442028,-0.024465822,0.003307857,0.012109420,-0.000292583,0.999365608,-0.002432805,-0.003910755,0.002809507,0.000000000,0.000000000,0.000000000,0.000000000,0.016876805,0.004819730,0.053754157,0.009871799,0.003223087,0.000873974,0.004969560,0.001781413,-0.001275231,-0.057353293,0.411252301,-0.430490531,-0.000513977,-0.003586943,-0.003758498,0.999985374,0.000000000,0.000000000,0.000000000,0.000000000,0.000000000,0.000000000,-0.430618517,0.000000000,4.175366402
1772429895.250510454,0.016808000,0.004797000,0.053745000,-0.002103840,-0.002354510,-0.005825130,0.999978050,-0.004180000,-0.004733000,-0.011640000,0.000121387,0.000183353,-0.000300331,-0.001364066,-0.024886768,0.000512099,0.011055007,-0.001191056,0.999736880,-0.003366525,-0.001880814,0.001704979,0.000000000,0.000000000,0.000000000,0.000000000,0.016888961,0.004824261,0.053752337,0.010052384,0.003279044,0.000654909,0.004080755,-0.000941734,-0.000780180,-0.057846523,0.411833263,-0.429224019,-0.000518261,-0.003592003,-0.003747463,0.999985397,0.000000000,0.000000000,0.000000000,0.000000000,0.000000000,0.000000000,-0.429441006,0.000000000,4.175366402
1772429895.260509968,0.016805000,0.004797000,0.053743000,-0.002083130,-0.002232850,-0.005834250,0.999978320,-0.004140000,-0.004490000,-0.011659000,0.000226768,0.000050563,-0.000090754,0.004792371,-0.013967616,-0.001873273,0.009963289,0.000901466,0.999458059,-0.003186657,0.001284023,0.000190185,0.000000000,0.000000000,0.000000000,0.000000000,0.016895396,0.004829625,0.053753034,0.010238069,0.003257219,0.000571622,0.002656087,0.001428600,-0.000572971,-0.059080843,0.411673626,-0.428299386,-0.000528998,-0.003590574,-0.003739433,0.999985402,0.000000000,0.000000000,0.000000000,0.000000000,0.000000000,0.000000000,-0.428457746,0.000000000,4.175366402
1772429895.270509481,0.016804000,0.004804000,0.053748000,-0.002073290,-0.002273480,-0.005818000,0.999978340,-0.004120000,-0.004571000,-0.011627000,0.000408800,-0.000085723,0.000071601,0.006132307,-0.009231759,-0.003264168,0.011216642,0.000405482,1.001260940,0.000913520,0.004030783,-0.001135954,0.000000000,0.000000000,0.000000000,0.000000000,0.016906957,0.004829328,0.053748108,0.010287225,0.003154730,0.000479200,0.004245096,0.001632567,0.001040369,-0.060688705,0.410065006,-0.428710942,-0.000542989,-0.003576482,-0.003743067,0.999985435,0.000000000,0.000000000,0.000000000,0.000000000,0.000000000,0.000000000,-0.428921066,0.000000000,4.175366402
1772429895.280509949,0.016816000,0.004799000,0.053737000,-0.002066140,-0.002221260,-0.005879520,0.999978110,-0.004106000,-0.004467000,-0.011750000,0.000240793,-0.000209247,0.000236344,0.006157583,0.001151467,-0.006246149,0.010552181,0.000750744,1.002106387,0.000888131,-0.004432269,0.002494886,0.000000000,0.000000000,0.000000000,0.000000000,0.016913119,0.004826206,0.053752886,0.010269744,0.003292828,0.000487947,0.003816958,0.001500428,0.001739109,-0.061218943,0.407489834,-0.429937898,-0.000547570,-0.003553986,-0.003753779,0.999985481,0.000000000,0.000000000,0.000000000,0.000000000,0.000000000,0.000000000,-0.429790400,0.000000000,4.175366402
1772429895.290509939,0.016819000,0.004792000,0.053753000,-0.001973650,-0.002263950,-0.005903790,0.999978060,-0.003921000,-0.004551000,-0.011799000,0.000028846,-0.000111189,0.000164180,0.003915452,0.006196846,-0.004903389,0.011767123,0.000634117,1.001308769,0.000122483,-0.001935788,0.002227695,0.000000000,0.000000000,0.000000000,0.000000000,0.016916210,0.004824993,0.053755190,0.010325677,0.003339965,0.000623489,0.004741750,0.001452719,0.001215276,-0.060696126,0.407047570,-0.429629646,-0.000542984,-0.003550145,-0.003751071,0.999985516,0.000000000,0.000000000,0.000000000,0.000000000,0.000000000,0.000000000,-0.429754469,0.000000000,4.175366402
1772429895.300509691,0.016821000,0.004791000,0.053752000,-0.001960180,-0.002245320,-0.005906770,0.999978110,-0.003894000,-0.004514000,-0.011805000,-0.000255206,0.000064491,-0.000055439,0.001329673,0.004396470,-0.005005306,0.011972437,0.000131749,1.001022295,0.003180889,-0.000116482,0.001413919,0.000000000,0.000000000,0.000000000,0.000000000,0.016915395,0.004825001,0.053756764,0.010324037,0.003398938,0.000763468,0.005634319,0.002412244,0.000608283,-0.060427963,0.407233424,-0.429066033,-0.000540632,-0.003551779,-0.003746145,0.999985516,0.000000000,0.000000000,0.000000000,0.000000000,0.000000000,0.000000000,-0.429139471,0.000000000,4.175366402
1772429895.310510635,0.016815000,0.004792000,0.053752000,-0.002006040,-0.002482700,-0.005941650,0.999977250,-0.003983000,-0.004989000,-0.011873000,-0.000442561,0.000137743,-0.000160567,-0.001633358,0.009284447,-0.001688289,0.011875822,-0.000262077,1.000928506,0.003628266,0.000703015,0.000919938,0.000000000,0.000000000,0.000000000,0.000000000,0.016913599,0.004825822,0.053756432,0.010341255,0.003415023,0.000772649,0.005325966,0.001850421,0.000576712,-0.060402013,0.407184054,-0.428838513,-0.000540397,-0.003551350,-0.003744158,0.999985516,0.000000000,0.000000000,0.000000000,0.000000000,0.000000000,0.000000000,-0.429014954,0.000000000,4.175366402
1772429895.320510864,0.016794000,0.004801000,0.053745000,-0.002007590,-0.001987760,-0.005944110,0.999978340,-0.003992000,-0.003999000,-0.011880000,-0.000382673,0.000166103,-0.000106022,-0.001726203,0.006802681,0.002199655,0.011772556,-0.000588740,1.000850533,0.002820441,0.001298179,0.000560478,0.000000000,0.000000000,0.000000000,0.000000000,0.016911803,0.004826643,0.053756101,0.010358473,0.003431106,0.000781829,0.005015828,0.001286350,0.000546008,-0.060376064,0.407134688,-0.428611010,-0.000540162,-0.003550921,-0.003742172,0.999985516,0.000000000,0.000000000,0.000000000,0.000000000,0.000000000,0.000000000,-0.428890446,0.000000000,4.175366402
1772429895.330511093,0.016804000,0.004805000,0.053739000,-0.002037800,-0.002064960,-0.005931920,0.999978200,-0.004051000,-0.004154000,-0.011856000,-0.000190288,0.000173349,-0.000174398,-0.002566500,0.005495681,0.003670036,0.011669291,-0.000915402,1.000772561,0.002012615,0.001893343,0.000201018,0.000000000,0.000000000,0.000000000,0.000000000,0.016910008,0.004827464,0.053755770,0.010375690,0.003447189,0.000791009,0.004705691,0.000722279,0.000515305,-0.060225973,0.407016395,-0.428403906,-0.000538842,-0.003549894,-0.003740360,0.999985516,0.000000000,0.000000000,0.000000000,0.000000000,0.000000000,0.000000000,-0.428765938,0.000000000,4.175366402
1772429895.340510607,0.016803000,0.004800000,0.053742000,-0.002014610,-0.002164310,-0.005912800,0.999978150,-0.004004000,-0.004352000,-0.011817000,0.000125622,0.000037374,0.000142891,0.000684254,0.000925064,0.006490492,0.011566032,-0.001242041,1.000694593,0.001204848,0.002488464,-0.000158416,0.000000000,0.000000000,0.000000000,0.000000000,0.016908213,0.004828284,0.053755438,0.010392906,0.003463270,0.000800189,0.004395575,0.000158248,0.000484604,-0.059849291,0.406772298,-0.428234055,-0.000535542,-0.003547777,-0.003738865,0.999985516,0.000000000,0.000000000,0.000000000,0.000000000,0.000000000,0.000000000,-0.428641439,0.000000000,4.175366402
1772429895.350507975,0.016809000,0.004794000,0.053750000,-0.002024820,-0.002117590,-0.005819850,0.999978770,-0.004025000,-0.004259000,-0.011631000,0.000315346,-0.000044639,0.000145105,0.001750614,0.006503515,0.009039529,0.011462796,-0.001568610,1.000616643,0.000397253,0.003083457,-0.000517773,0.000000000,0.000000000,0.000000000,0.000000000,0.016906418,0.004829105,0.053755107,0.010410119,0.003479349,0.000809367,0.004085526,-0.000405661,0.000453909,-0.059472690,0.406528254,-0.428064240,-0.000532242,-0.003545661,-0.003737370,0.999985516,0.000000000,0.000000000,0.000000000,0.000000000,0.000000000,0.000000000,-0.428516967,0.000000000,4.175366402
1772429895.360508442,0.016811000,0.004797000,0.053751000,-0.001963540,-0.002188450,-0.005832290,0.999978670,-0.003902000,-0.004400000,-0.011656000,0.000352603,-0.000192327,0.000057789,0.001814181,0.012319413,0.006320572,0.011359528,-0.001895280,1.000538668,-0.000410591,0.003678635,-0.000877242,0.000000000,0.000000000,0.000000000,0.000000000,0.016904919,0.004830277,0.053754423,0.010434646,0.003493007,0.000818767,0.003791791,-0.000932180,0.000430391,-0.059095972,0.406284134,-0.427894372,-0.000528941,-0.003543543,-0.003735875,0.999985548,0.000000000,0.000000000,0.000000000,0.000000000,0.000000000,0.000000000,-0.428223754,0.000000000,4.175366402
1772429895.370507956,0.016806000,0.004805000,0.053745000,-0.002041070,-0.002018700,-0.005810630,0.999979000,-0.004059000,-0.004061000,-0.011613000,0.000043551,-0.000118978,-0.000147591,0.002756866,0.021808143,0.003574662,0.011642574,-0.001432097,1.000605611,0.000273566,0.001428915,-0.000972045,0.000000000,0.000000000,0.000000000,0.000000000,0.016905123,0.004833465,0.053751712,0.010501075,0.003492757,0.000829424,0.004197815,0.000143261,0.000713329,-0.058916207,0.405659908,-0.427635253,-0.000527344,-0.003538103,-0.003733606,0.999985622,0.000000000,0.000000000,0.000000000,0.000000000,0.000000000,0.000000000,-0.427805786,0.000000000,4.175366402
1772429895.380507946,0.016817000,0.004795000,0.053751000,-0.001958530,-0.001915560,-0.005734500,0.999979800,-0.003895000,-0.003854000,-0.011462000,0.000218571,-0.000195086,-0.000193473,0.000185888,0.017306657,0.001345606,0.012053121,-0.000730601,1.000598985,0.001540929,-0.000427092,-0.000514362,0.000000000,0.000000000,0.000000000,0.000000000,0.016905153,0.004834305,0.053750460,0.010547904,0.003403086,0.000847005,0.004698115,0.000390572,0.000769685,-0.059151576,0.404234257,-0.427187925,-0.000529338,-0.003525657,-0.003729703,0.999985677,0.000000000,0.000000000,0.000000000,0.000000000,0.000000000,0.000000000,-0.427277601,0.000000000,4.175366402
1772429895.390507460,0.016811000,0.004795000,0.053736000,-0.002005460,-0.001586520,-0.005761400,0.999980130,-0.003993000,-0.003196000,-0.011517000,0.000008236,-0.000125447,-0.000160762,-0.003206551,0.010664945,-0.000801319,0.012248926,-0.000537514,1.000135310,0.002260605,0.003431473,0.001238873,0.000000000,0.000000000,0.000000000,0.000000000,0.016906629,0.004832433,0.053751993,0.010620664,0.003287962,0.000880289,0.005259563,0.000350445,0.000822378,-0.058900113,0.404944897,-0.426990065,-0.000527161,-0.003531867,-0.003727972,0.999985695,0.000000000,0.000000000,0.000000000,0.000000000,0.000000000,0.000000000,-0.427014448,0.000000000,4.175366402
1772429895.400507212,0.016815000,0.004788000,0.053741000,-0.001979510,-0.001743970,-0.005850380,0.999979410,-0.003939000,-0.003511000,-0.011694000,-0.000189006,0.000130206,-0.000002331,-0.005629769,0.004798576,-0.000928695,0.012369876,0.000035075,1.000763347,0.001139836,-0.000177894,-0.000475211,0.000000000,0.000000000,0.000000000,0.000000000,0.016909641,0.004829927,0.053755181,0.010740682,0.003216624,0.000910241,0.005583964,0.001231501,0.000994617,-0.058008363,0.404242451,-0.426632143,-0.000519345,-0.003525768,-0.003724818,0.999985722,0.000000000,0.000000000,0.000000000,0.000000000,0.000000000,0.000000000,-0.426696374,0.000000000,4.175366402
1772429895.410507202,0.016808000,0.004797000,0.053743000,-0.002003810,-0.001937850,-0.005779920,0.999979410,-0.003985000,-0.003899000,-0.011552000,-0.000130245,0.000238229,0.000040579,-0.005237842,-0.001557679,-0.004321348,0.011908474,0.001272194,1.000409762,-0.000820103,0.004211448,0.002086534,0.000000000,0.000000000,0.000000000,0.000000000,0.016911892,0.004829764,0.053756783,0.010873965,0.003187418,0.000911360,0.005424868,0.001259596,0.000170940,-0.057113985,0.403552129,-0.426549636,-0.000511515,-0.003519773,-0.003724067,0.999985754,0.000000000,0.000000000,0.000000000,0.000000000,0.000000000,0.000000000,-0.426535839,0.000000000,4.175366402
1772429895.420506716,0.016821000,0.004792000,0.053749000,-0.002121420,-0.001828460,-0.005793330,0.999979300,-0.004222000,-0.003681000,-0.011579000,-0.000194969,0.000284790,0.000019289,-0.005811556,-0.002211726,-0.005671191,0.011792726,0.001189127,1.002425950,-0.001931240,0.000828976,-0.001126814,0.000000000,0.000000000,0.000000000,0.000000000,0.016912013,0.004832473,0.053755534,0.011014028,0.003207298,0.000916831,0.004823975,0.002130778,0.002385977,-0.056669050,0.401891213,-0.426340236,-0.000507572,-0.003505294,-0.003722219,0.999985774,0.000000000,0.000000000,0.000000000,0.000000000,0.000000000,0.000000000,-0.426426983,0.000000000,4.175366402
1772429895.430506706,0.016794000,0.004811000,0.053741000,-0.002121100,-0.001730440,-0.005838360,0.999979210,-0.004222000,-0.003486000,-0.011669000,-0.000115870,0.000170901,0.000019950,-0.003105791,-0.000008516,-0.002762480,0.009887279,0.000708526,1.001426632,-0.000115358,0.001631601,0.001675896,0.000000000,0.000000000,0.000000000,0.000000000,0.016918130,0.004829741,0.053757548,0.011136728,0.003327111,0.000942267,0.003001199,0.002045427,0.002058369,-0.057293984,0.399981958,-0.426384483,-0.000512965,-0.003488613,-0.003722617,0.999985868,0.000000000,0.000000000,0.000000000,0.000000000,0.000000000,0.000000000,-0.426183130,0.000000000,4.175366402
1772429895.440506697,0.016806000,0.004809000,0.053744000,-0.002077430,-0.001758140,-0.005853670,0.999979160,-0.004134000,-0.003541000,-0.011700000,0.000035645,0.000065618,-0.000095765,0.000867993,-0.000857962,-0.000223307,0.008977180,0.000581572,0.999363855,0.001538894,-0.000397739,0.000488171,0.000000000,0.000000000,0.000000000,0.000000000,0.016918707,0.004828789,0.053751539,0.011193522,0.003433121,0.001179329,0.002719403,0.001661999,-0.000988091,-0.058152540,0.399472927,-0.426175251,-0.000520435,-0.003484144,-0.003720815,0.999985833,0.000000000,0.000000000,0.000000000,0.000000000,0.000000000,0.000000000,-0.426397724,0.000000000,4.175366402
1772429895.450507164,0.016819000,0.004791000,0.053740000,-0.002069360,-0.001799690,-0.005925550,0.999978680,-0.004117000,-0.003624000,-0.011844000,0.000267133,-0.000217755,0.000092560,0.002653219,-0.017873676,-0.003185860,0.010123743,0.000659182,0.999965574,-0.000008646,-0.001098204,-0.000916980,0.000000000,0.000000000,0.000000000,0.000000000,0.016920599,0.004825760,0.053751799,0.011055568,0.003482842,0.001168915,0.002879044,0.002343953,0.000267593,-0.057733771,0.398773647,-0.425277686,-0.000516730,-0.003478059,-0.003712966,0.999985933,0.000000000,0.000000000,0.000000000,0.000000000,0.000000000,0.000000000,-0.425276365,0.000000000,4.175366402
1772429895.460507154,0.016804000,0.004798000,0.053743000,-0.002086570,-0.001887540,-0.005857620,0.999978890,-0.004151000,-0.003799000,-0.011707000,0.000200816,-0.000239180,0.000118318,0.003562411,-0.023371866,-0.000611813,0.012256337,0.000206476,1.001386884,-0.002441482,0.001176319,0.000255357,0.000000000,0.000000000,0.000000000,0.000000000,0.016917942,0.004828047,0.053752714,0.010907517,0.003562031,0.001067688,0.005089353,0.000852926,0.001337098,-0.057115401,0.398612130,-0.425311579,-0.000511330,-0.003476669,-0.003713242,0.999985933,0.000000000,0.000000000,0.000000000,0.000000000,0.000000000,0.000000000,-0.425287620,0.000000000,4.175366402
1772429895.470506907,0.016812000,0.004801000,0.053744000,-0.002060940,-0.002000470,-0.005798470,0.999979060,-0.004099000,-0.004025000,-0.011589000,0.000300777,-0.000286869,0.000052156,0.001520280,-0.021033960,0.001027650,0.013971887,-0.000370366,1.001373214,-0.002780519,0.000830440,0.000084562,0.000000000,0.000000000,0.000000000,0.000000000,0.016920411,0.004828286,0.053755155,0.010908322,0.003604021,0.001100611,0.006551195,0.000192919,0.001163525,-0.058409840,0.397630804,-0.425488189,-0.000522599,-0.003468063,-0.003714819,0.999985933,0.000000000,0.000000000,0.000000000,0.000000000,0.000000000,0.000000000,-0.425469894,0.000000000,4.175366402
1772429895.480507135,0.016822000,0.004796000,0.053749000,-0.002003190,-0.002275120,-0.005849900,0.999978290,-0.003980000,-0.004574000,-0.011691000,0.000076185,-0.000218435,0.000101748,0.004010984,-0.014362431,0.000308004,0.013238049,0.000218891,0.999897000,-0.000043315,-0.003678024,-0.000838254,0.000000000,0.000000000,0.000000000,0.000000000,0.016916003,0.004832775,0.053754922,0.011048749,0.003589072,0.001176648,0.006339235,0.000990697,0.000143894,-0.060050893,0.396063931,-0.425564333,-0.000536871,-0.003454336,-0.003715526,0.999985971,0.000000000,0.000000000,0.000000000,0.000000000,0.000000000,0.000000000,-0.425545553,0.000000000,4.175366402
1772429895.490507126,0.016815000,0.004789000,0.053751000,-0.002094570,-0.002311390,-0.005968770,0.999977320,-0.004162000,-0.004648000,-0.011928000,-0.000319386,0.000126399,-0.000009965,0.006121439,-0.000271551,0.001417342,0.011331373,0.000458056,0.998599285,0.004055997,-0.006197997,0.002228317,0.000000000,0.000000000,0.000000000,0.000000000,0.016911745,0.004838170,0.053754226,0.011263783,0.003571555,0.001215879,0.005210233,0.001340783,-0.000711098,-0.060389683,0.396838522,-0.425517292,-0.000539852,-0.003461085,-0.003715129,0.999985961,0.000000000,0.000000000,0.000000000,0.000000000,0.000000000,0.000000000,-0.425525473,0.000000000,4.175366402
1772429895.500507593,0.016806000,0.004797000,0.053737000,-0.001985990,-0.001947100,-0.005803030,0.999979290,-0.003949000,-0.003917000,-0.011598000,-0.000494872,0.000260296,-0.000212724,0.004556719,0.014361040,-0.000147861,0.011018469,-0.001456109,0.999592262,0.001495168,0.001402604,-0.001039818,0.000000000,0.000000000,0.000000000,0.000000000,0.016915990,0.004837724,0.053754005,0.011456688,0.003580073,0.001142140,0.003782740,0.000076144,-0.000684164,-0.059493537,0.398359817,-0.424839166,-0.000532060,-0.003474393,-0.003709191,0.999985933,0.000000000,0.000000000,0.000000000,0.000000000,0.000000000,0.000000000,-0.424935703,0.000000000,4.175366402
1772429895.510508060,0.016816000,0.004792000,0.053741000,-0.001985260,-0.002142080,-0.005841250,0.999978670,-0.003945000,-0.004307000,-0.011674000,-0.000611131,0.000428186,-0.000268862,0.000887357,0.020131831,0.001931582,0.011159812,-0.001505775,0.998980723,0.002366604,0.003460101,-0.002327267,0.000000000,0.000000000,0.000000000,0.000000000,0.016920700,0.004833001,0.053752680,0.011499083,0.003555011,0.001005651,0.004738004,-0.000213613,-0.000892114,-0.059070789,0.398391108,-0.424612490,-0.000528365,-0.003474681,-0.003707200,0.999985933,0.000000000,0.000000000,0.000000000,0.000000000,0.000000000,0.000000000,-0.424606513,0.000000000,4.175366402
1772429895.520508051,0.016802000,0.004796000,0.053752000,-0.001905940,-0.002002070,-0.005863360,0.999978990,-0.003788000,-0.004026000,-0.011719000,-0.000257110,0.000308994,-0.000281391,-0.002728801,0.021913504,0.001540030,0.011387176,-0.000745957,1.000576598,-0.000128926,0.000638174,-0.003452687,0.000000000,0.000000000,0.000000000,0.000000000,0.016918094,0.004832801,0.053752735,0.011487318,0.003452452,0.000929751,0.004490041,0.000157702,0.000712601,-0.058841440,0.397258700,-0.424421751,-0.000526321,-0.003464807,-0.003705524,0.999985955,0.000000000,0.000000000,0.000000000,0.000000000,0.000000000,0.000000000,-0.424484280,0.000000000,4.175366402
1772429895.530508280,0.016778000,0.004824000,0.053730000,-0.002005310,-0.001749070,-0.005804540,0.999979610,-0.003990000,-0.003521000,-0.011602000,0.000283936,-0.000065229,-0.000131119,-0.005839117,0.011679462,-0.002729564,0.010891461,-0.000576674,1.001327736,-0.001347491,-0.000359577,-0.001140122,0.000000000,0.000000000,0.000000000,0.000000000,0.016921081,0.004832884,0.053752619,0.011506465,0.003307689,0.000815824,0.003652052,0.000474223,0.001165349,-0.059287584,0.396102988,-0.424526936,-0.000530180,-0.003454707,-0.003706450,0.999986040,0.000000000,0.000000000,0.000000000,0.000000000,0.000000000,0.000000000,-0.424395752,0.000000000,4.175366402
1772429895.540508747,0.016808000,0.004802000,0.053735000,-0.002075270,-0.001799240,-0.005893610,0.999978860,-0.004129000,-0.003623000,-0.011780000,0.000537005,-0.000403225,0.000130789,-0.008275721,0.000700161,-0.005335246,0.011841181,0.000396302,1.000525976,-0.000440893,0.003829705,0.001075307,0.000000000,0.000000000,0.000000000,0.000000000,0.016927014,0.004830109,0.053755012,0.011533812,0.003253636,0.000905330,0.005438965,0.001053710,0.000612092,-0.060278398,0.395347986,-0.425131762,-0.000538821,-0.003448083,-0.003711755,0.999986006,0.000000000,0.000000000,0.000000000,0.000000000,0.000000000,0.000000000,-0.425059589,0.000000000,4.175366402
1772429895.550508738,0.016815000,0.004794000,0.053739000,-0.002086860,-0.001872330,-0.005853960,0.999978940,-0.004152000,-0.003769000,-0.011700000,0.000543998,-0.000459072,0.000178885,-0.004564819,-0.000677193,-0.002320421,0.010553631,0.000102635,1.001776277,-0.000494021,-0.002715636,-0.001083619,0.000000000,0.000000000,0.000000000,0.000000000,0.016925515,0.004825906,0.053755969,0.011518805,0.003210222,0.000954787,0.003615581,0.001184420,0.000624766,-0.060863632,0.393593380,-0.425015954,-0.000543867,-0.003432753,-0.003710754,0.999986075,0.000000000,0.000000000,0.000000000,0.000000000,0.000000000,0.000000000,-0.425076647,0.000000000,4.175366402
1772429895.560509443,0.016821000,0.004786000,0.053739000,-0.002097020,-0.001756640,-0.005936140,0.999978640,-0.004173000,-0.003538000,-0.011865000,0.000375408,-0.000306585,0.000185159,0.000199798,-0.004866929,-0.000772858,0.010008100,0.000217970,0.999988071,0.001707234,0.002815297,-0.003098515,0.000000000,0.000000000,0.000000000,0.000000000,0.016923242,0.004826494,0.053751409,0.011529629,0.003258391,0.000950309,0.003966206,0.000724537,0.000947392,-0.061084511,0.393400126,-0.424973203,-0.000545787,-0.003431060,-0.003710386,0.999986078,0.000000000,0.000000000,0.000000000,0.000000000,0.000000000,0.000000000,-0.424954193,0.000000000,4.175366402
1772429895.570509911,0.016821000,0.004787000,0.053747000,-0.002085330,-0.001959840,-0.005923120,0.999978360,-0.004147000,-0.003944000,-0.011838000,-0.000204099,0.000125505,0.000145513,0.005847813,0.006276853,0.001096229,0.012017770,0.000353760,1.000776510,0.000481307,0.002542358,0.001249419,0.000000000,0.000000000,0.000000000,0.000000000,0.016921003,0.004826222,0.053754463,0.011437816,0.003252775,0.001012369,0.004971285,0.000639762,0.000528621,-0.060517445,0.392418375,-0.424798999,-0.000540802,-0.003422511,-0.003708845,0.999986096,0.000000000,0.000000000,0.000000000,0.000000000,0.000000000,0.000000000,-0.424823025,0.000000000,4.175366402
1772429895.580509663,0.016810000,0.004795000,0.053751000,-0.002033690,-0.001944960,-0.005855290,0.999978900,-0.004045000,-0.003914000,-0.011703000,-0.000535879,0.000293066,0.000040890,0.004576223,0.003489312,0.002495331,0.012058300,0.000223603,0.999789681,-0.001144853,-0.000652645,0.002206936,0.000000000,0.000000000,0.000000000,0.000000000,0.016904766,0.004839921,0.053748787,0.011441564,0.003312040,0.001019028,0.005248198,0.001237923,-0.000153699,-0.059839497,0.390611768,-0.424282254,-0.000534812,-0.003406770,-0.003704307,0.999986162,0.000000000,0.000000000,0.000000000,0.000000000,0.000000000,0.000000000,-0.424535409,0.000000000,4.175366402
1772429895.590509653,0.016804000,0.004801000,0.053740000,-0.002010750,-0.001759540,-0.005876800,0.999979160,-0.004001000,-0.003543000,-0.011747000,-0.000200505,0.000006430,0.000047067,0.000550854,-0.007730465,-0.002304386,0.011503009,0.000938235,0.999838188,-0.000984614,0.000892317,0.001777950,0.000000000,0.000000000,0.000000000,0.000000000,0.016909572,0.004838472,0.053746200,0.011524873,0.003342328,0.000929301,0.004761361,0.002167551,-0.000094419,-0.060554106,0.390359950,-0.423583987,-0.000541019,-0.003404553,-0.003698234,0.999986227,0.000000000,0.000000000,0.000000000,0.000000000,0.000000000,0.000000000,-0.423456819,0.000000000,4.175366402
1772429895.600508690,0.016800000,0.004805000,0.053736000,-0.002001520,-0.001726070,-0.005864640,0.999979310,-0.003983000,-0.003476000,-0.011722000,-0.000109596,-0.000202215,0.000096989,-0.002563390,-0.023138711,-0.004354302,0.009735200,0.000249693,0.997830246,-0.000343997,0.002814440,0.002640949,0.000000000,0.000000000,0.000000000,0.000000000,0.016918586,0.004832483,0.053746951,0.011686883,0.003349373,0.000919080,0.002735774,0.001743518,-0.001854793,-0.061594989,0.388671607,-0.423482590,-0.000550045,-0.003389787,-0.003697372,0.999986235,0.000000000,0.000000000,0.000000000,0.000000000,0.000000000,0.000000000,-0.423713271,0.000000000,4.175366402
1772429895.610508919,0.016805000,0.004794000,0.053746000,-0.002032130,-0.001803020,-0.005909230,0.999978850,-0.004043000,-0.003630000,-0.011811000,0.000089083,-0.000401049,0.000184771,-0.004018628,-0.026792517,-0.004768344,0.010434544,0.000012208,0.997453068,-0.000600232,0.003668504,-0.000202049,0.000000000,0.000000000,0.000000000,0.000000000,0.016925808,0.004825966,0.053747286,0.011658552,0.003451144,0.000811170,0.003807252,0.001341814,-0.001577564,-0.061478857,0.387039436,-0.422101252,-0.000548938,-0.003375554,-0.003685307,0.999986352,0.000000000,0.000000000,0.000000000,0.000000000,0.000000000,0.000000000,-0.422187095,0.000000000,4.175366402
1772429895.620508671,0.016820000,0.004771000,0.053758000,-0.002116080,-0.002457650,-0.005967020,0.999976940,-0.004203000,-0.004940000,-0.011924000,0.000342094,-0.000361034,0.000227642,-0.001686611,-0.022288801,-0.002288797,0.009872396,0.000024358,0.997549859,-0.000974342,0.002039750,-0.001816216,0.000000000,0.000000000,0.000000000,0.000000000,0.016926373,0.004821626,0.053750546,0.011416275,0.003358008,0.000483966,0.004409850,0.000182809,-0.001042766,-0.060138266,0.390688343,-0.422633941,-0.000537374,-0.003407437,-0.003689931,0.999986267,0.000000000,0.000000000,0.000000000,0.000000000,0.000000000,0.000000000,-0.423001526,0.000000000,4.175366402
1772429895.630508661,0.016812000,0.004789000,0.053746000,-0.002108510,-0.002320030,-0.006023160,0.999976950,-0.004189000,-0.004665000,-0.012037000,0.000289608,-0.000094406,0.000171329,0.002018871,-0.005922255,0.001116256,0.011874732,0.001408420,0.998658585,-0.001042678,0.002695446,-0.002096560,0.000000000,0.000000000,0.000000000,0.000000000,0.016841587,0.004793360,0.053751020,0.008804138,0.002460687,0.000062445,0.004376903,0.000878013,-0.000780562,-0.057611240,0.402565883,-0.424942906,-0.000515775,-0.003511158,-0.003710056,0.999985582,0.000000000,0.000000000,0.000000000,0.000000000,0.000000000,0.000000000,-0.426111739,0.000000000,4.175366402
1772429895.640508413,0.016801000,0.004791000,0.053751000,-0.002053060,-0.002338270,-0.005903830,0.999977730,-0.004078000,-0.004701000,-0.011798000,-0.000099262,0.000445222,-0.000203574,0.002975254,0.013166079,0.004248270,0.011116653,0.002018788,1.000052666,0.003864454,-0.002304614,0.002261988,0.000000000,0.000000000,0.000000000,0.000000000,0.016866576,0.004806146,0.053750291,0.009204013,0.002646113,0.000009983,0.004829591,0.002934513,-0.000496634,-0.056960679,0.408237563,-0.426330556,-0.000510323,-0.003560666,-0.003722171,0.999985614,0.000000000,0.000000000,0.000000000,0.000000000,0.000000000,0.000000000,-0.426281089,0.000000000,4.175366402
1772429895.650509119,0.016816000,0.004790000,0.053750000,-0.002013190,-0.001998860,-0.005849040,0.999978870,-0.004003000,-0.004021000,-0.011690000,-0.000355556,0.000595222,-0.000420086,0.001787255,0.025029293,0.005255036,0.011398548,-0.000904017,0.999819626,-0.002962153,-0.001477392,-0.000137076,0.000000000,0.000000000,0.000000000,0.000000000,0.016887870,0.004812387,0.053749282,0.009529508,0.002877369,-0.000053069,0.003907559,0.001198675,-0.000132099,-0.056825180,0.408484750,-0.426046899,-0.000509140,-0.003562829,-0.003719692,0.999985635,0.000000000,0.000000000,0.000000000,0.000000000,0.000000000,0.000000000,-0.426144729,0.000000000,4.175366402
1772429895.660510302,0.016818000,0.004797000,0.053742000,-0.001979980,-0.001856390,-0.005890970,0.999978960,-0.003938000,-0.003736000,-0.011775000,-0.000516492,0.000499515,-0.000305925,0.000889051,0.017471913,0.003710250,0.011137204,-0.001083846,1.000866995,0.001229697,-0.001626155,-0.005047980,0.000000000,0.000000000,0.000000000,0.000000000,0.016897740,0.004820824,0.053745065,0.009704421,0.003026663,-0.000048602,0.004264867,0.000236069,0.001056557,-0.057482412,0.408836812,-0.425910498,-0.000514882,-0.003565881,-0.003718524,0.999985607,0.000000000,0.000000000,0.000000000,0.000000000,0.000000000,0.000000000,-0.425907904,0.000000000,4.175366402
1772429895.670510292,0.016800000,0.004803000,0.053742000,-0.002043160,-0.001922120,-0.005894290,0.999978690,-0.004064000,-0.003868000,-0.011781000,-0.000360626,0.000159402,-0.000079973,-0.000603346,-0.004880583,0.000180876,0.009503642,-0.000034015,0.999709192,0.000032019,0.000242620,-0.001297340,0.000000000,0.000000000,0.000000000,0.000000000,0.016893372,0.004829388,0.053741242,0.009824482,0.002985661,-0.000004450,0.002871430,0.000557073,-0.000191312,-0.057283582,0.409425329,-0.425746249,-0.000513161,-0.003571024,-0.003717086,0.999985612,0.000000000,0.000000000,0.000000000,0.000000000,0.000000000,0.000000000,-0.425789705,0.000000000,4.175366402
1772429895.680510759,0.016788000,0.004812000,0.053734000,-0.002103250,-0.002037000,-0.005853100,0.999978580,-0.004183000,-0.004099000,-0.011698000,-0.000082692,-0.000048912,-0.000032653,-0.002706269,-0.010567728,-0.003012693,0.010923750,-0.001061210,0.999566400,0.001103133,-0.003033837,0.000265643,0.000000000,0.000000000,0.000000000,0.000000000,0.016892511,0.004828412,0.053740464,0.009800817,0.002967475,0.000001780,0.003368070,0.000247466,-0.000821443,-0.057448793,0.407988373,-0.425410728,-0.000514546,-0.003558480,-0.003714158,0.999985693,0.000000000,0.000000000,0.000000000,0.000000000,0.000000000,0.000000000,-0.425437936,0.000000000,4.175366402
