t,px,py,pz,qx,qy,qz,qw,roll,pitch,yaw,vx,vy,vz,wx_vicon,wy_vicon,wz_vicon,imu_acc_x,imu_acc_y,imu_acc_z,imu_gyro_x,imu_gyro_y,imu_gyro_z,motor_motor_m1,motor_motor_m2,motor_motor_m3,motor_motor_m4,est_stateEstimate_x,est_stateEstimate_y,est_stateEstimate_z,est_stateEstimate_vx,est_stateEstimate_vy,est_stateEstimate_vz,est_stateEstimate_ax,est_stateEstimate_ay,est_stateEstimate_az,att_stateEstimate_roll,att_stateEstimate_pitch,att_stateEstimate_yaw,att_stateEstimate_qx,att_stateEstimate_qy,att_stateEstimate_qz,att_stateEstimate_qw,sp_ctrltarget_x,sp_ctrltarget_y,sp_ctrltarget_z,sp_ctrltarget_yaw,pid_controller_roll,pid_controller_pitch,pid_controller_yaw,pid_controller_cmd_thrust,pwr_pm_vbat
1772430159.182368279,0.015879000,0.006947000,0.070976000,-0.004752130,0.005535770,-0.029917190,0.999525750,-0.009832000,0.010782000,-0.059898000,0.000112665,-0.000749263,0.001670456,-0.003198355,0.020384297,0.019328996,0.000159077,-0.003589809,0.999006324,-0.000683016,-0.000550771,-0.000285924,0.000000000,0.000000000,0.000000000,0.000000000,0.016025904,0.007046583,0.070960545,0.007497142,0.005432070,-0.001596096,0.002256685,-0.000045652,-0.001041259,-0.248264318,-0.113974872,-2.717199581,-0.002142319,0.001045705,-0.023707573,0.999715371,0.000000000,0.000000000,0.000000000,0.000000000,0.000000000,0.000000000,-2.717587471,0.000000000,4.172875845
1772430159.192368031,0.015865000,0.006950000,0.070976000,-0.004709020,0.005776830,-0.029829010,0.999527230,-0.009759000,0.011268000,-0.059724000,0.000051476,-0.000244250,0.000782810,0.006537651,0.025062039,0.006801686,-0.001688785,-0.002889043,0.998971544,0.003805854,-0.000752451,0.000601212,0.000000000,0.000000000,0.000000000,0.000000000,0.015986654,0.007026527,0.070960401,0.007398952,0.005295331,-0.001622981,0.001095580,0.001351043,-0.001282988,-0.248412111,-0.113473888,-2.720232896,-0.002143684,0.001041421,-0.023734045,0.999713994,0.000000000,0.000000000,0.000000000,0.000000000,0.000000000,0.000000000,-2.720708962,0.000000000,4.173390325
1772430159.202368498,0.015881000,0.006936000,0.070994000,-0.004674110,0.005877300,-0.029832330,0.999526710,-0.009695000,0.011470000,-0.059731000,0.000035975,0.000012277,0.000242366,0.009526190,0.016241933,-0.001014968,-0.001161890,-0.002637904,0.998484718,0.001318004,-0.000905480,0.001475804,0.000000000,0.000000000,0.000000000,0.000000000,0.015974012,0.007021557,0.070956630,0.007255630,0.005281058,-0.001676620,0.000673123,0.001627150,-0.001397991,-0.248037632,-0.111855397,-2.724290643,-0.002140716,0.001027300,-0.023769478,0.999713540,0.000000000,0.000000000,0.000000000,0.000000000,0.000000000,0.000000000,-2.724815643,0.000000000,4.173904841
1772430159.212368488,0.015882000,0.006947000,0.070996000,-0.004664100,0.005628240,-0.029875540,0.999526900,-0.009661000,0.010973000,-0.059815000,0.000050777,0.000083256,-0.000029895,0.007607666,-0.000501789,-0.005125834,-0.000361481,-0.002454808,0.999256645,-0.002002218,-0.001044604,0.001830288,0.000000000,0.000000000,0.000000000,0.000000000,0.016016790,0.007050108,0.070949187,0.007279797,0.005374909,-0.001752070,0.002250584,0.001247766,-0.001397743,-0.246244755,-0.112096968,-2.728149448,-0.002124990,0.001029107,-0.023803158,0.999713051,0.000000000,0.000000000,0.000000000,0.000000000,0.000000000,0.000000000,-2.728624267,0.000000000,4.174419333
1772430159.222368479,0.015880000,0.006943000,0.070986000,-0.004617050,0.005848040,-0.029887170,0.999525510,-0.009580000,0.011415000,-0.059840000,0.000080497,0.000031624,-0.000112995,0.002630217,-0.019596767,-0.006525265,-0.000222337,-0.001949075,1.000469098,-0.000475002,-0.001224663,0.002700742,0.000000000,0.000000000,0.000000000,0.000000000,0.016019519,0.007046102,0.070954733,0.007305279,0.005370662,-0.001744701,0.001476079,0.001864322,0.000513794,-0.245842261,-0.112760159,-2.731572834,-0.002121310,0.001034873,-0.023833015,0.999712351,0.000000000,0.000000000,0.000000000,0.000000000,0.000000000,0.000000000,-2.731974836,0.000000000,4.174933825
1772430159.232369184,0.015870000,0.006945000,0.070987000,-0.004598100,0.005751750,-0.029892230,0.999526000,-0.009536000,0.011223000,-0.059849000,0.000109751,-0.000079682,-0.000085956,-0.003566974,-0.035469161,-0.006219762,0.002123213,-0.000833609,0.999764977,0.004198879,-0.003987355,0.000320748,0.000000000,0.000000000,0.000000000,0.000000000,0.016021781,0.007048404,0.070959112,0.007302552,0.005421980,-0.001618746,0.003605080,0.003198141,0.000343194,-0.245584046,-0.113407659,-2.734270669,-0.002118898,0.001040517,-0.023856540,0.999711745,0.000000000,0.000000000,0.000000000,0.000000000,0.000000000,0.000000000,-2.734551650,0.000000000,4.175366402
1772430159.242369652,0.015877000,0.006942000,0.070992000,-0.004659590,0.005358840,-0.029933740,0.999526660,-0.009636000,0.010434000,-0.059928000,-0.000009130,-0.000091045,-0.000226748,-0.007626702,-0.027899978,-0.006584065,-0.000107453,-0.003063958,0.999797886,-0.003656344,0.002614118,0.000598557,0.000000000,0.000000000,0.000000000,0.000000000,0.016020675,0.007049713,0.070958633,0.007396497,0.005476387,-0.001565224,0.002273104,0.001103489,-0.000078940,-0.244599332,-0.112693956,-2.737280517,-0.002110429,0.001034141,-0.023882820,0.999711191,0.000000000,0.000000000,0.000000000,0.000000000,0.000000000,0.000000000,-2.737835650,0.000000000,4.175366402
1772430159.252369881,0.015888000,0.006941000,0.070981000,-0.004707450,0.005363770,-0.029986870,0.999524820,-0.009733000,0.010440000,-0.060035000,0.000108722,-0.000169017,-0.000163850,-0.009298541,-0.017104219,-0.005300808,-0.000180002,-0.002956947,0.997918600,0.003658177,-0.000621178,0.000143816,0.000000000,0.000000000,0.000000000,0.000000000,0.016019382,0.007050846,0.070957814,0.007496794,0.005526463,-0.001526294,0.002200480,0.000550659,-0.002462664,-0.244092470,-0.111161002,-2.740888782,-0.002106294,0.001020729,-0.023914333,0.999710432,0.000000000,0.000000000,0.000000000,0.000000000,0.000000000,0.000000000,-2.741323575,0.000000000,4.175366402
1772430159.262370348,0.015876000,0.006940000,0.070991000,-0.004790740,0.005077870,-0.029968340,0.999526470,-0.009882000,0.009864000,-0.059996000,0.000165676,-0.000047028,-0.000121212,-0.008149135,-0.003296710,-0.006317006,0.000518778,-0.003086919,0.999988518,0.000667266,0.004288123,0.002495692,0.000000000,0.000000000,0.000000000,0.000000000,0.016016614,0.007045934,0.070960606,0.007519777,0.005442009,-0.001683088,0.002807438,0.001156430,0.000303860,-0.244316843,-0.110410348,-2.744755659,-0.002108374,0.001014298,-0.023948080,0.999709707,0.000000000,0.000000000,0.000000000,0.000000000,0.000000000,0.000000000,-2.745300322,0.000000000,4.175366402
1772430159.272370338,0.015885000,0.006936000,0.070986000,-0.004823710,0.005195200,-0.030029440,0.999523870,-0.009956000,0.010096000,-0.060120000,-0.000031274,0.000129196,-0.000123757,-0.003856579,0.018066218,-0.006161015,0.000399219,-0.003753515,0.998404414,0.003702535,0.000484774,0.000514851,0.000000000,0.000000000,0.000000000,0.000000000,0.015956347,0.006996546,0.070972216,0.007435105,0.005259041,-0.001546339,0.001994572,0.000696751,-0.001386543,-0.244375084,-0.110671431,-2.747870289,-0.002108800,0.001016645,-0.023975246,0.999708969,0.000000000,0.000000000,0.000000000,0.000000000,0.000000000,0.000000000,-2.748145849,0.000000000,4.175366402
1772430159.282370806,0.015878000,0.006943000,0.070976000,-0.004786070,0.005657130,-0.030069790,0.999520330,-0.009909000,0.011021000,-0.060205000,-0.000150330,0.000196989,-0.000020299,0.001629541,0.025782970,-0.003098334,0.000559747,-0.002755003,0.998367841,0.001629106,0.003381343,-0.001931903,0.000000000,0.000000000,0.000000000,0.000000000,0.016026531,0.007045192,0.070956960,0.007627159,0.005314012,-0.001712563,0.002672688,0.001689086,-0.001239396,-0.243409657,-0.110289530,-2.750893540,-0.002100431,0.001013167,-0.024001637,0.999708403,0.000000000,0.000000000,0.000000000,0.000000000,0.000000000,0.000000000,-2.751299875,0.000000000,4.175366402
1772430159.292371035,0.015880000,0.006944000,0.070982000,-0.004772150,0.005494740,-0.030014120,0.999522980,-0.009870000,0.010698000,-0.060092000,-0.000166628,0.000206721,0.000213831,0.005373574,0.015128102,-0.000060066,0.001285487,-0.001079486,0.999453430,-0.001823739,0.001740270,-0.002321531,0.000000000,0.000000000,0.000000000,0.000000000,0.016029724,0.007041794,0.070955137,0.007709481,0.005321310,-0.001763998,0.003048124,0.003202515,-0.000723264,-0.242265047,-0.110592276,-2.754031866,-0.002090354,0.001015625,-0.024029021,0.999707764,0.000000000,0.000000000,0.000000000,0.000000000,0.000000000,0.000000000,-2.754425200,0.000000000,4.175366402
1772430159.302370787,0.015881000,0.006945000,0.070988000,-0.004743520,0.005642610,-0.030112770,0.999519330,-0.009823000,0.010994000,-0.060290000,-0.000068765,0.000147048,0.000101826,0.004219516,-0.004516548,0.001962624,0.000907234,-0.002460239,0.997815006,0.001777708,0.000510623,-0.000811216,0.000000000,0.000000000,0.000000000,0.000000000,0.015955495,0.006994787,0.070965486,0.007644106,0.005357880,-0.001709600,0.002890725,0.001891687,-0.001425860,-0.242048170,-0.111751705,-2.756990936,-0.002088192,0.001025749,-0.024054816,0.999707092,0.000000000,0.000000000,0.000000000,0.000000000,0.000000000,0.000000000,-2.757424938,0.000000000,4.175366402
1772430159.312370777,0.015871000,0.006952000,0.070988000,-0.004713370,0.005569330,-0.030046050,0.999521890,-0.009758000,0.010850000,-0.060156000,-0.000011422,-0.000025913,0.000075680,0.003075487,-0.021671611,0.004798385,0.000273975,-0.003921352,0.997579990,0.001613807,0.006339814,-0.001982910,0.000000000,0.000000000,0.000000000,0.000000000,0.016017922,0.007038346,0.070950762,0.007870031,0.005445442,-0.001875515,0.002124835,0.000391184,-0.001934750,-0.242208561,-0.112361655,-2.760082676,-0.002089436,0.001031160,-0.024081776,0.999706353,0.000000000,0.000000000,0.000000000,0.000000000,0.000000000,0.000000000,-2.760727511,0.000000000,4.175366402
1772430159.322370291,0.015882000,0.006941000,0.070988000,-0.004695790,0.005406890,-0.029967070,0.999525230,-0.009712000,0.010527000,-0.059996000,0.000115326,-0.000169600,-0.000070901,0.002147273,-0.023428543,0.005467609,-0.001454562,-0.003021916,1.000283484,0.000187136,-0.001303777,-0.001935553,0.000000000,0.000000000,0.000000000,0.000000000,0.016032383,0.007048268,0.070949379,0.007880814,0.005348778,-0.001983268,0.000549547,0.001390592,-0.000150966,-0.241123829,-0.112501289,-2.763824207,-0.002079909,0.001032218,-0.024114424,0.999705614,0.000000000,0.000000000,0.000000000,0.000000000,0.000000000,0.000000000,-2.764609037,0.000000000,4.175366402
1772430159.332369804,0.015874000,0.006946000,0.070990000,-0.004718790,0.005200150,-0.029979780,0.999525840,-0.009746000,0.010113000,-0.060019000,0.000024922,-0.000072727,-0.000290249,0.001951857,-0.007239198,0.004722524,-0.000315568,-0.001520604,1.000907936,0.002439625,0.004483039,-0.001390674,0.000000000,0.000000000,0.000000000,0.000000000,0.015994181,0.007024169,0.070959992,0.007711995,0.005327251,-0.001832690,0.001975784,0.002174291,0.000470663,-0.239883946,-0.113218973,-2.767031542,-0.002068912,0.001038276,-0.024142404,0.999704964,0.000000000,0.000000000,0.000000000,0.000000000,0.000000000,0.000000000,-2.767324227,0.000000000,4.175277545
1772430159.342370510,0.015882000,0.006942000,0.070974000,-0.004775100,0.005111410,-0.029980910,0.999526000,-0.009853000,0.009932000,-0.060021000,-0.000014627,0.000011286,-0.000243745,0.002573083,0.007991687,0.002728011,-0.000293550,-0.001287476,1.000077578,-0.005358391,0.001484312,-0.003194623,0.000000000,0.000000000,0.000000000,0.000000000,0.015950913,0.006996883,0.070971689,0.007527333,0.005321058,-0.001651310,0.001713754,0.002556856,0.000315039,-0.239725589,-0.113772837,-2.768685718,-0.002067399,0.001043105,-0.024156825,0.999704581,0.000000000,0.000000000,0.000000000,0.000000000,0.000000000,0.000000000,-2.768847284,0.000000000,4.174731277
1772430159.352370262,0.015884000,0.006940000,0.070980000,-0.004647840,0.005456880,-0.029938510,0.999526040,-0.009619000,0.010630000,-0.059939000,-0.000043629,0.000106138,-0.000156236,0.001164232,0.027319680,0.002049465,0.000385008,-0.003537341,1.000539011,0.002709003,-0.001137385,0.002258343,0.000000000,0.000000000,0.000000000,0.000000000,0.016024055,0.007049283,0.070955975,0.007682164,0.005559472,-0.001626127,0.002388234,0.000564169,0.000220516,-0.240191203,-0.114823516,-2.771642625,-0.002071212,0.001052423,-0.024182598,0.999704111,0.000000000,0.000000000,0.000000000,0.000000000,0.000000000,0.000000000,-2.772188714,0.000000000,4.174185060
1772430159.362370729,0.015875000,0.006946000,0.070982000,-0.004672550,0.005504590,-0.029939090,0.999525650,-0.009671000,0.010724000,-0.059941000,0.000015715,-0.000001282,0.000101574,-0.001236543,0.027784792,0.003130830,0.000182985,-0.003239202,0.998388975,0.000299358,0.001679054,-0.001445779,0.000000000,0.000000000,0.000000000,0.000000000,0.016029019,0.007049824,0.070949534,0.007753033,0.005434114,-0.001585385,0.001779385,0.000770354,-0.000964326,-0.239516740,-0.114773924,-2.771991695,-0.002065335,0.001051854,-0.024185651,0.999703568,0.000000000,0.000000000,0.000000000,0.000000000,0.000000000,0.000000000,-2.771484202,0.000000000,4.173638805
1772430159.372370720,0.015874000,0.006950000,0.070979000,-0.004676760,0.005736200,-0.029958140,0.999523750,-0.009694000,0.011187000,-0.059981000,0.000182285,-0.000165851,0.000276321,-0.003923740,0.017299921,0.002327777,-0.002109337,-0.002924651,0.998944041,0.001955469,0.000263530,-0.000994062,0.000000000,0.000000000,0.000000000,0.000000000,0.016031206,0.007047265,0.070949028,0.007709732,0.005355267,-0.001660745,0.000083730,0.000936089,-0.000970837,-0.238756558,-0.114983485,-2.768649946,-0.002058690,0.001053462,-0.024156501,0.999704346,0.000000000,0.000000000,0.000000000,0.000000000,0.000000000,0.000000000,-2.768286989,0.000000000,4.173092576
1772430159.382370234,0.015879000,0.006944000,0.070985000,-0.004685990,0.005792860,-0.029947340,0.999523710,-0.009715000,0.011300000,-0.059960000,0.000069464,-0.000100525,0.000341065,-0.005531428,-0.003313240,-0.000949437,-0.001704130,-0.001452265,0.998668054,-0.001412733,0.003473951,-0.000488808,0.000000000,0.000000000,0.000000000,0.000000000,0.016026050,0.007049801,0.070948411,0.007499237,0.005435529,-0.001735474,0.000282884,0.003586402,-0.001822749,-0.238373337,-0.115543201,-2.765696264,-0.002055256,0.001058211,-0.024130726,0.999704977,0.000000000,0.000000000,0.000000000,0.000000000,0.000000000,0.000000000,-2.765329055,0.000000000,4.172546373
1772430159.392370224,0.015884000,0.006940000,0.070985000,-0.004784300,0.005675160,-0.029838030,0.999527190,-0.009904000,0.011060000,-0.059741000,0.000097203,-0.000142638,0.000179293,-0.005313153,-0.021290166,-0.003169092,0.000498450,-0.003657693,0.999878853,0.000087087,0.000030445,-0.002259830,0.000000000,0.000000000,0.000000000,0.000000000,0.016022805,0.007050930,0.070948459,0.007369528,0.005461387,-0.001773462,0.002467391,-0.000348612,0.000182688,-0.238102792,-0.117431249,-2.762900459,-0.002052525,0.001074575,-0.024106302,0.999705598,0.000000000,0.000000000,0.000000000,0.000000000,0.000000000,0.000000000,-2.762573385,0.000000000,4.172000144
1772430159.402369261,0.015889000,0.006931000,0.070996000,-0.004794980,0.005376750,-0.029960700,0.999525110,-0.009908000,0.010461000,-0.059984000,-0.000216395,0.000027486,0.000140618,-0.000941417,-0.026391646,-0.002588965,0.001156003,-0.003181354,0.999157431,0.000993108,-0.001700301,-0.000851232,0.000000000,0.000000000,0.000000000,0.000000000,0.016024739,0.007048247,0.070950307,0.007458617,0.005339908,-0.001711949,0.002900635,0.000450643,-0.000734557,-0.238448799,-0.118671604,-2.760948675,-0.002055301,0.001085434,-0.024089250,0.999706042,0.000000000,0.000000000,0.000000000,0.000000000,0.000000000,0.000000000,-2.760705214,0.000000000,4.171453967
1772430159.412369013,0.015878000,0.006945000,0.070987000,-0.004772680,0.005413070,-0.030009460,0.999523560,-0.009866000,0.010535000,-0.060081000,-0.000365463,0.000194212,-0.000014918,0.001487023,-0.025754501,-0.002160452,0.000564817,-0.001763515,0.998234951,-0.000421896,-0.001200909,-0.001179999,0.000000000,0.000000000,0.000000000,0.000000000,0.016027460,0.007044588,0.070953257,0.007548478,0.005269839,-0.001684029,0.002566195,0.002331710,-0.001466308,-0.238109572,-0.118590166,-2.758524389,-0.002052381,0.001084609,-0.024068103,0.999706128,0.000000000,0.000000000,0.000000000,0.000000000,0.000000000,0.000000000,-2.758163601,0.000000000,4.170907751
1772430159.422368288,0.015871000,0.006947000,0.070988000,-0.004735030,0.005241850,-0.029994590,0.999525100,-0.009781000,0.010195000,-0.060050000,-0.000217599,0.000157110,-0.000228613,0.004666584,-0.006594015,-0.002023841,-0.000213272,-0.002621724,0.998658531,-0.001817877,0.000829868,-0.003280593,0.000000000,0.000000000,0.000000000,0.000000000,0.016030120,0.007040791,0.070957348,0.007608534,0.005329733,-0.001748485,0.002270766,0.001302032,-0.000985165,-0.237784745,-0.119061024,-2.761043251,-0.002049424,0.001088694,-0.024090074,0.999705974,0.000000000,0.000000000,0.000000000,0.000000000,0.000000000,0.000000000,-2.761809154,0.000000000,4.170361561
1772430159.432369232,0.015874000,0.006942000,0.070987000,-0.004728930,0.005246030,-0.029959390,0.999526160,-0.009768000,0.010204000,-0.059979000,0.000272067,-0.000301457,-0.000235062,0.005149596,0.010212892,-0.001833236,-0.001295476,-0.001400880,0.998393211,-0.000623809,0.001356456,-0.000946817,0.000000000,0.000000000,0.000000000,0.000000000,0.016025718,0.007045063,0.070955519,0.007565514,0.005361368,-0.001818601,0.000701394,0.001957098,-0.002027113,-0.236658516,-0.120875793,-2.760369298,-0.002039224,0.001104277,-0.024084171,0.999706135,0.000000000,0.000000000,0.000000000,0.000000000,0.000000000,0.000000000,-2.760146776,0.000000000,4.170087814
1772430159.442369938,0.015865000,0.006949000,0.070985000,-0.004722030,0.005300040,-0.029938580,0.999526530,-0.009758000,0.010313000,-0.059938000,0.000602584,-0.000522844,-0.000089996,0.001024762,0.018707510,0.002155557,-0.003004001,-0.000969663,0.998538850,0.000618463,0.000644548,0.000941493,0.000000000,0.000000000,0.000000000,0.000000000,0.016020686,0.007048787,0.070953453,0.007437183,0.005431958,-0.001884559,-0.000875050,0.003694766,-0.001403028,-0.237375089,-0.120567906,-2.758387281,-0.002045559,0.001101706,-0.024066877,0.999706532,0.000000000,0.000000000,0.000000000,0.000000000,0.000000000,0.000000000,-2.758102501,0.000000000,4.170087814
1772430159.452369928,0.015892000,0.006934000,0.070980000,-0.004709830,0.005466700,-0.029977850,0.999524520,-0.009744000,0.010646000,-0.060018000,0.000477817,-0.000308217,-0.000036092,-0.001604685,0.021796268,-0.000250483,-0.001739696,-0.003557787,0.999372523,-0.001550693,0.000189988,0.000398387,0.000000000,0.000000000,0.000000000,0.000000000,0.016014704,0.007051687,0.070951032,0.007180399,0.005561199,-0.001944256,0.000425389,0.000886449,-0.001101503,-0.238473541,-0.120661524,-2.756204578,-0.002055144,0.001102714,-0.024047823,0.999706977,0.000000000,0.000000000,0.000000000,0.000000000,0.000000000,0.000000000,-2.755873070,0.000000000,4.170087814
1772430159.462370634,0.015896000,0.006925000,0.070981000,-0.004677090,0.005727330,-0.030004360,0.999522420,-0.009694000,0.011169000,-0.060073000,0.000092288,0.000049903,-0.000104060,-0.003030568,0.020692207,-0.000942519,-0.000128571,-0.003387346,0.999092039,0.001098668,-0.002540360,-0.001145294,0.000000000,0.000000000,0.000000000,0.000000000,0.016016075,0.007050036,0.070947979,0.007066009,0.005508512,-0.001961670,0.002238997,-0.000111467,-0.000819072,-0.239511079,-0.120279719,-2.753311071,-0.002064303,0.001099549,-0.024022578,0.999707539,0.000000000,0.000000000,0.000000000,0.000000000,0.000000000,0.000000000,-2.752914119,0.000000000,4.170087814
1772430159.472371101,0.015898000,0.006921000,0.070987000,-0.004752820,0.005587210,-0.030002490,0.999522910,-0.009837000,0.010884000,-0.060069000,-0.000488481,0.000555342,-0.000117638,-0.005477293,0.004734010,0.002253208,0.001081534,-0.002453347,0.997127541,0.000462712,-0.003135508,-0.000723782,0.000000000,0.000000000,0.000000000,0.000000000,0.016021579,0.007046032,0.070945597,0.007082353,0.005372252,-0.002011658,0.003071201,0.002313472,-0.002522188,-0.239191398,-0.120412764,-2.750401225,-0.002061514,0.001100590,-0.023997193,0.999708131,0.000000000,0.000000000,0.000000000,0.000000000,0.000000000,0.000000000,-2.750070538,0.000000000,4.170087814
1772430159.482371807,0.015876000,0.006950000,0.070986000,-0.004794930,0.005613830,-0.029914000,0.999525210,-0.009922000,0.010936000,-0.059893000,-0.000657887,0.000685179,-0.000170222,-0.005338656,-0.011560289,0.003559080,-0.001090479,-0.003337386,0.998026597,0.000727320,-0.002716298,0.000406263,0.000000000,0.000000000,0.000000000,0.000000000,0.016023093,0.007044716,0.070944675,0.007076649,0.005355050,-0.002145964,0.001356990,0.000497637,-0.002362652,-0.238754575,-0.120807555,-2.748020952,-0.002057644,0.001103900,-0.023976426,0.999708710,0.000000000,0.000000000,0.000000000,0.000000000,0.000000000,0.000000000,-2.747389399,0.000000000,4.170087814
1772430159.492372513,0.015863000,0.006961000,0.070972000,-0.004769960,0.005645440,-0.029991320,0.999522830,-0.009875000,0.011000000,-0.060048000,-0.000446776,0.000441045,-0.000076379,-0.004897679,-0.030972923,0.003040673,-0.002365515,-0.002226754,0.999070753,0.000882120,0.000188109,-0.000955397,0.000000000,0.000000000,0.000000000,0.000000000,0.016024606,0.007043401,0.070943753,0.007070945,0.005337848,-0.002280271,-0.000296589,0.001644362,-0.000731099,-0.238557067,-0.118970313,-2.744011577,-0.002056343,0.001087759,-0.023941481,0.999709532,0.000000000,0.000000000,0.000000000,0.000000000,0.000000000,0.000000000,-2.743621287,0.000000000,4.170087814
1772430159.502372742,0.015872000,0.006946000,0.070980000,-0.004812580,0.005384500,-0.029907640,0.999526580,-0.009943000,0.010476000,-0.059878000,0.000179740,-0.000141298,0.000195202,-0.003359247,-0.040696561,0.001192909,0.000335018,-0.002649241,1.001743059,0.002440012,-0.002463519,-0.001083399,0.000000000,0.000000000,0.000000000,0.000000000,0.016015933,0.007050820,0.070938137,0.006959605,0.005419597,-0.002294626,0.001185249,0.002437836,0.000094511,-0.238092601,-0.116780509,-2.741450921,-0.002052773,0.001068512,-0.023919188,0.999710153,0.000000000,0.000000000,0.000000000,0.000000000,0.000000000,0.000000000,-2.741203373,0.000000000,4.170087814
1772430159.512373209,0.015868000,0.006958000,0.070979000,-0.004878990,0.005124210,-0.029876310,0.999528560,-0.010060000,0.009952000,-0.059813000,0.000597398,-0.000578050,0.000341492,-0.001091259,-0.026106828,-0.001074866,0.001178171,-0.002589525,1.001840674,0.000540377,-0.000746395,-0.000710913,0.000000000,0.000000000,0.000000000,0.000000000,0.016010921,0.007054336,0.070936013,0.006945628,0.005455304,-0.002211101,0.002362381,0.001849672,0.001138176,-0.238067464,-0.116713139,-2.740530727,-0.002052576,0.001067902,-0.023911160,0.999710378,0.000000000,0.000000000,0.000000000,0.000000000,0.000000000,0.000000000,-2.739880516,0.000000000,4.170087814
1772430159.522373676,0.015893000,0.006932000,0.070983000,-0.004803290,0.005038940,-0.029985660,0.999526090,-0.009905000,0.009785000,-0.060030000,0.000640929,-0.000661869,0.000413831,-0.000098715,-0.011885689,-0.002251932,0.001367842,-0.002210556,1.001046830,-0.002501302,0.002666696,-0.000319762,0.000000000,0.000000000,0.000000000,0.000000000,0.016010266,0.007053713,0.070936850,0.007008213,0.005443161,-0.002104363,0.003539513,0.001261509,0.002181840,-0.238042326,-0.116645769,-2.739610533,-0.002052379,0.001067293,-0.023903133,0.999710570,0.000000000,0.000000000,0.000000000,0.000000000,0.000000000,0.000000000,-2.738557659,0.000000000,4.170087814
1772430159.532373905,0.015897000,0.006925000,0.070996000,-0.004866830,0.004841680,-0.029964830,0.999527380,-0.010020000,0.009387000,-0.059987000,0.000270591,-0.000233528,0.000133372,0.001341126,0.006439374,-0.003033275,0.001557507,-0.001831595,1.000253005,-0.005542907,0.006079706,0.000071379,0.000000000,0.000000000,0.000000000,0.000000000,0.016009611,0.007053091,0.070937687,0.007070796,0.005431018,-0.001997627,0.003274047,0.001772584,0.001270135,-0.237784517,-0.115940776,-2.738139418,-0.002050291,0.001061062,-0.023890314,0.999710798,0.000000000,0.000000000,0.000000000,0.000000000,0.000000000,0.000000000,-2.737234833,0.000000000,4.170087814
1772430159.542373896,0.015887000,0.006935000,0.070998000,-0.004830400,0.005106570,-0.029950660,0.999526660,-0.009963000,0.009919000,-0.059961000,-0.000206605,0.000198524,-0.000274592,0.003740169,0.025468654,-0.004991801,0.000105467,-0.001666235,1.000571209,-0.002472418,0.002261547,-0.000252357,0.000000000,0.000000000,0.000000000,0.000000000,0.016008152,0.007057274,0.070939845,0.007146942,0.005489416,-0.001891243,0.001753094,0.002558286,0.000933987,-0.237516395,-0.114920443,-2.735633652,-0.002048187,0.001052060,-0.023868475,0.999711307,0.000000000,0.000000000,0.000000000,0.000000000,0.000000000,0.000000000,-2.735178785,0.000000000,4.170087814
1772430159.552374363,0.015884000,0.006942000,0.070981000,-0.004791880,0.005539100,-0.029985780,0.999523490,-0.009912000,0.010786000,-0.060036000,-0.000360354,0.000326010,-0.000305789,0.004626796,0.025463958,-0.003897906,-0.001420687,-0.001510501,1.000939582,0.000873884,-0.001882931,-0.000608350,0.000000000,0.000000000,0.000000000,0.000000000,0.016016423,0.007051479,0.070944150,0.007133802,0.005548388,-0.001682577,0.001080418,0.003106329,0.001577250,-0.238361989,-0.116114592,-2.732221908,-0.002055347,0.001062593,-0.023838681,0.999712026,0.000000000,0.000000000,0.000000000,0.000000000,0.000000000,0.000000000,-2.731806424,0.000000000,4.170556574
1772430159.562375069,0.015877000,0.006944000,0.070981000,-0.004770540,0.005328610,-0.030004780,0.999524170,-0.009857000,0.010366000,-0.060071000,-0.000409111,0.000367968,-0.000170571,0.005884538,0.016581090,-0.003811290,0.000202408,-0.001004372,1.003736423,-0.000663465,-0.002908397,-0.002640107,0.000000000,0.000000000,0.000000000,0.000000000,0.016025421,0.007043500,0.070953528,0.007099454,0.005655739,-0.001435466,0.002093502,0.003471842,0.002644657,-0.238251035,-0.116205041,-2.729604116,-0.002054385,0.001063312,-0.023815840,0.999712539,0.000000000,0.000000000,0.000000000,0.000000000,0.000000000,0.000000000,-2.729185231,0.000000000,4.171123907
1772430159.572375536,0.015880000,0.006944000,0.070974000,-0.004745650,0.005394340,-0.030052910,0.999522490,-0.009812000,0.010498000,-0.060168000,0.000062316,-0.000046096,0.000228905,0.007965413,-0.002927784,-0.003098635,0.000825458,-0.000940743,1.001989572,-0.000773919,-0.000769045,-0.000485175,0.000000000,0.000000000,0.000000000,0.000000000,0.016027461,0.007042905,0.070963365,0.007156125,0.005801692,-0.001073743,0.002508911,0.003035885,0.002987336,-0.238171200,-0.116275638,-2.727162670,-0.002053696,0.001063868,-0.023794543,0.999713069,0.000000000,0.000000000,0.000000000,0.000000000,0.000000000,0.000000000,-2.726860351,0.000000000,4.171691225
1772430159.582375526,0.015876000,0.006946000,0.070985000,-0.004707560,0.005483480,-0.030032260,0.999522800,-0.009741000,0.010679000,-0.060127000,-0.000017638,-0.000045746,0.000524806,0.005181028,-0.017010415,0.001408084,-0.000865746,-0.002130095,0.999908098,0.000503034,-0.002366237,0.001213297,0.000000000,0.000000000,0.000000000,0.000000000,0.016024684,0.007048267,0.070966694,0.007166120,0.005895247,-0.000881766,0.001650924,0.002267071,-0.000485539,-0.239439585,-0.115346497,-2.725080304,-0.002064974,0.001055987,-0.023776382,0.999713510,0.000000000,0.000000000,0.000000000,0.000000000,0.000000000,0.000000000,-2.725260590,0.000000000,4.172258517
1772430159.592375278,0.015884000,0.006939000,0.070997000,-0.004685740,0.005222780,-0.030039070,0.999524100,-0.009681000,0.010159000,-0.060138000,-0.000257595,0.000111247,0.000311345,0.001139491,-0.011912273,0.007033553,0.000547373,-0.003209975,0.999742383,0.000055617,0.001145320,-0.002309335,0.000000000,0.000000000,0.000000000,0.000000000,0.016020497,0.007055462,0.070964489,0.007112085,0.005924999,-0.000897827,0.002757273,0.001207620,-0.000678844,-0.238908893,-0.116435254,-2.724789593,-0.002060121,0.001065371,-0.023773832,0.999713490,0.000000000,0.000000000,0.000000000,0.000000000,0.000000000,0.000000000,-2.725992541,0.000000000,4.172825795
1772430159.602375507,0.015881000,0.006937000,0.071000000,-0.004651640,0.005244860,-0.030003890,0.999525200,-0.009614000,0.010206000,-0.060067000,-0.000227564,0.000227273,-0.000124417,-0.002469326,0.002276535,0.010880315,-0.000818383,-0.002694294,1.000846498,0.001992525,0.001875686,0.000095330,0.000000000,0.000000000,0.000000000,0.000000000,0.016019184,0.007057160,0.070961677,0.007180108,0.005879675,-0.000873997,0.001098362,0.001835563,0.001560086,-0.237135602,-0.117037320,-2.724482997,-0.002044528,0.001070250,-0.023771161,0.999713669,0.000000000,0.000000000,0.000000000,0.000000000,0.000000000,0.000000000,-2.724167254,0.000000000,4.173393101
1772430159.612375975,0.015881000,0.006945000,0.070998000,-0.004703260,0.005085680,-0.029892540,0.999529110,-0.009707000,0.009886000,-0.059843000,-0.000166006,0.000138598,-0.000236985,-0.004934476,0.009314984,0.011243161,-0.001582608,-0.003536923,1.000357278,0.001192500,-0.002121921,0.001828074,0.000000000,0.000000000,0.000000000,0.000000000,0.016017634,0.007057352,0.070967398,0.007100447,0.005855056,-0.000714360,0.000684384,0.000379181,0.000081929,-0.236293139,-0.118670987,-2.722632956,-0.002036857,0.001084295,-0.023754997,0.999714061,0.000000000,0.000000000,0.000000000,0.000000000,0.000000000,0.000000000,-2.722409660,0.000000000,4.173960419
1772430159.622375965,0.015855000,0.006960000,0.070980000,-0.004760010,0.005418620,-0.029857440,0.999528150,-0.009840000,0.010548000,-0.059777000,0.000109169,-0.000062510,-0.000284538,-0.005025704,0.014147190,0.007635659,-0.001862281,-0.003593864,1.000078593,-0.001395509,-0.000488859,0.001063336,0.000000000,0.000000000,0.000000000,0.000000000,0.016017822,0.007053631,0.070976499,0.006951732,0.005718150,-0.000609130,0.000222043,-0.000091844,0.000366699,-0.235409540,-0.117232056,-2.719235627,-0.002029478,0.001071498,-0.023725394,0.999714594,0.000000000,0.000000000,0.000000000,0.000000000,0.000000000,0.000000000,-2.718735357,0.000000000,4.174527711
1772430159.632375717,0.015874000,0.006946000,0.070973000,-0.004783380,0.005505310,-0.029818180,0.999528730,-0.009891000,0.010720000,-0.059700000,0.000456741,-0.000276535,0.000034421,-0.002483263,0.007269465,0.000433390,-0.000236955,-0.003305377,0.999925467,-0.001995800,-0.001671274,0.001893849,0.000000000,0.000000000,0.000000000,0.000000000,0.016014736,0.007053079,0.070981204,0.006868885,0.005609078,-0.000547781,0.001522053,0.001161123,-0.000468323,-0.235878484,-0.117156375,-2.716127407,-0.002033615,0.001070879,-0.023698274,0.999715307,0.000000000,0.000000000,0.000000000,0.000000000,0.000000000,0.000000000,-2.715782007,0.000000000,4.175094989
1772430159.642375708,0.015889000,0.006941000,0.070990000,-0.004747320,0.005501810,-0.029835720,0.999528400,-0.009819000,0.010715000,-0.059734000,0.000436461,-0.000327254,0.000446970,0.000956607,-0.001749600,-0.005219075,0.001117763,-0.003941945,0.999545537,-0.000402667,0.000872812,0.003033979,0.000000000,0.000000000,0.000000000,0.000000000,0.016005992,0.007058000,0.070978319,0.006899800,0.005548073,-0.000562218,0.003126325,0.000148510,-0.000085577,-0.237083625,-0.116840233,-2.713469174,-0.002044219,0.001068323,-0.023675079,0.999715906,0.000000000,0.000000000,0.000000000,0.000000000,0.000000000,0.000000000,-2.713154745,0.000000000,4.175366402
1772430159.652375937,0.015886000,0.006933000,0.071002000,-0.004740250,0.005455670,-0.029899450,0.999526780,-0.009803000,0.010623000,-0.059861000,0.000176515,-0.000132848,0.000538190,0.005152021,-0.003036257,-0.008650103,-0.001299317,-0.003948025,0.999797921,0.000802893,0.000527000,0.001866350,0.000000000,0.000000000,0.000000000,0.000000000,0.016003076,0.007058377,0.070973377,0.006924202,0.005426112,-0.000587973,0.001200117,-0.000403300,0.000061355,-0.237393402,-0.117344863,-2.710492685,-0.002046845,0.001072736,-0.023649102,0.999716499,0.000000000,0.000000000,0.000000000,0.000000000,0.000000000,0.000000000,-2.710121658,0.000000000,4.175366402
1772430159.662375927,0.015892000,0.006935000,0.070998000,-0.004712010,0.005250330,-0.029953610,0.999526390,-0.009735000,0.010214000,-0.059967000,-0.000105187,0.000167793,0.000246698,0.005816116,-0.001630122,-0.008198224,-0.002278565,-0.002530340,1.000366190,0.002044290,-0.001066819,0.000620577,0.000000000,0.000000000,0.000000000,0.000000000,0.016008151,0.007053460,0.070970906,0.006867747,0.005301230,-0.000574115,-0.000801465,0.001464898,0.000797661,-0.237038027,-0.116904216,-2.707719367,-0.002043861,0.001068769,-0.023624917,0.999717124,0.000000000,0.000000000,0.000000000,0.000000000,0.000000000,0.000000000,-2.707367106,0.000000000,4.175366402
1772430159.672375917,0.015887000,0.006941000,0.071003000,-0.004694940,0.005194450,-0.030024290,0.999524650,-0.009698000,0.010102000,-0.060108000,-0.000434946,0.000267327,-0.000107459,0.004520939,0.002310019,-0.006275383,-0.002204750,-0.001905844,1.000710763,0.001144418,0.000868827,-0.000279899,0.000000000,0.000000000,0.000000000,0.000000000,0.016014356,0.007047395,0.070977322,0.006707300,0.005298734,-0.000464816,0.000805240,0.002158073,0.000751313,-0.236468023,-0.117504771,-2.705211445,-0.002038788,0.001073847,-0.023603030,0.999717676,0.000000000,0.000000000,0.000000000,0.000000000,0.000000000,0.000000000,-2.704930144,0.000000000,4.175366402
1772430159.682375431,0.015862000,0.006953000,0.070998000,-0.004678970,0.005537890,-0.029954120,0.999524980,-0.009686000,0.010790000,-0.059971000,-0.000359596,0.000027778,-0.000403341,-0.000498559,-0.002492487,-0.003998199,-0.001754859,-0.003318569,1.000768248,-0.002373354,0.001849600,-0.001145274,0.000000000,0.000000000,0.000000000,0.000000000,0.016015783,0.007041714,0.070985841,0.006577104,0.005314510,-0.000342410,0.000169058,0.000044343,-0.000019861,-0.235538759,-0.117001074,-2.702070026,-0.002030814,0.001069205,-0.023575641,0.999718293,0.000000000,0.000000000,0.000000000,0.000000000,0.000000000,0.000000000,-2.701633220,0.000000000,4.175366402
1772430159.692374706,0.015875000,0.006949000,0.070986000,-0.004649830,0.005526310,-0.030018040,0.999523260,-0.009628000,0.010768000,-0.060099000,-0.000005245,-0.000290365,-0.000143901,-0.003708799,-0.011847983,-0.001624270,-0.001178339,-0.003822730,0.999447189,0.000247271,0.000480494,-0.002607062,0.000000000,0.000000000,0.000000000,0.000000000,0.016016578,0.007040222,0.070989902,0.006465358,0.005205391,-0.000294533,0.001448607,0.000457009,-0.000231662,-0.234912810,-0.117190531,-2.704017202,-0.002025296,0.001070764,-0.023592632,0.999718589,0.000000000,0.000000000,0.000000000,0.000000000,0.000000000,0.000000000,-2.704424905,0.000000000,4.175366402
1772430159.702375412,0.015882000,0.006937000,0.070986000,-0.004702440,0.005395970,-0.030017220,0.999523760,-0.009725000,0.010505000,-0.060096000,0.000273854,-0.000436675,-0.000108081,-0.005220756,-0.012428862,-0.000128705,-0.002276234,-0.003203602,0.999292174,0.001338767,0.001837597,-0.002743701,0.000000000,0.000000000,0.000000000,0.000000000,0.016009263,0.007043102,0.070992980,0.006354519,0.005118033,-0.000326188,-0.000800462,0.000424885,-0.001235845,-0.234923660,-0.116898389,-2.701989476,-0.002025470,0.001068181,-0.023574948,0.999718559,0.000000000,0.000000000,0.000000000,0.000000000,0.000000000,0.000000000,-2.701537397,0.000000000,4.175366402
1772430159.712375402,0.015883000,0.006927000,0.070999000,-0.004741610,0.005061540,-0.030020200,0.999525230,-0.009783000,0.009834000,-0.060099000,0.000381236,-0.000218240,-0.000077972,-0.006542034,-0.011879310,0.000147281,-0.001156169,-0.003196614,0.999522583,-0.000961692,0.000174903,0.000712542,0.000000000,0.000000000,0.000000000,0.000000000,0.015998891,0.007047003,0.070990974,0.006173716,0.005072836,-0.000396373,0.001321127,0.000754273,0.000055005,-0.234152950,-0.118261826,-2.700539367,-0.002018479,0.001079892,-0.023562280,0.999718696,0.000000000,0.000000000,0.000000000,0.000000000,0.000000000,0.000000000,-2.700054255,0.000000000,4.175366402
1772430159.722375154,0.015878000,0.006933000,0.070990000,-0.004846150,0.005014270,-0.030035500,0.999524510,-0.009990000,0.009733000,-0.060130000,0.000128497,0.000215463,0.000077933,-0.005661131,-0.008667762,0.000558506,-0.000197046,-0.003477145,0.998888130,-0.002435061,-0.000205845,0.002968421,0.000000000,0.000000000,0.000000000,0.000000000,0.015997094,0.007047112,0.070985418,0.006152898,0.005023794,-0.000415587,0.001319678,0.001628288,-0.001448412,-0.233945389,-0.119331314,-2.698713638,-0.002016466,0.001089148,-0.023546334,0.999719002,0.000000000,0.000000000,0.000000000,0.000000000,0.000000000,0.000000000,-2.698097089,0.000000000,4.175366402
1772430159.732375622,0.015891000,0.006934000,0.071000000,-0.004771030,0.005114300,-0.029986940,0.999525820,-0.009845000,0.009938000,-0.060033000,-0.000246640,0.000492988,0.000227506,-0.002003987,-0.004577425,0.000942308,-0.001258852,0.000010365,0.998741267,-0.000090884,0.000871929,-0.000307268,0.000000000,0.000000000,0.000000000,0.000000000,0.015999743,0.007040420,0.070980624,0.006171231,0.005052593,-0.000561151,0.001557751,0.002924944,-0.001670029,-0.234610363,-0.119670596,-2.696042084,-0.002022223,0.001092197,-0.023523013,0.999719567,0.000000000,0.000000000,0.000000000,0.000000000,0.000000000,0.000000000,-2.695742527,0.000000000,4.175366402
1772430159.742375135,0.015883000,0.006949000,0.070980000,-0.004767420,0.005392950,-0.029989280,0.999524300,-0.009854000,0.010495000,-0.060041000,-0.000331003,0.000445805,0.000131216,0.003708991,-0.005419228,0.001651471,-0.001335078,-0.003659439,0.999745331,0.001339665,0.001720625,-0.003870434,0.000000000,0.000000000,0.000000000,0.000000000,0.015999400,0.007036616,0.070980597,0.006120323,0.005051639,-0.000622236,0.000680470,0.000045843,-0.000353542,-0.234489374,-0.119911205,-2.696384616,-0.002021115,0.001094278,-0.023525999,0.999719743,0.000000000,0.000000000,0.000000000,0.000000000,0.000000000,0.000000000,-2.696712609,0.000000000,4.175366402
1772430159.752374887,0.015872000,0.006954000,0.070997000,-0.004820550,0.005169290,-0.030003150,0.999524810,-0.009947000,0.010045000,-0.060067000,-0.000168454,0.000052681,0.000094270,0.006075447,-0.021536323,0.002946042,-0.001879168,-0.004545488,0.997812458,0.001429731,-0.001819737,0.002841098,0.000000000,0.000000000,0.000000000,0.000000000,0.015999245,0.007032945,0.070980726,0.006066557,0.005045563,-0.000686344,0.000349082,0.000172914,-0.001609369,-0.233672326,-0.119719856,-2.696167725,-0.002014028,0.001092437,-0.023524119,0.999719498,0.000000000,0.000000000,0.000000000,0.000000000,0.000000000,0.000000000,-2.695845771,0.000000000,4.175366402
1772430159.762374878,0.015872000,0.006949000,0.071001000,-0.004745390,0.004903080,-0.029981430,0.999527170,-0.009781000,0.009517000,-0.060020000,0.000050622,-0.000186344,-0.000042988,0.007006430,-0.025164942,0.003891918,-0.000848430,-0.003758434,0.998015833,-0.000416698,0.000324194,-0.000540361,0.000000000,0.000000000,0.000000000,0.000000000,0.016003464,0.007033123,0.070981741,0.005981952,0.004940710,-0.000839292,0.002281099,0.001364009,-0.000840945,-0.232690172,-0.119941281,-2.693179839,-0.002005442,0.001094115,-0.023498057,0.999720123,0.000000000,0.000000000,0.000000000,0.000000000,0.000000000,0.000000000,-2.692817923,0.000000000,4.175366402
1772430159.772374630,0.015879000,0.006936000,0.071003000,-0.004693160,0.004714730,-0.029998910,0.999527790,-0.009665000,0.009144000,-0.060052000,0.000136072,-0.000245882,-0.000199301,0.003833563,-0.013861924,0.004571973,-0.000210851,-0.003311860,0.998030573,-0.001120904,0.002465669,-0.000983271,0.000000000,0.000000000,0.000000000,0.000000000,0.016000298,0.007040364,0.070973559,0.006037944,0.004942845,-0.000954021,0.001455107,0.000001890,-0.001410665,-0.232322820,-0.119911400,-2.689841654,-0.002002275,0.001093720,-0.023468936,0.999720806,0.000000000,0.000000000,0.000000000,0.000000000,0.000000000,0.000000000,-2.689447387,0.000000000,4.175366402
1772430159.782373667,0.015877000,0.006938000,0.070989000,-0.004669050,0.004809790,-0.029881280,0.999530980,-0.009622000,0.009336000,-0.059818000,0.000446892,-0.000257226,0.000052389,0.002384880,0.011135282,0.004280150,-0.000476063,-0.003059778,0.998779814,0.000541949,0.001761397,0.001931482,0.000000000,0.000000000,0.000000000,0.000000000,0.015995208,0.007041812,0.070974780,0.006037741,0.004875699,-0.001059149,0.002495600,0.001458776,-0.002574334,-0.232531464,-0.119797166,-2.687107829,-0.002004145,0.001092718,-0.023445087,0.999721397,0.000000000,0.000000000,0.000000000,0.000000000,0.000000000,0.000000000,-2.686781899,0.000000000,4.175366402
1772430159.792373180,0.015891000,0.006936000,0.070989000,-0.004716010,0.004678290,-0.029914540,0.999530390,-0.009708000,0.009070000,-0.059883000,0.000210334,0.000038345,-0.000028885,0.000351463,0.035950494,0.001427067,-0.000338957,-0.002393547,1.000788766,0.000480162,-0.001699407,-0.000511438,0.000000000,0.000000000,0.000000000,0.000000000,0.015994560,0.007032957,0.070971248,0.006048448,0.004862993,-0.001148634,0.001915840,0.001203142,0.001414646,-0.232564740,-0.122472142,-2.682244157,-0.002003936,0.001115977,-0.023402605,0.999720542,0.000000000,0.000000000,0.000000000,0.000000000,0.000000000,0.000000000,-2.689854764,0.000000000,4.175366402
1772430159.802372694,0.015886000,0.006949000,0.070984000,-0.004677890,0.005365850,-0.029911390,0.999527210,-0.009673000,0.010447000,-0.059884000,-0.000215657,0.000311733,0.000007012,-0.001701826,0.038737408,-0.002941199,0.000059235,-0.004281663,1.000372164,-0.001258145,-0.001410921,0.001448843,0.000000000,0.000000000,0.000000000,0.000000000,0.015995443,0.007028171,0.070967628,0.006078933,0.004815834,-0.001219617,0.002007960,-0.001005267,-0.001107968,-0.231900044,-0.121825803,-2.683871825,-0.001998253,0.001110231,-0.023416824,0.999721050,0.000000000,0.000000000,0.000000000,0.000000000,0.000000000,0.000000000,-2.689192730,0.000000000,4.175366402
1772430159.812372684,0.015879000,0.006942000,0.071002000,-0.004726290,0.005381200,-0.029925980,0.999526460,-0.009771000,0.010475000,-0.059914000,-0.000401962,0.000259480,-0.000037529,-0.001433463,0.027968873,-0.005281663,-0.000110475,-0.004850470,1.000202239,-0.001239094,-0.002349008,0.000094173,0.000000000,0.000000000,0.000000000,0.000000000,0.016000601,0.007034128,0.070966463,0.006214562,0.004699952,-0.001199057,0.002965001,0.000640636,0.000760900,-0.231235315,-0.121179433,-2.685499572,-0.001992570,0.001104484,-0.023431044,0.999721488,0.000000000,0.000000000,0.000000000,0.000000000,0.000000000,0.000000000,-2.686276901,0.000000000,4.175366402
1772430159.822372675,0.015885000,0.006942000,0.071008000,-0.004687870,0.005509300,-0.029986360,0.999524130,-0.009702000,0.010732000,-0.060035000,-0.000299282,-0.000008392,-0.000184985,-0.000042972,0.009507958,-0.005722136,-0.000258206,-0.004600119,1.001186120,-0.001671468,-0.000516312,-0.001295735,0.000000000,0.000000000,0.000000000,0.000000000,0.016004138,0.007033386,0.070975748,0.006521024,0.004726156,-0.001044889,0.005330844,0.002593747,0.000586042,-0.231555400,-0.119988973,-2.683208179,-0.001995628,0.001094124,-0.023411071,0.999722156,0.000000000,0.000000000,0.000000000,0.000000000,0.000000000,0.000000000,-2.682593621,0.000000000,4.175366402
1772430159.832371712,0.015864000,0.006950000,0.070985000,-0.004670130,0.005393510,-0.030008180,0.999524190,-0.009660000,0.010502000,-0.060078000,-0.000031935,-0.000177778,-0.000202389,-0.001648485,-0.012905822,-0.002896093,-0.000405923,-0.004349792,1.002169906,-0.002103802,0.001316209,-0.002685512,0.000000000,0.000000000,0.000000000,0.000000000,0.016004001,0.007034990,0.070978236,0.006762691,0.004750395,-0.000923312,0.002989727,0.001164300,0.000483025,-0.232086000,-0.120915924,-2.680996925,-0.002000089,0.001102281,-0.023391757,0.999722702,0.000000000,0.000000000,0.000000000,0.000000000,0.000000000,0.000000000,-2.680749749,0.000000000,4.175366402
1772430159.842371941,0.015871000,0.006947000,0.070979000,-0.004705270,0.005271040,-0.030018120,0.999524380,-0.009723000,0.010255000,-0.060097000,0.000199204,-0.000168590,-0.000018823,-0.002366346,-0.020210309,-0.000240357,-0.000327605,-0.003312707,1.000511835,0.000144594,-0.001192493,-0.002019713,0.000000000,0.000000000,0.000000000,0.000000000,0.016001398,0.007038089,0.070972333,0.006857751,0.004722514,-0.000805432,0.001328173,0.000259699,0.001757293,-0.232287484,-0.122527207,-2.677135729,-0.002001555,0.001116312,-0.023358040,0.999723328,0.000000000,0.000000000,0.000000000,0.000000000,0.000000000,0.000000000,-2.676599888,0.000000000,4.175366402
1772430159.852371454,0.015883000,0.006936000,0.070987000,-0.004734200,0.005274690,-0.029975990,0.999525490,-0.009781000,0.010261000,-0.060013000,0.000340929,-0.000093415,0.000210781,-0.001434254,0.000174810,0.002759645,0.000238921,-0.001631574,0.998444538,0.002166102,-0.001164665,-0.000937530,0.000000000,0.000000000,0.000000000,0.000000000,0.016004380,0.007036838,0.070969506,0.006877262,0.004669252,-0.000709144,0.002259437,0.002703622,-0.002185508,-0.232636561,-0.122756081,-2.676288085,-0.002004562,0.001118365,-0.023350638,0.999723674,0.000000000,0.000000000,0.000000000,0.000000000,0.000000000,0.000000000,-2.676241311,0.000000000,4.175366402
1772430159.862371683,0.015888000,0.006937000,0.070991000,-0.004729200,0.005210380,-0.029968950,0.999526060,-0.009767000,0.010133000,-0.059998000,0.000212238,-0.000114530,0.000369542,-0.003465594,0.017879516,0.005829673,0.001195874,-0.001053220,0.999076996,0.000836901,0.002533953,0.000231509,0.000000000,0.000000000,0.000000000,0.000000000,0.016011100,0.007032213,0.070971311,0.006972229,0.004765335,-0.000822612,0.003288510,0.002871400,-0.001330682,-0.232247990,-0.122162118,-2.674520801,-0.002001310,0.001113073,-0.023335235,0.999723937,0.000000000,0.000000000,0.000000000,0.000000000,0.000000000,0.000000000,-2.674205374,0.000000000,4.175366402
1772430159.872371674,0.015887000,0.006941000,0.071008000,-0.004792930,0.005204900,-0.029959310,0.999526080,-0.009894000,0.010118000,-0.059979000,-0.000018201,0.000122980,0.000136830,-0.002234340,0.031106915,0.007244494,0.002113351,-0.002821481,1.000125748,-0.000758157,-0.001746847,0.003840896,0.000000000,0.000000000,0.000000000,0.000000000,0.016018407,0.007031859,0.070973879,0.007180692,0.004911989,-0.000874448,0.003953231,0.001423203,0.000043048,-0.231426313,-0.122934036,-2.672478003,-0.001994005,0.001119605,-0.023317408,0.999724392,0.000000000,0.000000000,0.000000000,0.000000000,0.000000000,0.000000000,-2.672263164,0.000000000,4.175366402
1772430159.882371426,0.015875000,0.006947000,0.071001000,-0.004689910,0.005740210,-0.029899980,0.999525410,-0.009719000,0.011195000,-0.059865000,-0.000381003,0.000273641,-0.000338151,-0.000902231,0.031451163,0.007028006,0.001603472,-0.004006085,0.999574348,-0.000957354,-0.001294549,-0.000364192,0.000000000,0.000000000,0.000000000,0.000000000,0.016023503,0.007034271,0.070983197,0.007413378,0.004913626,-0.000796548,0.003779814,-0.000226809,0.000416437,-0.231324929,-0.122956533,-2.669424611,-0.001993145,0.001119727,-0.023290771,0.999724888,0.000000000,0.000000000,0.000000000,0.000000000,0.000000000,0.000000000,-2.668906961,0.000000000,4.175366402
1772430159.892370701,0.015884000,0.006939000,0.070993000,-0.004723380,0.005841320,-0.029890130,0.999524960,-0.009792000,0.011395000,-0.059847000,-0.000193881,0.000083528,-0.000432401,0.002262394,0.016886866,0.004907133,0.000442587,-0.005423146,0.999709029,-0.003712318,-0.000457878,-0.003512688,0.000000000,0.000000000,0.000000000,0.000000000,0.016022299,0.007037742,0.070984728,0.007582536,0.004761992,-0.000753871,0.002389208,-0.000693743,-0.000963841,-0.231809311,-0.122279584,-2.667065490,-0.001997532,0.001113878,-0.023270196,0.999725576,0.000000000,0.000000000,0.000000000,0.000000000,0.000000000,0.000000000,-2.666959678,0.000000000,4.175366402
1772430159.902370691,0.015870000,0.006946000,0.070977000,-0.004786860,0.005830360,-0.029829870,0.999526520,-0.009918000,0.011370000,-0.059727000,0.000107304,-0.000186908,-0.000045901,0.003575191,-0.001223764,0.001679536,0.002358036,-0.003528978,0.997657778,-0.001752890,-0.001779889,0.000760733,0.000000000,0.000000000,0.000000000,0.000000000,0.016027154,0.007033543,0.070980074,0.007670496,0.004527844,-0.000864679,0.003760420,-0.000257269,-0.001879573,-0.232436319,-0.122022637,-2.665718149,-0.002003067,0.001111741,-0.023258437,0.999725803,0.000000000,0.000000000,0.000000000,0.000000000,0.000000000,0.000000000,-2.665421513,0.000000000,4.175366402
1772430159.912370682,0.015874000,0.006951000,0.070980000,-0.004701300,0.005663130,-0.029843000,0.999527500,-0.009737000,0.011041000,-0.059750000,0.000185975,-0.000196737,0.000344251,0.002067350,-0.022543754,-0.003067915,0.001739134,-0.002308513,0.997666724,0.002822039,-0.000196865,0.004274442,0.000000000,0.000000000,0.000000000,0.000000000,0.016023822,0.007033211,0.070969135,0.007850679,0.004432714,-0.001069831,0.003437216,0.002360255,-0.002315843,-0.233016059,-0.121746632,-2.664068948,-0.002008197,0.001109421,-0.023244049,0.999726029,0.000000000,0.000000000,0.000000000,0.000000000,0.000000000,0.000000000,-2.663778424,0.000000000,4.175366402
1772430159.922370911,0.015885000,0.006935000,0.070996000,-0.004697780,0.005561780,-0.029888160,0.999526740,-0.009724000,0.010838000,-0.059839000,0.000362957,-0.000168842,0.000607965,0.000246501,-0.029938444,-0.008678844,0.001526787,-0.002190638,0.997644439,0.002736833,-0.000341400,0.003877307,0.000000000,0.000000000,0.000000000,0.000000000,0.016024506,0.007032982,0.070968968,0.007861215,0.004448611,-0.001095234,0.003207977,0.002670348,-0.002361521,-0.233091796,-0.121608331,-2.663272243,-0.002008893,0.001108216,-0.023237102,0.999726132,0.000000000,0.000000000,0.000000000,0.000000000,0.000000000,0.000000000,-2.663229493,0.000000000,4.175366402
1772430159.932370901,0.015894000,0.006931000,0.071009000,-0.004639270,0.005332330,-0.029934020,0.999526890,-0.009594000,0.010382000,-0.059928000,0.000268823,-0.000083761,0.000401535,0.001266825,-0.013541887,-0.009211080,0.001314445,-0.002072766,0.997622155,0.002651630,-0.000485932,0.003480181,0.000000000,0.000000000,0.000000000,0.000000000,0.016025190,0.007032753,0.070968801,0.007871750,0.004464507,-0.001120635,0.003059934,0.002617680,-0.002360287,-0.232907516,-0.121543474,-2.663011903,-0.002007301,0.001107608,-0.023234834,0.999726235,0.000000000,0.000000000,0.000000000,0.000000000,0.000000000,0.000000000,-2.662970955,0.000000000,4.175366402
1772430159.942370653,0.015883000,0.006940000,0.071013000,-0.004738330,0.005363530,-0.029982370,0.999524810,-0.009794000,0.010438000,-0.060026000,0.000057323,-0.000023873,-0.000029837,0.001039917,-0.008172039,-0.007112400,0.001102108,-0.001954897,0.997599871,0.002566429,-0.000630460,0.003083065,0.000000000,0.000000000,0.000000000,0.000000000,0.016025873,0.007032523,0.070968633,0.007882286,0.004480403,-0.001146037,0.002911895,0.002565014,-0.002359054,-0.232723241,-0.121478619,-2.662751570,-0.002005709,0.001107001,-0.023232566,0.999726323,0.000000000,0.000000000,0.000000000,0.000000000,0.000000000,0.000000000,-2.662712423,0.000000000,4.175366402
1772430159.952369928,0.015879000,0.006945000,0.070997000,-0.004766380,0.005289180,-0.030020720,0.999523920,-0.009846000,0.010287000,-0.060103000,-0.000332207,0.000234985,-0.000383450,0.000823372,-0.012398326,-0.002513767,0.000889781,-0.001837034,0.997577588,0.002481232,-0.000774981,0.002685967,0.000000000,0.000000000,0.000000000,0.000000000,0.016026557,0.007032294,0.070968466,0.007892821,0.004496298,-0.001171436,0.002763862,0.002512351,-0.002357820,-0.232538975,-0.121413767,-2.662491249,-0.002004117,0.001106393,-0.023230298,0.999726390,0.000000000,0.000000000,0.000000000,0.000000000,0.000000000,0.000000000,-2.662453903,0.000000000,4.175366402
1772430159.962370396,0.015894000,0.006938000,0.070988000,-0.004678210,0.005446460,-0.030051330,0.999522570,-0.009680000,0.010607000,-0.060165000,-0.000391201,0.000223019,-0.000526729,0.003409188,-0.007822226,0.001305272,0.000677429,-0.001719156,0.997555302,0.002396024,-0.000919520,0.002288823,0.000000000,0.000000000,0.000000000,0.000000000,0.016027241,0.007032065,0.070968299,0.007903357,0.004512195,-0.001196839,0.002615812,0.002459681,-0.002356586,-0.232354686,-0.121348906,-2.662230897,-0.002002525,0.001105785,-0.023228029,0.999726457,0.000000000,0.000000000,0.000000000,0.000000000,0.000000000,0.000000000,-2.662195353,0.000000000,4.175366402
1772430159.972370386,0.015876000,0.006942000,0.070987000,-0.004655370,0.005400420,-0.029952370,0.999525900,-0.009631000,0.010517000,-0.059966000,-0.000114744,-0.000034693,-0.000207110,0.003900931,-0.010733478,0.003039700,0.000465087,-0.001601284,0.997533018,0.002310821,-0.001064051,0.001891697,0.000000000,0.000000000,0.000000000,0.000000000,0.016027925,0.007031836,0.070968131,0.007913892,0.004528091,-0.001222241,0.002467769,0.002407014,-0.002355352,-0.232170407,-0.121284049,-2.661970557,-0.002000933,0.001105178,-0.023225761,0.999726524,0.000000000,0.000000000,0.000000000,0.000000000,0.000000000,0.000000000,-2.661936815,0.000000000,4.175366402
1772430159.982371092,0.015870000,0.006945000,0.070991000,-0.004649360,0.004973010,-0.029959490,0.999527930,-0.009593000,0.009663000,-0.059976000,0.000052234,-0.000094561,0.000188831,0.002269074,-0.012049479,0.002426739,0.000252730,-0.001483404,0.997510731,0.002225612,-0.001208593,0.001494542,0.000000000,0.000000000,0.000000000,0.000000000,0.016028609,0.007031607,0.070967964,0.007924429,0.004543988,-0.001247645,0.002319716,0.002354343,-0.002354118,-0.231986114,-0.121219188,-2.661710199,-0.001999341,0.001104570,-0.023223493,0.999726590,0.000000000,0.000000000,0.000000000,0.000000000,0.000000000,0.000000000,-2.661678258,0.000000000,4.175064220
1772430159.992371559,0.015878000,0.006945000,0.070999000,-0.004664670,0.005005710,-0.029963120,0.999527590,-0.009626000,0.009727000,-0.059983000,0.000103225,0.000016667,0.000187374,-0.004599615,0.001838159,0.001951384,0.000040378,-0.001365526,0.997488446,0.002140405,-0.001353132,0.001097398,0.000000000,0.000000000,0.000000000,0.000000000,0.016029293,0.007031377,0.070967797,0.007934965,0.004559885,-0.001273048,0.002171665,0.002301673,-0.002352885,-0.231801825,-0.121154328,-2.661449847,-0.001997749,0.001103962,-0.023221225,0.999726657,0.000000000,0.000000000,0.000000000,0.000000000,0.000000000,0.000000000,-2.661419708,0.000000000,4.174719294
1772430160.002371550,0.015885000,0.006934000,0.070991000,-0.004670310,0.005404410,-0.029962010,0.999525520,-0.009661000,0.010524000,-0.059985000,0.000062141,0.000099204,-0.000025019,-0.007395476,0.009959559,0.000391773,-0.000171964,-0.001247654,0.997466161,0.002055201,-0.001497663,0.000700272,0.000000000,0.000000000,0.000000000,0.000000000,0.016029977,0.007031148,0.070967629,0.007945500,0.004575781,-0.001298450,0.002023622,0.002249006,-0.002351651,-0.231617546,-0.121089471,-2.661189507,-0.001996157,0.001103355,-0.023218957,0.999726724,0.000000000,0.000000000,0.000000000,0.000000000,0.000000000,0.000000000,-2.661161170,0.000000000,4.174374384
1772430160.012372494,0.015888000,0.006942000,0.071001000,-0.004733530,0.005063780,-0.029974670,0.999526620,-0.009767000,0.009839000,-0.060008000,0.000151826,0.000125000,-0.000203264,-0.004606247,0.014339336,0.000606843,-0.000384327,-0.001129771,0.997443875,0.001969990,-0.001642209,0.000303108,0.000000000,0.000000000,0.000000000,0.000000000,0.016030660,0.007030919,0.070967462,0.007956037,0.004591679,-0.001323854,0.001875565,0.002196333,-0.002350417,-0.231433249,-0.121024608,-2.660929143,-0.001994565,0.001102747,-0.023216688,0.999726791,0.000000000,0.000000000,0.000000000,0.000000000,0.000000000,0.000000000,-2.660902607,0.000000000,4.174029441
1772430160.022372723,0.015877000,0.006948000,0.070991000,-0.004778900,0.005357980,-0.029967870,0.999525080,-0.009875000,0.010425000,-0.059998000,-0.000225020,0.000121426,-0.000243532,-0.002003330,0.002016638,0.003677499,-0.000126003,-0.001267697,0.997578067,0.001899519,-0.001380756,-0.000072289,0.000000000,0.000000000,0.000000000,0.000000000,0.016031344,0.007030690,0.070967295,0.007966573,0.004607575,-0.001349256,0.001727519,0.002143665,-0.002349183,-0.231248965,-0.120959749,-2.660668797,-0.001992973,0.001102139,-0.023214420,0.999726858,0.000000000,0.000000000,0.000000000,0.000000000,0.000000000,0.000000000,-2.660644063,0.000000000,4.173684522
1772430160.032373190,0.015882000,0.006946000,0.070979000,-0.004781360,0.005505450,-0.029910940,0.999525970,-0.009888000,0.010720000,-0.059885000,-0.000179021,-0.000042696,0.000006488,0.001813600,-0.019574229,0.003158912,0.000887567,-0.001816086,0.997963346,0.001852688,-0.000467844,-0.000412815,0.000000000,0.000000000,0.000000000,0.000000000,0.016032028,0.007030461,0.070967127,0.007977109,0.004623472,-0.001374659,0.001579469,0.002090995,-0.002347949,-0.231064676,-0.120894889,-2.660408445,-0.001991381,0.001101531,-0.023212152,0.999726925,0.000000000,0.000000000,0.000000000,0.000000000,0.000000000,0.000000000,-2.660385513,0.000000000,4.173339596
1772430160.042373180,0.015873000,0.006945000,0.070992000,-0.004694390,0.005109540,-0.029935250,0.999527760,-0.009691000,0.009933000,-0.059929000,0.000122630,-0.000250894,0.000251477,0.003741938,-0.027180439,0.000076158,0.001901090,-0.002364449,0.998348608,0.001805859,0.000445024,-0.000753324,0.000000000,0.000000000,0.000000000,0.000000000,0.016032712,0.007030231,0.070966960,0.007987644,0.004639369,-0.001400061,0.002172602,0.001939099,-0.002207776,-0.230880397,-0.120830032,-2.660148106,-0.001989789,0.001100924,-0.023209884,0.999726992,0.000000000,0.000000000,0.000000000,0.000000000,0.000000000,0.000000000,-2.660037032,0.000000000,4.172994686
1772430160.052372694,0.015880000,0.006944000,0.070993000,-0.004682350,0.004974720,-0.029891970,0.999529790,-0.009658000,0.009665000,-0.059841000,0.000249534,-0.000355964,0.000155459,0.003435206,-0.013825775,-0.001611035,0.002404773,-0.002845679,0.999161300,0.001522916,0.001522953,-0.000031592,0.000000000,0.000000000,0.000000000,0.000000000,0.016036886,0.007028348,0.070969877,0.008128100,0.004640496,-0.001433259,0.006227609,0.001323731,-0.001418649,-0.230242298,-0.118606630,-2.657627790,-0.001984696,0.001081353,-0.023187940,0.999727467,0.000000000,0.000000000,0.000000000,0.000000000,0.000000000,0.000000000,-2.657327367,0.000000000,4.172649793
1772430160.062373638,0.015876000,0.006934000,0.070997000,-0.004729410,0.004821650,-0.029915670,0.999529610,-0.009743000,0.009356000,-0.059887000,0.000205789,-0.000101166,0.000247766,0.002502530,0.001997614,-0.003255749,0.001593245,-0.002974568,0.999382777,0.001209725,0.000298050,0.000636897,0.000000000,0.000000000,0.000000000,0.000000000,0.016044067,0.007026585,0.070977609,0.008444064,0.004601097,-0.001422159,0.003697919,0.000782175,0.000041523,-0.230150841,-0.119476299,-2.654529831,-0.001983751,0.001088868,-0.023160896,0.999728081,0.000000000,0.000000000,0.000000000,0.000000000,0.000000000,0.000000000,-2.654777450,0.000000000,4.172304850
1772430160.072373152,0.015898000,0.006931000,0.071004000,-0.004687810,0.004958910,-0.029990980,0.999526880,-0.009669000,0.009632000,-0.060039000,-0.000036228,0.000121406,0.000108586,0.001544912,0.021069754,-0.003939276,-0.000522576,-0.002432060,0.998014399,0.001856601,0.004665298,0.002600004,0.000000000,0.000000000,0.000000000,0.000000000,0.016045248,0.007030291,0.070976413,0.008588936,0.004598561,-0.001446725,0.001683502,0.001651042,-0.001725211,-0.229442528,-0.119879652,-2.658290365,-0.001977454,0.001092309,-0.023193704,0.999727606,0.000000000,0.000000000,0.000000000,0.000000000,0.000000000,0.000000000,-2.658727282,0.000000000,4.171959956
1772430160.082373142,0.015887000,0.006939000,0.070993000,-0.004714440,0.005181300,-0.030011870,0.999525000,-0.009736000,0.010075000,-0.060083000,-0.000166531,0.000219600,-0.000084382,-0.000819014,0.032064904,-0.003266136,-0.002554194,-0.002727457,0.999663204,-0.000078337,0.003807307,-0.001683457,0.000000000,0.000000000,0.000000000,0.000000000,0.016051780,0.007029424,0.070965762,0.008444098,0.004650071,-0.001612434,-0.000177438,0.000779440,0.000058656,-0.227816318,-0.120519754,-2.659551963,-0.001963125,0.001097586,-0.023204714,0.999727427,0.000000000,0.000000000,0.000000000,0.000000000,0.000000000,0.000000000,-2.659223130,0.000000000,4.171615046
