t,px,py,pz,qx,qy,qz,qw,roll,pitch,yaw,vx,vy,vz,wx_vicon,wy_vicon,wz_vicon,imu_acc_x,imu_acc_y,imu_acc_z,imu_gyro_x,imu_gyro_y,imu_gyro_z,motor_motor_m1,motor_motor_m2,motor_motor_m3,motor_motor_m4,est_stateEstimate_x,est_stateEstimate_y,est_stateEstimate_z,est_stateEstimate_vx,est_stateEstimate_vy,est_stateEstimate_vz,est_stateEstimate_ax,est_stateEstimate_ay,est_stateEstimate_az,att_stateEstimate_roll,att_stateEstimate_pitch,att_stateEstimate_yaw,att_stateEstimate_qx,att_stateEstimate_qy,att_stateEstimate_qz,att_stateEstimate_qw,sp_ctrltarget_x,sp_ctrltarget_y,sp_ctrltarget_z,sp_ctrltarget_yaw,pid_controller_roll,pid_controller_pitch,pid_controller_yaw,pid_controller_cmd_thrust,pwr_pm_vbat
1772681568.311157942,0.016028000,0.006774000,0.055374000,0.009916520,0.018151460,0.006977910,0.999761720,0.020096000,0.036164000,0.014322000,-0.011023145,-0.003970677,0.013316433,-0.285792071,0.339286715,-0.184104730,0.004916207,0.000749289,1.000305906,-0.002886780,-0.001006531,-0.000802238,0.000000000,0.000000000,0.000000000,0.000000000,0.016762170,0.006507922,0.055447322,0.040174452,-0.011623457,-0.000800718,0.010294346,-0.003463715,0.000008154,0.225728201,-0.310828288,0.459333941,0.001958951,0.002720357,0.004003064,0.999985347,0.000000000,0.000000000,0.000000000,0.000000000,0.000000000,0.000000000,0.459642550,0.000000000,4.143694878
1772681568.321159124,0.015972000,0.006749000,0.055457000,0.009042500,0.019178770,0.006514690,0.999753950,0.018345000,0.038240000,0.013383000,-0.003643303,-0.001756445,0.004954236,-0.166363056,0.210583500,-0.085252462,0.005773946,0.003574200,1.000072530,-0.000567024,-0.001590271,-0.004006170,0.000000000,0.000000000,0.000000000,0.000000000,0.016753195,0.006517010,0.055447882,0.040008844,-0.011557498,-0.000770478,0.011084981,-0.001524359,0.000344115,0.224778793,-0.309224451,0.457984754,0.001950754,0.002706305,0.003991341,0.999985418,0.000000000,0.000000000,0.000000000,0.000000000,0.000000000,0.000000000,0.459071051,0.000000000,4.143694878
1772681568.331159830,0.015959000,0.006748000,0.055458000,0.008554870,0.019797460,0.006243420,0.999747920,0.017367000,0.039488000,0.012833000,0.000414316,-0.000464547,0.000299326,-0.086958978,0.124460530,-0.027714932,0.006898999,0.003521925,0.998574311,0.000526395,-0.000174968,-0.000540992,0.000000000,0.000000000,0.000000000,0.000000000,0.016788314,0.006538082,0.055397618,0.040110063,-0.011217929,-0.000955628,0.012585621,0.000103627,-0.001110179,0.224654668,-0.309106974,0.456637926,0.001949707,0.002705252,0.003979593,0.999985516,0.000000000,0.000000000,0.000000000,0.000000000,0.000000000,0.000000000,0.457282178,0.000000000,4.143694878
1772681568.341160297,0.015967000,0.006740000,0.055466000,0.007978590,0.020553180,0.006105730,0.999738280,0.016218000,0.041010000,0.012547000,0.001939886,0.000125985,-0.001543362,-0.038995621,0.071202533,-0.001621357,0.005628597,0.001495087,0.998254460,0.001414651,-0.000302320,0.000001897,0.000000000,0.000000000,0.000000000,0.000000000,0.016784659,0.006525590,0.055426695,0.040161882,-0.010972849,-0.000961637,0.010953708,-0.002317659,-0.001458890,0.224900464,-0.309889157,0.456229784,0.001951834,0.002712080,0.003976012,0.999985516,0.000000000,0.000000000,0.000000000,0.000000000,0.000000000,0.000000000,0.456483053,0.000000000,4.143694878
1772681568.351161003,0.015969000,0.006725000,0.055483000,0.007533190,0.021359030,0.006033900,0.999725280,0.015335000,0.042628000,0.012398000,0.001723579,0.000236120,-0.001468890,-0.013933854,0.041056429,0.002883169,0.005811343,0.000818521,0.997197596,-0.000132994,0.000794118,-0.002282252,0.000000000,0.000000000,0.000000000,0.000000000,0.016798342,0.006530430,0.055427844,0.040078510,-0.010912528,-0.001112180,0.011115433,-0.003123516,-0.002433715,0.225380033,-0.309483905,0.456689021,0.001956023,0.002708568,0.003980015,0.999985516,0.000000000,0.000000000,0.000000000,0.000000000,0.000000000,0.000000000,0.456125052,0.000000000,4.143694878
1772681568.361161947,0.015952000,0.006721000,0.055500000,0.007052380,0.022223910,0.005835100,0.999711110,0.014375000,0.044367000,0.011992000,0.000555568,0.000086826,-0.000372321,-0.003228817,0.024275175,-0.004328732,0.006246885,0.002040885,0.999253263,0.001023798,0.000526276,-0.000100646,0.000000000,0.000000000,0.000000000,0.000000000,0.016786031,0.006544003,0.055405377,0.039927761,-0.010830806,-0.001412404,0.011907116,-0.002086618,-0.001956496,0.225822551,-0.308535850,0.455602641,0.001959943,0.002700291,0.003970541,0.999985551,0.000000000,0.000000000,0.000000000,0.000000000,0.000000000,0.000000000,0.456809516,0.000000000,4.143694878
1772681568.371162653,0.016048000,0.006771000,0.055376000,0.008612570,0.019916850,0.006434580,0.999743840,0.017492000,0.039723000,0.013220000,0.000373312,0.000393999,-0.000697636,0.022190853,-0.017643761,0.002282892,0.005092798,0.000315383,1.000416524,0.003273962,0.002910793,-0.001557837,0.000000000,0.000000000,0.000000000,0.000000000,0.016778724,0.006544975,0.055396538,0.039840879,-0.010754356,-0.001500891,0.010851845,-0.002116255,0.000458010,0.226814253,-0.308647550,0.455365555,0.001968599,0.002701296,0.003968447,0.999985576,0.000000000,0.000000000,0.000000000,0.000000000,0.000000000,0.000000000,0.455314741,0.000000000,4.143694878
1772681568.381163597,0.015991000,0.006740000,0.055452000,0.008249570,0.020610040,0.006162130,0.999734560,0.016764000,0.041119000,0.012672000,-0.000245579,0.000301015,-0.000263935,0.021658602,-0.025488079,0.001619085,0.005722502,-0.001434693,1.001550745,0.002489434,0.000103064,-0.001519762,0.000000000,0.000000000,0.000000000,0.000000000,0.016779957,0.006541353,0.055397003,0.039737385,-0.010845954,-0.001347079,0.011194642,-0.005360818,0.002047300,0.227616425,-0.309819480,0.455901346,0.001975546,0.002711560,0.003973083,0.999985530,0.000000000,0.000000000,0.000000000,0.000000000,0.000000000,0.000000000,0.455509113,0.000000000,4.143694878
1772681568.391164064,0.015960000,0.006743000,0.055477000,0.007842950,0.021170250,0.005920010,0.999727590,0.015947000,0.042249000,0.012180000,0.000292449,0.000522237,-0.000931095,0.039781594,-0.061088652,0.017520852,0.005837144,-0.001260480,1.001556211,0.002048950,-0.001209245,-0.001661900,0.000000000,0.000000000,0.000000000,0.000000000,0.016776478,0.006536322,0.055406728,0.039679871,-0.010946937,-0.001224127,0.011071057,-0.004947098,0.001853085,0.227559500,-0.309626369,0.455917527,0.001975055,0.002709873,0.003973229,0.999985516,0.000000000,0.000000000,0.000000000,0.000000000,0.000000000,0.000000000,0.455907953,0.000000000,4.143694878
1772681568.401165247,0.015953000,0.006730000,0.055484000,0.007492810,0.021570090,0.005852210,0.999722130,0.015249000,0.043054000,0.012036000,0.000419192,0.000405245,-0.000716711,0.044727228,-0.070811185,0.029944162,0.005798531,-0.000888575,1.001372136,0.001737193,-0.002122080,-0.002020294,0.000000000,0.000000000,0.000000000,0.000000000,0.016778793,0.006537069,0.055403084,0.039677518,-0.010964615,-0.001218399,0.010947463,-0.004533348,0.001658855,0.227500400,-0.309429440,0.455932219,0.001974546,0.002708153,0.003973362,0.999985516,0.000000000,0.000000000,0.000000000,0.000000000,0.000000000,0.000000000,0.455922370,0.000000000,4.143694878
1772681568.411165953,0.016034000,0.006777000,0.055369000,0.008952050,0.019518420,0.006595530,0.999747660,0.018172000,0.038919000,0.013548000,0.000336464,-0.000101277,-0.000115049,0.035101584,-0.054000213,0.032874742,0.005759920,-0.000516689,1.001188069,0.001425451,-0.003034871,-0.002378672,0.000000000,0.000000000,0.000000000,0.000000000,0.016781109,0.006537816,0.055399440,0.039675166,-0.010982292,-0.001212672,0.010823876,-0.004119618,0.001464635,0.227441303,-0.309232519,0.455946910,0.001974037,0.002706433,0.003973495,0.999985516,0.000000000,0.000000000,0.000000000,0.000000000,0.000000000,0.000000000,0.455936786,0.000000000,4.143694878
1772681568.421167135,0.015980000,0.006741000,0.055464000,0.008353650,0.020302690,0.006397020,0.999738510,0.016977000,0.040499000,0.013141000,0.000259234,-0.000230351,0.000204750,0.022178809,-0.038218577,0.026650734,0.005721308,-0.000144784,1.001003994,0.001113694,-0.003947706,-0.002737066,0.000000000,0.000000000,0.000000000,0.000000000,0.016783425,0.006538564,0.055395795,0.039672813,-0.010999970,-0.001206944,0.010700282,-0.003705868,0.001270406,0.227382203,-0.309035590,0.455961602,0.001973528,0.002704713,0.003973628,0.999985516,0.000000000,0.000000000,0.000000000,0.000000000,0.000000000,0.000000000,0.455951203,0.000000000,4.143694878
1772681568.431168079,0.016044000,0.006777000,0.055372000,0.009543360,0.018604420,0.006963250,0.999757130,0.019356000,0.037075000,0.014289000,-0.000012567,-0.000136629,0.000296198,0.003113550,-0.010546626,0.008198184,0.005682696,0.000227111,1.000819924,0.000801944,-0.004860520,-0.003095452,0.000000000,0.000000000,0.000000000,0.000000000,0.016785740,0.006539311,0.055392151,0.039670460,-0.011017647,-0.001201217,0.010645794,-0.003469231,0.000940680,0.227323104,-0.308838665,0.455976294,0.001973018,0.002702992,0.003973761,0.999985516,0.000000000,0.000000000,0.000000000,0.000000000,0.000000000,0.000000000,0.455965619,0.000000000,4.143694878
1772681568.441168308,0.015979000,0.006737000,0.055473000,0.008603360,0.019957830,0.006587490,0.999742100,0.017480000,0.039803000,0.013526000,-0.000145156,-0.000227670,0.000406605,-0.019527168,0.015507265,-0.013739216,0.005644087,0.000598980,1.000635866,0.000490217,-0.005773268,-0.003453812,0.000000000,0.000000000,0.000000000,0.000000000,0.016788056,0.006540058,0.055388507,0.039668107,-0.011035323,-0.001195490,0.010626710,-0.003323336,0.000541564,0.227264010,-0.308641755,0.455990984,0.001972509,0.002701272,0.003973894,0.999985516,0.000000000,0.000000000,0.000000000,0.000000000,0.000000000,0.000000000,0.455980034,0.000000000,4.143694878
1772681568.451168299,0.015971000,0.006717000,0.055486000,0.008044990,0.020737060,0.006328870,0.999732560,0.016363000,0.041373000,0.013000000,-0.000713661,-0.000451980,0.001167933,-0.057117091,0.062349601,-0.040481201,0.005605478,0.000970840,1.000451813,0.000178497,-0.006685994,-0.003812164,0.000000000,0.000000000,0.000000000,0.000000000,0.016790371,0.006540805,0.055384863,0.039665754,-0.011052999,-0.001189763,0.010607626,-0.003177445,0.000142457,0.227204917,-0.308444849,0.456005675,0.001972000,0.002699552,0.003974027,0.999985516,0.000000000,0.000000000,0.000000000,0.000000000,0.000000000,0.000000000,0.455994450,0.000000000,4.143694878
1772681568.461168289,0.015965000,0.006748000,0.055469000,0.007727190,0.020956200,0.006052700,0.999732210,0.015718000,0.041820000,0.012437000,0.000465518,0.000493916,-0.000754588,-0.020591427,0.012914620,-0.028550614,0.005566870,0.001342700,1.000267760,-0.000133223,-0.007598720,-0.004170516,0.000000000,0.000000000,0.000000000,0.000000000,0.016792687,0.006541552,0.055381219,0.039663401,-0.011070674,-0.001184037,0.010588543,-0.003031554,-0.000256649,0.227145824,-0.308247943,0.456020365,0.001971491,0.002697832,0.003974160,0.999985516,0.000000000,0.000000000,0.000000000,0.000000000,0.000000000,0.000000000,0.456008865,0.000000000,4.143694878
1772681568.471169710,0.016051000,0.006784000,0.055358000,0.008934420,0.019168210,0.006427900,0.999755690,0.018125000,0.038221000,0.013205000,-0.000149566,0.000293168,0.000067557,-0.019819978,0.025784051,-0.029030163,0.004923220,0.001413310,0.999571486,-0.001770836,-0.003720020,-0.002508430,0.000000000,0.000000000,0.000000000,0.000000000,0.016790151,0.006536274,0.055389813,0.039622808,-0.011097075,-0.001127432,0.010569457,-0.002885642,-0.000655813,0.227367179,-0.306684561,0.455258548,0.001973495,0.002684184,0.003967534,0.999985559,0.000000000,0.000000000,0.000000000,0.000000000,0.000000000,0.000000000,0.456023282,0.000000000,4.143694878
1772681568.481170416,0.015997000,0.006731000,0.055463000,0.008173870,0.020171900,0.006066540,0.999744710,0.016603000,0.040245000,0.012470000,0.000729822,0.000834188,-0.001534077,0.036526351,-0.040504038,0.000607669,0.003995835,0.000899520,0.998377938,-0.001328390,-0.000481001,-0.000924902,0.000000000,0.000000000,0.000000000,0.000000000,0.016773430,0.006518814,0.055427065,0.039458179,-0.011137075,-0.000967442,0.009551598,-0.003114911,-0.001019983,0.227531791,-0.305651039,0.454731673,0.001974979,0.002675161,0.003962950,0.999985635,0.000000000,0.000000000,0.000000000,0.000000000,0.000000000,0.000000000,0.455034400,0.000000000,4.143694878
1772681568.491171122,0.015961000,0.006748000,0.055488000,0.007657730,0.021049540,0.005763240,0.999732490,0.015568000,0.042012000,0.011857000,-0.000113864,0.000053047,-0.000052406,0.024329545,-0.011578033,0.004903023,0.004061388,0.000626571,0.997582131,-0.000011714,-0.001828301,0.000215682,0.000000000,0.000000000,0.000000000,0.000000000,0.016749875,0.006520652,0.055445441,0.039174280,-0.011134188,-0.000996366,0.009585950,-0.003565699,-0.002357680,0.226833091,-0.305690303,0.454551439,0.001968885,0.002675477,0.003961393,0.999985654,0.000000000,0.000000000,0.000000000,0.000000000,0.000000000,0.000000000,0.454468236,0.000000000,4.144253817
1772681568.501172304,0.016032000,0.006784000,0.055371000,0.009025500,0.019423550,0.006353070,0.999750420,0.018308000,0.038732000,0.013064000,0.000166892,-0.000085252,-0.000486147,0.035174365,-0.025288287,0.019086394,0.004921823,0.001067802,0.997551957,-0.001557096,-0.002449521,0.000448149,0.000000000,0.000000000,0.000000000,0.000000000,0.016734605,0.006521800,0.055455925,0.038966894,-0.011152435,-0.001185943,0.009746228,-0.002983216,-0.002280176,0.226148213,-0.304633272,0.454545743,0.001962945,0.002666229,0.003961378,0.999985695,0.000000000,0.000000000,0.000000000,0.000000000,0.000000000,0.000000000,0.454596626,0.000000000,4.144844658
1772681568.511172295,0.015967000,0.006739000,0.055470000,0.008248440,0.020687720,0.006052180,0.999733640,0.016758000,0.041276000,0.012453000,0.000537329,-0.000240509,-0.000529288,0.038571343,-0.040990999,0.031477420,0.005181312,0.002691934,0.998622557,-0.000166378,0.001586509,0.001895941,0.000000000,0.000000000,0.000000000,0.000000000,0.016723038,0.006519008,0.055461977,0.038857367,-0.011106664,-0.001345161,0.010921934,-0.002631578,-0.002037443,0.225089681,-0.304597346,0.455413792,0.001953689,0.002665893,0.003968978,0.999985695,0.000000000,0.000000000,0.000000000,0.000000000,0.000000000,0.000000000,0.455535654,0.000000000,4.145435429
1772681568.521173000,0.016039000,0.006772000,0.055365000,0.009386840,0.018923820,0.006591690,0.999755130,0.019033000,0.037724000,0.013545000,0.000981967,-0.000361055,-0.000637247,0.040148928,-0.056679398,0.038129714,0.006363272,0.003979198,0.998820266,-0.000814453,0.001515890,0.002435170,0.000000000,0.000000000,0.000000000,0.000000000,0.016717733,0.006522297,0.055457215,0.038837308,-0.010852749,-0.001468721,0.010936507,0.000954288,-0.000978842,0.224415805,-0.302713667,0.454942780,0.001947884,0.002649424,0.003964916,0.999985653,0.000000000,0.000000000,0.000000000,0.000000000,0.000000000,0.000000000,0.454949148,0.000000000,4.146026243
1772681568.531173706,0.015994000,0.006732000,0.055465000,0.008433710,0.020246110,0.006364050,0.999739200,0.017136000,0.040385000,0.013077000,-0.000068023,-0.000772225,0.001035033,-0.005373058,-0.003648224,0.017026105,0.007493189,0.001732458,1.001034244,-0.001206014,-0.002355987,0.000781373,0.000000000,0.000000000,0.000000000,0.000000000,0.016978752,0.006449719,0.055447708,0.039627665,-0.010755714,-0.001488831,0.012341340,-0.001361196,0.000509610,0.225284293,-0.305075635,0.455104154,0.001955378,0.002670069,0.003966262,0.999985684,0.000000000,0.000000000,0.000000000,0.000000000,0.000000000,0.000000000,0.455012452,0.000000000,4.146617056
1772681568.541174889,0.016046000,0.006762000,0.055374000,0.009515950,0.018666350,0.006861500,0.999756940,0.019298000,0.037202000,0.014085000,-0.001039928,-0.000747207,0.002160660,-0.057692138,0.071034141,-0.006582414,0.008194793,0.001752092,1.000090446,-0.001028920,-0.002410675,0.000717559,0.000000000,0.000000000,0.000000000,0.000000000,0.017408632,0.006334107,0.055431991,0.040973275,-0.010919495,-0.001453555,0.012968478,-0.001792957,0.000524991,0.225232966,-0.304793152,0.454635921,0.001954950,0.002667594,0.003962183,0.999985746,0.000000000,0.000000000,0.000000000,0.000000000,0.000000000,0.000000000,0.454350735,0.000000000,4.147207898
1772681568.551175117,0.015997000,0.006713000,0.055484000,0.008463670,0.020119740,0.006614770,0.999739870,0.017204000,0.040128000,0.013578000,-0.001120558,-0.000172972,0.001520966,-0.071056160,0.097796982,-0.019407717,0.005611862,0.001865307,1.001613996,0.000341857,0.001608061,0.002098811,0.000000000,0.000000000,0.000000000,0.000000000,0.017922323,0.006198074,0.055414611,0.042509025,-0.011175207,-0.001350229,0.011113777,-0.002142968,0.001063590,0.220612139,-0.287411066,0.454102753,0.001915241,0.002515739,0.003957922,0.999985894,0.000000000,0.000000000,0.000000000,0.000000000,0.000000000,0.000000000,0.454430603,0.000000000,4.147798683
1772681568.561176062,0.015969000,0.006736000,0.055481000,0.007917580,0.020897320,0.006285700,0.999730520,0.016108000,0.041696000,0.012911000,-0.001819495,-0.000192493,0.001934117,-0.096956285,0.146706053,-0.041114850,0.005055581,0.000484136,1.000636262,0.001411643,0.001875001,0.001599071,0.000000000,0.000000000,0.000000000,0.000000000,0.017191153,0.006398354,0.055444743,0.035827718,-0.009290459,-0.000910303,0.009919057,-0.002500275,0.000761892,0.211561432,-0.255467161,0.454396487,0.001837360,0.002236671,0.003961210,0.999986988,0.000000000,0.000000000,0.000000000,0.000000000,0.000000000,0.000000000,0.454171121,0.000000000,4.148389511
1772681568.571176291,0.015969000,0.006745000,0.055478000,0.007579420,0.021394930,0.006152800,0.999723440,0.015433000,0.042698000,0.012638000,-0.000995117,0.000104269,0.000630468,-0.077279289,0.123124613,-0.041378876,0.006572011,-0.000110000,1.000077946,0.001614863,-0.002838809,0.000107474,0.000000000,0.000000000,0.000000000,0.000000000,0.017582702,0.006296552,0.055435250,0.036867498,-0.009612491,-0.000857375,0.010299968,-0.003981722,-0.000597821,0.211647820,-0.255526515,0.454465553,0.001838110,0.002237194,0.003961811,0.999986947,0.000000000,0.000000000,0.000000000,0.000000000,0.000000000,0.000000000,0.454606631,0.000000000,4.148966739
1772681568.581177950,0.015962000,0.006722000,0.055503000,0.007049990,0.022245670,0.006071090,0.999709240,0.014381000,0.044407000,0.012465000,-0.000732949,-0.000046016,0.000475405,-0.066907171,0.107547616,-0.042527087,0.007103522,0.001257415,0.999042432,0.001130862,-0.003416047,0.000799468,0.000000000,0.000000000,0.000000000,0.000000000,0.017977923,0.006192913,0.055425889,0.038003339,-0.010014799,-0.000916107,0.012428126,-0.003212955,-0.001244667,0.212379668,-0.256114212,0.454343361,0.001844479,0.002242346,0.003960721,0.999986973,0.000000000,0.000000000,0.000000000,0.000000000,0.000000000,0.000000000,0.454213062,0.000000000,4.148384971
1772681568.591177940,0.015960000,0.006747000,0.055474000,0.007102960,0.022188900,0.005814030,0.999711660,0.014475000,0.044297000,0.011952000,0.000473035,-0.000148478,-0.000610636,-0.021660833,0.035566530,-0.021226533,0.006352273,0.001274725,0.999335699,0.000274423,-0.000632500,0.002594383,0.000000000,0.000000000,0.000000000,0.000000000,0.017652727,0.006286715,0.055429970,0.035705690,-0.009362420,-0.000910518,0.010401788,-0.002760668,-0.000059068,0.208139551,-0.236160525,0.461986140,0.001808039,0.002068191,0.004027812,0.999987104,0.000000000,0.000000000,0.000000000,0.000000000,0.000000000,0.000000000,0.456588511,0.000000000,4.147803299
1772681568.601179123,0.015963000,0.006729000,0.055486000,0.006933860,0.022549990,0.005745330,0.999705160,0.014138000,0.045022000,0.011812000,0.000827389,-0.000535678,-0.000192668,-0.006704455,0.001076368,-0.008286740,0.005690593,0.000401979,0.999557328,0.001461939,0.000314781,0.000720187,0.000000000,0.000000000,0.000000000,0.000000000,0.016356175,0.006644738,0.055455219,0.028904929,-0.007516230,-0.000744381,0.010007150,-0.003019660,-0.000187923,0.204907909,-0.221454114,0.467707843,0.001780250,0.001939832,0.004078036,0.999987245,0.000000000,0.000000000,0.000000000,0.000000000,0.000000000,0.000000000,0.465812614,0.000000000,4.147221559
1772681568.611179829,0.015976000,0.006721000,0.055483000,0.006947400,0.022385760,0.005719630,0.999708910,0.014161000,0.044694000,0.011759000,0.000214539,-0.000528491,0.000483932,-0.014009224,-0.000106091,-0.007347202,0.005656004,0.000642143,0.997571027,0.001660600,-0.000593695,-0.000565012,0.000000000,0.000000000,0.000000000,0.000000000,0.016201471,0.006686167,0.055454433,0.028977528,-0.007576566,-0.000780325,0.008942124,-0.002732309,-0.001282142,0.205531005,-0.222067253,0.467371493,0.001785671,0.001945199,0.004075081,0.999987217,0.000000000,0.000000000,0.000000000,0.000000000,0.000000000,0.000000000,0.467255016,0.000000000,4.146639846
1772681568.621179819,0.015976000,0.006728000,0.055478000,0.006983830,0.022159430,0.005754010,0.999713500,0.014233000,0.044240000,0.011826000,0.000747809,0.000196319,-0.000684331,0.017702469,-0.044232617,0.011911272,0.005835935,0.000734333,0.998673397,0.002402077,0.001364660,-0.001061939,0.000000000,0.000000000,0.000000000,0.000000000,0.016263587,0.006680163,0.055422309,0.029612782,-0.007818717,-0.001031997,0.010760397,-0.002880135,-0.002663521,0.205945207,-0.223049983,0.466206389,0.001789271,0.001953772,0.004064891,0.999987223,0.000000000,0.000000000,0.000000000,0.000000000,0.000000000,0.000000000,0.466026132,0.000000000,4.146058175
1772681568.631180286,0.015995000,0.006711000,0.055488000,0.007020230,0.022025560,0.005906130,0.999715310,0.014311000,0.043970000,0.012130000,0.000836577,0.000554248,-0.001162747,0.046685195,-0.075620499,0.030155948,0.004332695,0.001085641,1.001187102,0.002407115,-0.002046792,0.002341001,0.000000000,0.000000000,0.000000000,0.000000000,0.016270253,0.006666496,0.055442029,0.030072072,-0.008011969,-0.001133430,0.008779413,-0.002527557,0.001281987,0.206674847,-0.224785331,0.465651872,0.001795586,0.001968932,0.004060011,0.999987196,0.000000000,0.000000000,0.000000000,0.000000000,0.000000000,0.000000000,0.465399755,0.000000000,4.145476476
1772681568.641181231,0.015988000,0.006738000,0.055469000,0.007187490,0.021680820,0.005934370,0.999721490,0.014643000,0.043278000,0.012189000,0.000296995,0.001038530,-0.001400459,0.066082471,-0.089381838,0.033447402,0.003924783,0.001322213,1.000368662,-0.002589663,-0.002559363,-0.003132635,0.000000000,0.000000000,0.000000000,0.000000000,0.016302609,0.006678274,0.055411266,0.030418770,-0.008099730,-0.001146920,0.008340883,-0.002664712,0.000587911,0.207812527,-0.223532808,0.464244054,0.001805582,0.001958020,0.004047727,0.999987243,0.000000000,0.000000000,0.000000000,0.000000000,0.000000000,0.000000000,0.463731269,0.000000000,4.144894749
1772681568.651181936,0.015959000,0.006731000,0.055490000,0.007083810,0.021961600,0.005905480,0.999716280,0.014437000,0.043841000,0.012131000,-0.000620503,0.000554015,-0.000059690,0.040205222,-0.047118782,0.016805521,0.006041363,0.000824779,1.000404219,-0.000312325,-0.002049977,-0.002245463,0.000000000,0.000000000,0.000000000,0.000000000,0.016289573,0.006671519,0.055430423,0.030520822,-0.008239561,-0.000928303,0.009416443,-0.002027135,-0.000219568,0.207010636,-0.221561960,0.462318115,0.001798687,0.001940763,0.004030965,0.999987372,0.000000000,0.000000000,0.000000000,0.000000000,0.000000000,0.000000000,0.462103045,0.000000000,4.144313036
1772681568.661182404,0.016040000,0.006780000,0.055365000,0.008802040,0.019803280,0.006567230,0.999743580,0.017875000,0.039491000,0.013491000,-0.000183092,0.000473210,-0.000410179,0.038448710,-0.050769059,0.012289738,0.005908342,-0.000291313,0.998494081,-0.001066787,0.000524533,0.000569436,0.000000000,0.000000000,0.000000000,0.000000000,0.016285756,0.006671813,0.055430844,0.030761485,-0.008312384,-0.000855835,0.010093448,-0.003713422,-0.001168489,0.206806224,-0.221152507,0.461683524,0.001796929,0.001937173,0.004025437,0.999987423,0.000000000,0.000000000,0.000000000,0.000000000,0.000000000,0.000000000,0.461643958,0.000000000,4.143731337
1772681568.671183109,0.015976000,0.006745000,0.055465000,0.008196610,0.020578320,0.006340600,0.999734540,0.016665000,0.041053000,0.013027000,0.000249386,0.000177575,-0.000557569,0.033372602,-0.054164472,0.008326883,0.006360064,0.001223501,0.998419683,-0.001571662,0.002618409,0.000676038,0.000000000,0.000000000,0.000000000,0.000000000,0.016309525,0.006684356,0.055393594,0.031083134,-0.008438302,-0.001072198,0.009852321,-0.003210613,-0.001912557,0.206401318,-0.220997913,0.461406612,0.001793405,0.001935805,0.004023030,0.999987423,0.000000000,0.000000000,0.000000000,0.000000000,0.000000000,0.000000000,0.461317321,0.000000000,4.143694878
1772681568.681183815,0.015954000,0.006742000,0.055482000,0.007764440,0.021094450,0.006081260,0.999728840,0.015796000,0.042095000,0.012498000,0.000007303,-0.000589774,0.000506523,0.001577929,-0.017875738,-0.005135132,0.007543629,0.001276792,0.998856765,-0.000907047,0.001711483,0.000721273,0.000000000,0.000000000,0.000000000,0.000000000,0.016299666,0.006661819,0.055427256,0.031326714,-0.008692824,-0.001059952,0.010430139,-0.002049914,-0.001423131,0.206217932,-0.221076042,0.461690167,0.001791797,0.001936485,0.004025506,0.999987411,0.000000000,0.000000000,0.000000000,0.000000000,0.000000000,0.000000000,0.461933115,0.000000000,4.143694878
1772681568.691184759,0.015972000,0.006731000,0.055491000,0.007467210,0.021198000,0.005916260,0.999729910,0.015195000,0.042309000,0.012157000,0.000629438,-0.000199816,-0.000267645,0.009441528,-0.033842004,-0.003749019,0.007224767,0.000470362,0.998686326,-0.001693157,0.002361169,-0.000009638,0.000000000,0.000000000,0.000000000,0.000000000,0.016295347,0.006651533,0.055451150,0.031659672,-0.008702890,-0.001067639,0.011413734,-0.002900691,-0.001459705,0.205854172,-0.221049161,0.461640770,0.001788625,0.001936237,0.004025082,0.999987376,0.000000000,0.000000000,0.000000000,0.000000000,0.000000000,0.000000000,0.461300537,0.000000000,4.143694878
1772681568.701184750,0.016046000,0.006767000,0.055370000,0.008888660,0.019250110,0.006534080,0.999753830,0.018039000,0.038384000,0.013417000,0.000590668,-0.000041917,-0.000421348,0.020326007,-0.043225107,0.001322970,0.006733013,0.001202998,0.996999595,0.000068848,0.002456264,0.002029225,0.000000000,0.000000000,0.000000000,0.000000000,0.016299090,0.006634970,0.055468801,0.032053302,-0.008842239,-0.001044281,0.010832100,-0.002576615,-0.002657875,0.205110168,-0.221942707,0.461463824,0.001782104,0.001944005,0.004023536,0.999987423,0.000000000,0.000000000,0.000000000,0.000000000,0.000000000,0.000000000,0.461700312,0.000000000,4.143694878
1772681568.711185455,0.015995000,0.006734000,0.055450000,0.008324310,0.020061600,0.006227040,0.999744700,0.016909000,0.040020000,0.012795000,0.000553684,0.000302531,-0.000769972,0.031448959,-0.044526181,0.009076995,0.005020254,0.002082260,0.999030490,0.000906148,-0.003760913,-0.001352822,0.000000000,0.000000000,0.000000000,0.000000000,0.016303032,0.006640731,0.055460213,0.032438273,-0.008900013,-0.001297062,0.008947014,-0.001454962,-0.001253008,0.204949193,-0.221298821,0.461101805,0.001780728,0.001938375,0.004020390,0.999987446,0.000000000,0.000000000,0.000000000,0.000000000,0.000000000,0.000000000,0.460818328,0.000000000,4.143694878
1772681568.721186399,0.015973000,0.006734000,0.055478000,0.007990710,0.020551900,0.006053290,0.999738530,0.016240000,0.041008000,0.012443000,0.000017171,0.000548265,-0.000629205,0.031835650,-0.032538165,0.014619807,0.004710993,0.002058761,0.999870549,-0.000444000,-0.001249877,0.001534056,0.000000000,0.000000000,0.000000000,0.000000000,0.016411110,0.006613081,0.055455877,0.032894182,-0.008854846,-0.001437224,0.008903061,-0.001107740,0.000089154,0.204918349,-0.218629283,0.460126775,0.001780569,0.001915063,0.004011923,0.999987513,0.000000000,0.000000000,0.000000000,0.000000000,0.000000000,0.000000000,0.459942295,0.000000000,4.143694878
1772681568.731186628,0.016049000,0.006778000,0.055373000,0.009297360,0.018762930,0.006573890,0.999759120,0.018851000,0.037403000,0.013503000,-0.000424417,0.000399942,-0.000322052,0.017968445,-0.003829560,0.012799287,0.005250803,0.001100232,0.999235210,0.002372054,0.000033843,0.000579242,0.000000000,0.000000000,0.000000000,0.000000000,0.016616786,0.006564618,0.055442575,0.033511774,-0.008892369,-0.001426101,0.008670662,-0.002520853,-0.000593048,0.205238947,-0.217266484,0.460830208,0.001783403,0.001903193,0.004018078,0.999987543,0.000000000,0.000000000,0.000000000,0.000000000,0.000000000,0.000000000,0.460977732,0.000000000,4.143694878
1772681568.741187572,0.015972000,0.006743000,0.055465000,0.008421120,0.020083450,0.006294880,0.999743020,0.017105000,0.040061000,0.012936000,-0.000401302,0.000173360,0.000041626,0.001581063,0.021416068,0.010285847,0.005622785,-0.000037937,0.999664022,0.000265816,-0.000444300,-0.001046433,0.000000000,0.000000000,0.000000000,0.000000000,0.016619058,0.006565702,0.055444986,0.033657265,-0.008989337,-0.001430258,0.009394960,-0.003038849,-0.000718946,0.205521333,-0.214934954,0.460760389,0.001785950,0.001882855,0.004017501,0.999987543,0.000000000,0.000000000,0.000000000,0.000000000,0.000000000,0.000000000,0.460761259,0.000000000,4.143694878
1772681568.751188278,0.015975000,0.006750000,0.055450000,0.008117500,0.020683510,0.006265060,0.999733490,0.016505000,0.041266000,0.012874000,0.000052329,-0.000331570,0.000125208,-0.006986726,0.033809315,0.012285725,0.004194926,0.001654810,1.000259575,-0.000517871,-0.000838635,0.002132129,0.000000000,0.000000000,0.000000000,0.000000000,0.016619160,0.006565206,0.055449036,0.033752485,-0.009048049,-0.001322206,0.008796045,-0.002634899,0.000721308,0.205930042,-0.215740475,0.460688098,0.001789489,0.001889898,0.004016850,0.999987543,0.000000000,0.000000000,0.000000000,0.000000000,0.000000000,0.000000000,0.460577901,0.000000000,4.143694878
1772681568.761188269,0.016033000,0.006781000,0.055361000,0.009334410,0.019124350,0.006807550,0.999750360,0.018939000,0.038121000,0.013979000,-0.000128549,-0.001064519,0.001307320,-0.037949205,0.071978219,-0.003125435,0.004469220,0.000665303,0.999913927,-0.000447143,-0.001048753,-0.001041690,0.000000000,0.000000000,0.000000000,0.000000000,0.016625330,0.006551291,0.055460979,0.033784157,-0.009104285,-0.001201635,0.008118321,-0.002442711,-0.000104038,0.205536682,-0.215975041,0.460389143,0.001786053,0.001891927,0.004014244,0.999987543,0.000000000,0.000000000,0.000000000,0.000000000,0.000000000,0.000000000,0.460510264,0.000000000,4.143694878
1772681568.771189451,0.015985000,0.006726000,0.055465000,0.008290950,0.020635840,0.006436420,0.999731960,0.016858000,0.041166000,0.013223000,-0.000313991,-0.001202022,0.001807161,-0.061915884,0.095142638,-0.018173042,0.003977902,0.001314824,0.999243524,-0.002808280,0.001963250,0.002362598,0.000000000,0.000000000,0.000000000,0.000000000,0.016312727,0.006638737,0.055468337,0.033051817,-0.008896334,-0.001164716,0.008219821,-0.002555497,-0.000175216,0.204622906,-0.215970241,0.460691020,0.001778074,0.001891858,0.004016894,0.999987543,0.000000000,0.000000000,0.000000000,0.000000000,0.000000000,0.000000000,0.460644603,0.000000000,4.143694878
1772681568.781189680,0.015982000,0.006729000,0.055483000,0.007875910,0.021229600,0.006312090,0.999723680,0.016031000,0.042361000,0.012967000,-0.000044481,-0.000606537,0.000933639,-0.057624330,0.075029656,-0.024666708,0.004468332,0.001731805,1.000205457,-0.001144388,0.002157547,-0.000048014,0.000000000,0.000000000,0.000000000,0.000000000,0.016301898,0.006639876,0.055468966,0.033022770,-0.008953144,-0.001173150,0.008012780,-0.001512617,0.000057570,0.203365124,-0.215742071,0.460620996,0.001767107,0.001889821,0.004016307,0.999987543,0.000000000,0.000000000,0.000000000,0.000000000,0.000000000,0.000000000,0.460727535,0.000000000,4.143694878
1772681568.791190386,0.015988000,0.006701000,0.055501000,0.007362580,0.021827130,0.006134850,0.999715830,0.015004000,0.043565000,0.012600000,-0.000919188,-0.000288603,0.001103950,-0.072624306,0.088944644,-0.041487227,0.005757566,0.001840173,0.999497244,0.001538935,-0.000687874,-0.002469378,0.000000000,0.000000000,0.000000000,0.000000000,0.016314432,0.006645530,0.055451032,0.033049509,-0.008928213,-0.001236509,0.008529830,-0.001835249,-0.000040621,0.202550591,-0.215507113,0.460870112,0.001760004,0.001887746,0.004018498,0.999987589,0.000000000,0.000000000,0.000000000,0.000000000,0.000000000,0.000000000,0.460830372,0.000000000,4.143694878
1772681568.801190376,0.015999000,0.006733000,0.055459000,0.007551980,0.021488150,0.006088180,0.999722040,0.015376000,0.042886000,0.012509000,-0.000856137,0.000326811,0.000238217,-0.063344399,0.071430135,-0.042273487,0.005952760,0.001773743,0.999382393,0.001744623,-0.000391605,-0.001443719,0.000000000,0.000000000,0.000000000,0.000000000,0.016328405,0.006651871,0.055431298,0.033079731,-0.008894563,-0.001305151,0.008952268,-0.001558181,-0.000267427,0.202529263,-0.215488941,0.460735721,0.001759820,0.001887585,0.004017326,0.999987602,0.000000000,0.000000000,0.000000000,0.000000000,0.000000000,0.000000000,0.460696280,0.000000000,4.143694878
1772681568.811190367,0.015961000,0.006732000,0.055479000,0.007022990,0.022133020,0.005828850,0.999713370,0.014314000,0.044186000,0.011977000,-0.000388754,0.001084856,-0.001061392,-0.019475122,0.011014120,-0.024936720,0.006147954,0.001707314,0.999267543,0.001950310,-0.000095336,-0.000418060,0.000000000,0.000000000,0.000000000,0.000000000,0.016342379,0.006658211,0.055411564,0.033109953,-0.008860912,-0.001373793,0.009374706,-0.001281113,-0.000494233,0.202507934,-0.215470768,0.460601331,0.001759637,0.001887423,0.004016154,0.999987602,0.000000000,0.000000000,0.000000000,0.000000000,0.000000000,0.000000000,0.460562188,0.000000000,4.143694878
1772681568.821191072,0.015960000,0.006744000,0.055467000,0.006911670,0.022200050,0.005631010,0.999713800,0.014084000,0.044324000,0.011577000,-0.000628195,0.000417152,-0.000083796,-0.014697542,0.013353549,-0.018195659,0.006343161,0.001640879,0.999152684,0.002156013,0.000200954,0.000607672,0.000000000,0.000000000,0.000000000,0.000000000,0.016343255,0.006658325,0.055410071,0.033117561,-0.008852462,-0.001369564,0.009797175,-0.001004024,-0.000721054,0.202486603,-0.215452595,0.460466930,0.001759454,0.001887262,0.004014982,0.999987602,0.000000000,0.000000000,0.000000000,0.000000000,0.000000000,0.000000000,0.460428087,0.000000000,4.143694878
1772681568.831192017,0.015966000,0.006746000,0.055466000,0.007001230,0.022124830,0.005606300,0.999714980,0.014261000,0.044173000,0.011531000,-0.000133871,0.000013208,0.000319701,-0.004662598,0.005770824,-0.006782250,0.006538373,0.001574443,0.999037822,0.002361720,0.000497252,0.001633429,0.000000000,0.000000000,0.000000000,0.000000000,0.016338839,0.006655924,0.055415948,0.033116031,-0.008854196,-0.001335888,0.010219654,-0.000726930,-0.000947882,0.202465273,-0.215434421,0.460332527,0.001759270,0.001887100,0.004013809,0.999987602,0.000000000,0.000000000,0.000000000,0.000000000,0.000000000,0.000000000,0.460293983,0.000000000,4.143694878
1772681568.841192484,0.015968000,0.006737000,0.055479000,0.006939420,0.022097710,0.005689770,0.999715540,0.014141000,0.044118000,0.011695000,-0.000137950,-0.000790658,0.001279136,-0.015734011,0.025453455,-0.004842455,0.006733576,0.001508011,0.998922966,0.002567417,0.000793535,0.002659137,0.000000000,0.000000000,0.000000000,0.000000000,0.016334422,0.006653523,0.055421826,0.033114501,-0.008855930,-0.001302214,0.010642112,-0.000449848,-0.001174698,0.202443943,-0.215416248,0.460198130,0.001759087,0.001886939,0.004012637,0.999987602,0.000000000,0.000000000,0.000000000,0.000000000,0.000000000,0.000000000,0.460159885,0.000000000,4.143694878
1772681568.851192474,0.015961000,0.006742000,0.055478000,0.007080460,0.022045150,0.005716820,0.999715560,0.014423000,0.044011000,0.011754000,0.001152394,-0.000256981,-0.000411364,0.022157703,-0.023984478,0.014192366,0.006928770,0.001441581,0.998808116,0.002773104,0.001089804,0.003684796,0.000000000,0.000000000,0.000000000,0.000000000,0.016330006,0.006651121,0.055427702,0.033112972,-0.008857663,-0.001268542,0.011064551,-0.000172780,-0.001401504,0.202422614,-0.215398075,0.460063739,0.001758904,0.001886778,0.004011465,0.999987602,0.000000000,0.000000000,0.000000000,0.000000000,0.000000000,0.000000000,0.460036348,0.000000000,4.143694878
1772681568.861192226,0.015976000,0.006711000,0.055498000,0.006973240,0.022296480,0.005756940,0.999710510,0.014214000,0.044514000,0.011833000,0.001380200,0.000083310,-0.001160396,0.048145392,-0.056271978,0.026503224,0.005196463,0.000166446,0.998961695,0.002072500,0.001816029,0.002734455,0.000000000,0.000000000,0.000000000,0.000000000,0.016320181,0.006643499,0.055440958,0.033196497,-0.008841871,-0.001236234,0.009623788,-0.003491384,-0.000426015,0.203324273,-0.215643516,0.460675972,0.001766754,0.001888960,0.004016789,0.999987602,0.000000000,0.000000000,0.000000000,0.000000000,0.000000000,0.000000000,0.460857079,0.000000000,4.143694878
1772681568.871192694,0.015992000,0.006730000,0.055474000,0.007159370,0.021932800,0.005788380,0.999717060,0.014583000,0.043784000,0.011899000,0.001249145,0.000004332,-0.001328027,0.060013292,-0.070687351,0.032898995,0.005565179,-0.000769136,1.000382505,0.001114176,0.002304529,-0.003947838,0.000000000,0.000000000,0.000000000,0.000000000,0.016301564,0.006641822,0.055457414,0.033306573,-0.008890311,-0.001214377,0.009009400,-0.003800718,-0.000550281,0.204481775,-0.217355900,0.461245320,0.001776785,0.001903953,0.004021712,0.999987560,0.000000000,0.000000000,0.000000000,0.000000000,0.000000000,0.000000000,0.460817689,0.000000000,4.143694878
1772681568.881193161,0.015976000,0.006726000,0.055481000,0.007189810,0.022021440,0.005824750,0.999714680,0.014647000,0.043961000,0.011975000,0.000541428,0.000098364,-0.000913555,0.057649505,-0.063465111,0.032026718,0.006149673,-0.001363158,1.000337117,-0.001754862,-0.006260979,-0.005261148,0.000000000,0.000000000,0.000000000,0.000000000,0.016291193,0.006648564,0.055460730,0.033362802,-0.009067958,-0.001172692,0.009837142,-0.004620742,0.000402483,0.204575407,-0.218518717,0.458684160,0.001777604,0.001914064,0.003999342,0.999987543,0.000000000,0.000000000,0.000000000,0.000000000,0.000000000,0.000000000,0.458263096,0.000000000,4.143694878
1772681568.891193867,0.016066000,0.006767000,0.055358000,0.008802140,0.019899070,0.006495480,0.999742150,0.017873000,0.039684000,0.013349000,-0.000462779,0.000253096,-0.000264537,0.035692023,-0.037705687,0.019288749,0.004189690,0.000199092,0.999955744,0.002679440,0.000627505,-0.000462476,0.000000000,0.000000000,0.000000000,0.000000000,0.016295710,0.006638458,0.055470835,0.033557898,-0.009360403,-0.001029417,0.008296516,-0.004174920,-0.000164036,0.204324656,-0.217998384,0.457398462,0.001775455,0.001909495,0.003988135,0.999987660,0.000000000,0.000000000,0.000000000,0.000000000,0.000000000,0.000000000,0.457510916,0.000000000,4.143694878
1772681568.901195288,0.015984000,0.006727000,0.055468000,0.008148030,0.020911490,0.006295690,0.999728300,0.016570000,0.041721000,0.012940000,-0.001635996,-0.000155723,0.001291179,-0.017692224,0.034657298,-0.008512088,0.004919446,-0.000051386,0.999636202,0.001257035,0.000820555,0.003812034,0.000000000,0.000000000,0.000000000,0.000000000,0.016336463,0.006654350,0.055416138,0.033673213,-0.009522463,-0.001236824,0.008512573,-0.003521674,-0.000169392,0.204343568,-0.219389662,0.457584101,0.001775569,0.001921639,0.003989732,0.999987602,0.000000000,0.000000000,0.000000000,0.000000000,0.000000000,0.000000000,0.457509910,0.000000000,4.143694878
1772681568.911195278,0.015969000,0.006708000,0.055487000,0.007717610,0.021503740,0.006206380,0.999719710,0.015713000,0.042913000,0.012753000,-0.001070094,-0.000162832,0.000978995,-0.032132059,0.046897398,-0.016474700,0.005688210,0.000519360,0.998631938,0.003088645,0.000920632,0.000370844,0.000000000,0.000000000,0.000000000,0.000000000,0.016332229,0.006643052,0.055431507,0.033606465,-0.009671713,-0.001118514,0.009185135,-0.002959705,-0.001014272,0.204107491,-0.220816986,0.457355509,0.001773463,0.001934083,0.003987719,0.999987602,0.000000000,0.000000000,0.000000000,0.000000000,0.000000000,0.000000000,0.457337347,0.000000000,4.144195259
1772681568.921195984,0.015953000,0.006745000,0.055478000,0.007612470,0.021672310,0.006000390,0.999718140,0.015496000,0.043255000,0.012339000,-0.000173690,0.000195465,0.000031875,-0.020824750,0.020520416,-0.018541918,0.006349266,0.001159392,0.998663524,0.001441426,-0.000106910,-0.000276728,0.000000000,0.000000000,0.000000000,0.000000000,0.016322999,0.006628918,0.055458178,0.033676236,-0.009809800,-0.001068942,0.010201368,-0.002258184,-0.001405454,0.204226307,-0.221539191,0.456798761,0.001774484,0.001940381,0.003982848,0.999987602,0.000000000,0.000000000,0.000000000,0.000000000,0.000000000,0.000000000,0.456596438,0.000000000,4.144785866
1772681568.931196451,0.015959000,0.006740000,0.055473000,0.007343960,0.021854150,0.005780720,0.999717480,0.014951000,0.043625000,0.011891000,0.000533153,0.000028612,-0.000358860,-0.003571784,-0.009621553,-0.008389252,0.006777724,0.000671064,0.998735337,0.001043286,-0.000994596,0.004338240,0.000000000,0.000000000,0.000000000,0.000000000,0.016316175,0.006633842,0.055461110,0.033769693,-0.009780199,-0.001145763,0.011120140,-0.002497186,-0.001513454,0.204528241,-0.221312460,0.456547154,0.001777131,0.001938409,0.003980650,0.999987602,0.000000000,0.000000000,0.000000000,0.000000000,0.000000000,0.000000000,0.456632894,0.000000000,4.145376459
1772681568.941196918,0.015974000,0.006716000,0.055493000,0.007096870,0.022218050,0.005784340,0.999711230,0.014461000,0.044356000,0.011893000,0.001759727,0.000157704,-0.001397526,0.035763551,-0.066863084,0.014750206,0.005330640,0.000562185,0.999809806,-0.000805854,-0.001033017,0.000770459,0.000000000,0.000000000,0.000000000,0.000000000,0.016320392,0.006647629,0.055439784,0.034030561,-0.009741913,-0.001345376,0.009640684,-0.003388505,0.000362051,0.204630713,-0.220710169,0.456793530,0.001778042,0.001933160,0.003982808,0.999987602,0.000000000,0.000000000,0.000000000,0.000000000,0.000000000,0.000000000,0.456828626,0.000000000,4.145967052
1772681568.951196909,0.016047000,0.006765000,0.055372000,0.008719180,0.019857360,0.006413520,0.999744230,0.017703000,0.039603000,0.013181000,0.000286661,-0.000492557,0.000538980,0.006515848,-0.015876595,0.007651139,0.005393039,0.000904861,1.001023990,-0.000227642,0.002991309,0.004693076,0.000000000,0.000000000,0.000000000,0.000000000,0.016528763,0.006609052,0.055394472,0.034677103,-0.009901873,-0.001528512,0.008103251,-0.002197618,0.001012877,0.203917928,-0.219044041,0.456047465,0.001771892,0.001918585,0.003976335,0.999987641,0.000000000,0.000000000,0.000000000,0.000000000,0.000000000,0.000000000,0.456022552,0.000000000,4.146557617
1772681568.961197615,0.016000000,0.006728000,0.055454000,0.008175390,0.020623220,0.006130990,0.999735090,0.016614000,0.041147000,0.012607000,0.000269859,-0.000199991,0.000115204,0.006257886,-0.005047811,0.013303390,0.007000591,-0.000271185,1.001288442,-0.003519789,-0.001743840,-0.001181408,0.000000000,0.000000000,0.000000000,0.000000000,0.016925487,0.006495668,0.055377697,0.035661339,-0.010198110,-0.001438067,0.010180715,-0.003687692,0.001549099,0.203384729,-0.218507797,0.456532519,0.001767250,0.001913894,0.003980585,0.999987662,0.000000000,0.000000000,0.000000000,0.000000000,0.000000000,0.000000000,0.456841071,0.000000000,4.147148224
1772681568.971197605,0.015985000,0.006708000,0.055495000,0.007678400,0.021263360,0.006204200,0.999725170,0.015631000,0.042432000,0.012743000,-0.000152324,0.000613413,-0.000387161,0.011896087,-0.005282951,0.015328803,0.004257407,0.000425623,1.002122240,0.000288096,0.000444487,0.000809949,0.000000000,0.000000000,0.000000000,0.000000000,0.016863961,0.006503882,0.055396703,0.034797838,-0.010063390,-0.001102214,0.009256443,-0.002947982,0.001362762,0.200252689,-0.206726458,0.457765720,0.001740308,0.001810993,0.003991580,0.999987886,0.000000000,0.000000000,0.000000000,0.000000000,0.000000000,0.000000000,0.457793548,0.000000000,4.147738788
1772681568.981197834,0.015985000,0.006732000,0.055474000,0.007625000,0.021447150,0.006100370,0.999722290,0.015522000,0.042802000,0.012536000,-0.000466004,0.000663042,-0.000458370,0.011380571,-0.009175455,0.011775500,0.004880919,-0.000455581,0.999529096,0.001855746,0.000256319,0.000333617,0.000000000,0.000000000,0.000000000,0.000000000,0.017157595,0.006416021,0.055393503,0.035341648,-0.010301694,-0.000835241,0.008203058,-0.003226812,-0.000246068,0.200371250,-0.207125304,0.458020198,0.001741325,0.001814482,0.003993793,0.999987939,0.000000000,0.000000000,0.000000000,0.000000000,0.000000000,0.000000000,0.458125831,0.000000000,4.148329367
1772681568.991198301,0.015959000,0.006741000,0.055478000,0.007391750,0.021995530,0.005987230,0.999712810,0.015058000,0.043904000,0.012308000,-0.000388152,0.000311485,-0.000134823,0.007617664,-0.005288597,0.007138265,0.005010873,-0.000719159,0.998873744,0.001218256,-0.000610446,0.001194931,0.000000000,0.000000000,0.000000000,0.000000000,0.016608904,0.006551470,0.055443560,0.030759424,-0.009229437,-0.000433130,0.008142921,-0.004061151,-0.000731213,0.197505124,-0.193744896,0.459629064,0.001716758,0.001697641,0.004008076,0.999988304,0.000000000,0.000000000,0.000000000,0.000000000,0.000000000,0.000000000,0.460237699,0.000000000,4.148919960
1772681569.001198053,0.016051000,0.006779000,0.055358000,0.008895030,0.019794000,0.006676900,0.999742210,0.018065000,0.039469000,0.013714000,0.000006002,0.000273589,-0.000625184,0.019938520,-0.028640353,0.004952720,0.005189708,-0.000148269,0.997505979,-0.000234150,-0.000649337,-0.000704177,0.000000000,0.000000000,0.000000000,0.000000000,0.016306373,0.006625366,0.055474436,0.030256878,-0.009406649,-0.000425241,0.008242257,-0.003656610,-0.001779329,0.195126990,-0.182016213,0.463585300,0.001696359,0.001595266,0.004042814,0.999988178,0.000000000,0.000000000,0.000000000,0.000000000,0.000000000,0.000000000,0.466107913,0.000000000,4.148453647
1772681569.011198282,0.015976000,0.006748000,0.055448000,0.008354840,0.020447430,0.006432340,0.999735330,0.016983000,0.040788000,0.013214000,-0.000521149,-0.000474298,0.000774634,-0.011021306,0.006554816,-0.014807584,0.006446592,0.000603618,0.997910721,-0.001187972,0.001627898,-0.000647235,0.000000000,0.000000000,0.000000000,0.000000000,0.016162135,0.006674611,0.055472156,0.030243671,-0.009384366,-0.000429295,0.009124716,-0.002991799,-0.002580569,0.196682272,-0.186699848,0.467068120,0.001709717,0.001636244,0.004073115,0.999987900,0.000000000,0.000000000,0.000000000,0.000000000,0.000000000,0.000000000,0.466967760,0.000000000,4.147882014
1772681569.021198273,0.015970000,0.006723000,0.055478000,0.007971930,0.020849960,0.006187100,0.999731690,0.016212000,0.041602000,0.012715000,-0.000840442,-0.001014152,0.001740575,-0.044523070,0.044399436,-0.027779332,0.005751769,0.000655326,1.000129072,-0.000127911,-0.001921270,0.001655496,0.000000000,0.000000000,0.000000000,0.000000000,0.016212157,0.006657453,0.055473832,0.030818601,-0.009565367,-0.000673891,0.009065235,-0.002999582,-0.000567710,0.195907667,-0.185014422,0.466805282,0.001703021,0.001621505,0.004070858,0.999987914,0.000000000,0.000000000,0.000000000,0.000000000,0.000000000,0.000000000,0.466741722,0.000000000,4.147310394
1772681569.031199455,0.015969000,0.006721000,0.055494000,0.007476500,0.021680740,0.005926880,0.999719420,0.015221000,0.043274000,0.012186000,-0.000735882,-0.000734251,0.001528930,-0.058581320,0.072024852,-0.036235603,0.004503874,0.001675240,0.999629027,0.000803584,0.001003382,0.002139447,0.000000000,0.000000000,0.000000000,0.000000000,0.016251373,0.006647763,0.055466380,0.031287796,-0.009664476,-0.000756382,0.007993903,-0.002072032,-0.000156721,0.195916955,-0.184228882,0.466551261,0.001703134,0.001614646,0.004068653,0.999988004,0.000000000,0.000000000,0.000000000,0.000000000,0.000000000,0.000000000,0.466499180,0.000000000,4.146738706
1772681569.041199923,0.015961000,0.006724000,0.055485000,0.007235890,0.021862210,0.005763720,0.999718190,0.014734000,0.043643000,0.011852000,-0.000558482,-0.000261915,0.000912234,-0.055793978,0.077026266,-0.034439701,0.004952153,0.002089251,1.000039022,-0.002032465,0.000346027,0.001681667,0.000000000,0.000000000,0.000000000,0.000000000,0.016264937,0.006643962,0.055465427,0.031430013,-0.009692532,-0.000721566,0.008199692,-0.001046320,-0.000253933,0.195670141,-0.185011865,0.466375022,0.001700955,0.001621468,0.004067107,0.999987985,0.000000000,0.000000000,0.000000000,0.000000000,0.000000000,0.000000000,0.466348483,0.000000000,4.146167059
1772681569.051200628,0.015971000,0.006729000,0.055485000,0.007237150,0.021732080,0.005777250,0.999720940,0.014736000,0.043382000,0.011877000,0.000641676,0.000426864,-0.000809150,-0.014840101,0.020274409,-0.011248578,0.005026931,0.001862525,0.999852703,0.000568274,0.002218454,0.002096950,0.000000000,0.000000000,0.000000000,0.000000000,0.016416640,0.006595248,0.055464955,0.031890317,-0.009632587,-0.000731897,0.007955407,-0.001639529,0.000019918,0.195092527,-0.184397105,0.465468519,0.001695948,0.001616069,0.004059214,0.999988019,0.000000000,0.000000000,0.000000000,0.000000000,0.000000000,0.000000000,0.465268388,0.000000000,4.145595398
1772681569.061201096,0.015970000,0.006727000,0.055476000,0.007259270,0.021765880,0.005777310,0.999720050,0.014780000,0.043449000,0.011879000,0.000249911,0.000398719,-0.000624757,-0.001240781,0.003209727,0.000528354,0.006023505,0.000296906,1.000098916,-0.000231773,-0.000882632,0.001224420,0.000000000,0.000000000,0.000000000,0.000000000,0.016604615,0.006528758,0.055470754,0.032491542,-0.009715103,-0.000662558,0.009636463,-0.002264459,-0.000258768,0.195671008,-0.185158389,0.465552146,0.001700968,0.001622734,0.004059923,0.999987978,0.000000000,0.000000000,0.000000000,0.000000000,0.000000000,0.000000000,0.465439292,0.000000000,4.145023751
1772681569.071202040,0.015978000,0.006737000,0.055469000,0.007289870,0.021989090,0.005758330,0.999715050,0.014844000,0.043896000,0.011846000,0.000074142,0.000328248,-0.000393377,0.008461822,-0.011627336,0.004844941,0.005364435,-0.001663713,0.999662119,-0.002278170,-0.000585087,0.003543745,0.000000000,0.000000000,0.000000000,0.000000000,0.016610807,0.006528262,0.055474256,0.032665140,-0.009872197,-0.000618307,0.009083389,-0.004301607,0.000281402,0.194630451,-0.185811871,0.464639545,0.001691878,0.001628387,0.004051964,0.999988009,0.000000000,0.000000000,0.000000000,0.000000000,0.000000000,0.000000000,0.464282850,0.000000000,4.144452077
1772681569.081201553,0.015969000,0.006731000,0.055481000,0.007153270,0.021918410,0.005717730,0.999717820,0.014568000,0.043757000,0.011757000,0.000039217,0.000186297,-0.000256748,0.011879173,-0.012623425,0.006975015,0.005529925,-0.000019580,1.001264138,0.001423072,-0.000743766,0.005310782,0.000000000,0.000000000,0.000000000,0.000000000,0.016614430,0.006534479,0.055467404,0.032756919,-0.010021767,-0.000610139,0.008705825,-0.004041653,0.000090898,0.193998365,-0.185711730,0.463439166,0.001686382,0.001627473,0.004041499,0.999988078,0.000000000,0.000000000,0.000000000,0.000000000,0.000000000,0.000000000,0.463667301,0.000000000,4.143880484
1772681569.091202259,0.015980000,0.006734000,0.055467000,0.007253860,0.021796400,0.005818980,0.999719180,0.014772000,0.043510000,0.011963000,-0.000037838,-0.000296800,0.000157063,0.004740637,-0.012267472,0.006038749,0.006041526,-0.000041197,1.001554250,-0.001808536,0.000065314,-0.001404422,0.000000000,0.000000000,0.000000000,0.000000000,0.016644760,0.006559423,0.055408521,0.032946377,-0.010087663,-0.000694253,0.009370502,-0.003142619,0.001263916,0.194808987,-0.186585346,0.464131888,0.001693415,0.001635135,0.004047520,0.999988021,0.000000000,0.000000000,0.000000000,0.000000000,0.000000000,0.000000000,0.464007880,0.000000000,4.143694878
1772681569.101202726,0.015967000,0.006736000,0.055470000,0.007378480,0.021693910,0.005898910,0.999720030,0.015023000,0.043302000,0.012126000,0.000111417,-0.000551159,0.000484398,-0.003504570,-0.004122383,0.006779654,0.005773699,0.002333201,0.999486489,0.000055861,-0.001671113,-0.000887019,0.000000000,0.000000000,0.000000000,0.000000000,0.016305144,0.006645472,0.055435486,0.032093579,-0.009907788,-0.000553526,0.008709148,-0.001825756,-0.000155124,0.194242902,-0.186361987,0.463761201,0.001688489,0.001633161,0.004044298,0.999988079,0.000000000,0.000000000,0.000000000,0.000000000,0.000000000,0.000000000,0.463742009,0.000000000,4.143694878
1772681569.111202717,0.015970000,0.006735000,0.055477000,0.007398980,0.021553050,0.005813160,0.999723430,0.015059000,0.043021000,0.011953000,-0.000169592,-0.000818105,0.001100667,-0.026739473,0.030352295,-0.002911245,0.006960847,0.000669762,0.998619318,0.000913924,-0.000222486,-0.001797454,0.000000000,0.000000000,0.000000000,0.000000000,0.016297444,0.006639175,0.055447866,0.032141855,-0.009832339,-0.000450232,0.009688626,-0.002082062,-0.000918512,0.193628202,-0.185659792,0.462656712,0.001683165,0.001626995,0.004034678,0.999988088,0.000000000,0.000000000,0.000000000,0.000000000,0.000000000,0.000000000,0.461985505,0.000000000,4.143694878
1772681569.121203899,0.015983000,0.006714000,0.055477000,0.007331520,0.021680970,0.005934220,0.999720450,0.014931000,0.043276000,0.012195000,0.000631012,0.000066023,-0.000359016,-0.002166392,-0.002661775,0.002789981,0.006492727,0.000629747,0.999816634,0.000433956,0.002019126,0.001177341,0.000000000,0.000000000,0.000000000,0.000000000,0.016301386,0.006632511,0.055454979,0.032287695,-0.009813657,-0.000530453,0.010065272,-0.002714355,0.000222464,0.194060232,-0.186204959,0.461178253,0.001686937,0.001631746,0.004021761,0.999988139,0.000000000,0.000000000,0.000000000,0.000000000,0.000000000,0.000000000,0.461123038,0.000000000,4.143694878
1772681569.131205082,0.015979000,0.006702000,0.055504000,0.006983240,0.021956150,0.005853150,0.999717410,0.014234000,0.043832000,0.012021000,0.000788541,0.000511884,-0.001091072,0.029220862,-0.045893840,0.011615378,0.005396605,0.001575966,0.998940776,-0.000303913,0.000549571,0.000534126,0.000000000,0.000000000,0.000000000,0.000000000,0.016334773,0.006655349,0.055402763,0.032569515,-0.009775143,-0.000788370,0.008914591,-0.002725455,-0.001108540,0.194480786,-0.187245420,0.461291971,0.001690569,0.001640842,0.004022733,0.999988139,0.000000000,0.000000000,0.000000000,0.000000000,0.000000000,0.000000000,0.461359286,0.000000000,4.143694878
1772681569.141206026,0.015983000,0.006727000,0.055481000,0.007096260,0.022032320,0.005885550,0.999714750,0.014462000,0.043983000,0.012092000,0.000665839,0.000858313,-0.001582677,0.057372459,-0.081046182,0.019289909,0.006367478,0.001983804,0.998672744,0.000911118,-0.003965080,0.001736586,0.000000000,0.000000000,0.000000000,0.000000000,0.016358080,0.006670486,0.055366496,0.032665463,-0.009769027,-0.000966204,0.008702551,-0.000587758,-0.001867133,0.194534504,-0.187180871,0.461043777,0.001691043,0.001640277,0.004020567,0.999988139,0.000000000,0.000000000,0.000000000,0.000000000,0.000000000,0.000000000,0.460881880,0.000000000,4.143694878
1772681569.151206732,0.015980000,0.006734000,0.055472000,0.007261610,0.021656250,0.005823240,0.999722140,0.014786000,0.043229000,0.011969000,-0.000173846,0.000423368,-0.000618639,0.044101734,-0.055131030,0.011068520,0.007086092,0.001054519,0.999033772,-0.000886679,-0.001426335,0.001972162,0.000000000,0.000000000,0.000000000,0.000000000,0.016351996,0.006668204,0.055380422,0.032650134,-0.009711792,-0.001021476,0.010434219,-0.002285546,-0.000888140,0.194533189,-0.184853713,0.460036449,0.001691128,0.001619954,0.004011811,0.999988178,0.000000000,0.000000000,0.000000000,0.000000000,0.000000000,0.000000000,0.459998549,0.000000000,4.143694878
1772681569.161207199,0.016040000,0.006782000,0.055359000,0.008944620,0.019304560,0.006411640,0.999753080,0.018147000,0.038494000,0.013176000,-0.000265178,0.000211470,-0.000244355,0.030069586,-0.035117374,0.006460130,0.006299802,0.002083354,0.998930160,-0.001749054,0.000613542,0.002260077,0.000000000,0.000000000,0.000000000,0.000000000,0.016346313,0.006663940,0.055388837,0.032753078,-0.009698569,-0.001059630,0.010688102,-0.000545249,-0.001248096,0.194015590,-0.184417532,0.460336525,0.001686622,0.001616134,0.004014444,0.999988198,0.000000000,0.000000000,0.000000000,0.000000000,0.000000000,0.000000000,0.460190857,0.000000000,4.143694878
1772681569.171208620,0.015975000,0.006728000,0.055465000,0.008355060,0.020375360,0.006221310,0.999738130,0.016974000,0.040647000,0.012791000,0.000177983,-0.000080299,-0.000488458,0.027515687,-0.038400852,0.012853535,0.007631603,0.002293999,0.999550086,0.000446441,0.001880287,0.004373037,0.000000000,0.000000000,0.000000000,0.000000000,0.016333095,0.006659131,0.055407413,0.032861572,-0.009624802,-0.001049499,0.009962413,-0.000997066,-0.000651554,0.193731408,-0.184744249,0.459778644,0.001684139,0.001618967,0.004009575,0.999988198,0.000000000,0.000000000,0.000000000,0.000000000,0.000000000,0.000000000,0.459780131,0.000000000,4.143694878
1772681569.181209564,0.015975000,0.006730000,0.055465000,0.007995870,0.020737650,0.006076380,0.999734510,0.016254000,0.041379000,0.012492000,0.001166904,0.000322537,-0.001535748,0.057213616,-0.088957668,0.032260923,0.007129097,-0.000086212,1.000026304,0.001332700,-0.002333216,-0.003285209,0.000000000,0.000000000,0.000000000,0.000000000,0.016305410,0.006651949,0.055439122,0.032927847,-0.009494230,-0.000944931,0.010703809,-0.002597615,-0.000152779,0.193449871,-0.185251133,0.459545655,0.001681667,0.001623377,0.004007538,0.999988255,0.000000000,0.000000000,0.000000000,0.000000000,0.000000000,0.000000000,0.459209253,0.000000000,4.143694878
1772681569.191210270,0.015979000,0.006714000,0.055483000,0.007534960,0.021425660,0.005990860,0.999724100,0.015337000,0.042762000,0.012313000,0.001136796,0.000511029,-0.001276417,0.068764408,-0.097588240,0.038286071,0.006988332,0.000607823,0.999371641,-0.000287191,0.000247617,0.001972683,0.000000000,0.000000000,0.000000000,0.000000000,0.016293405,0.006639050,0.055461098,0.033122867,-0.009592226,-0.000811284,0.010101140,-0.002578931,-0.000765048,0.193727900,-0.184837823,0.458362231,0.001684125,0.001619762,0.003997213,0.999988258,0.000000000,0.000000000,0.000000000,0.000000000,0.000000000,0.000000000,0.458241050,0.000000000,4.143694878
1772681569.201211452,0.016041000,0.006769000,0.055375000,0.008982510,0.019268480,0.006628370,0.999752020,0.018230000,0.038418000,0.013610000,0.001452380,0.000865869,-0.001883362,0.097332814,-0.134975017,0.047334203,0.007149412,-0.000350573,1.000710113,-0.001466463,-0.001030006,0.000382099,0.000000000,0.000000000,0.000000000,0.000000000,0.016294361,0.006634027,0.055466610,0.033292304,-0.009610682,-0.000834672,0.010032468,-0.003685939,-0.000772402,0.193715786,-0.186545193,0.457863852,0.001683967,0.001634654,0.003992839,0.999988259,0.000000000,0.000000000,0.000000000,0.000000000,0.000000000,0.000000000,0.457711608,0.000000000,4.143694878
1772681569.211212397,0.016054000,0.006773000,0.055348000,0.009972930,0.017814100,0.006972840,0.999767260,0.020204000,0.035488000,0.014307000,0.001514517,0.001072036,-0.002161360,0.119924726,-0.161286430,0.053813639,0.007176793,-0.000645336,1.000369643,-0.000676714,-0.001546191,-0.000596881,0.000000000,0.000000000,0.000000000,0.000000000,0.016293918,0.006634584,0.055467778,0.033340702,-0.009625494,-0.000824472,0.009900013,-0.004592261,-0.000453952,0.193058279,-0.186907801,0.457352472,0.001678223,0.001637788,0.003988380,0.999988274,0.000000000,0.000000000,0.000000000,0.000000000,0.000000000,0.000000000,0.457273956,0.000000000,4.143694878
1772681569.221213579,0.016063000,0.006787000,0.055343000,0.010725200,0.017036340,0.007272020,0.999770900,0.021707000,0.033915000,0.014915000,-0.000332288,0.000192998,0.000275725,0.063013620,-0.071221959,0.025621765,0.007204175,-0.000940106,1.000029164,0.000113055,-0.002062387,-0.001575885,0.000000000,0.000000000,0.000000000,0.000000000,0.016293464,0.006635175,0.055468923,0.033388349,-0.009640311,-0.000814021,0.010150220,-0.004558224,-0.000570237,0.192918330,-0.186317352,0.456972629,0.001677028,0.001632625,0.003985076,0.999988289,0.000000000,0.000000000,0.000000000,0.000000000,0.000000000,0.000000000,0.456892994,0.000000000,4.143694878
