t,px,py,pz,qx,qy,qz,qw,roll,pitch,yaw,vx,vy,vz,wx_vicon,wy_vicon,wz_vicon,imu_acc_x,imu_acc_y,imu_acc_z,imu_gyro_x,imu_gyro_y,imu_gyro_z,motor_motor_m1,motor_motor_m2,motor_motor_m3,motor_motor_m4,est_stateEstimate_x,est_stateEstimate_y,est_stateEstimate_z,est_stateEstimate_vx,est_stateEstimate_vy,est_stateEstimate_vz,est_stateEstimate_ax,est_stateEstimate_ay,est_stateEstimate_az,att_stateEstimate_roll,att_stateEstimate_pitch,att_stateEstimate_yaw,att_stateEstimate_qx,att_stateEstimate_qy,att_stateEstimate_qz,att_stateEstimate_qw,sp_ctrltarget_x,sp_ctrltarget_y,sp_ctrltarget_z,sp_ctrltarget_yaw,pid_controller_roll,pid_controller_pitch,pid_controller_yaw,pid_controller_cmd_thrust,pwr_pm_vbat
1772681346.748093128,0.016069000,0.003129000,0.055129000,-0.002229380,0.003261360,0.012445790,0.999914740,-0.004377000,0.006578000,0.024878000,0.001711165,-0.000334320,-0.000536539,-0.011912679,0.037062823,-0.013998109,0.010273363,-0.002039046,0.998639518,0.000625162,0.002427769,-0.000446987,0.000000000,0.000000000,0.000000000,0.000000000,0.016335691,0.003140883,0.055081486,0.014379394,0.000728241,-0.002374602,0.005118490,0.000768305,-0.001280185,-0.177112428,0.306118614,0.983018596,-0.001522617,-0.002684546,0.008574173,0.999957502,0.000000000,0.000000000,0.000000000,0.000000000,0.000000000,0.000000000,0.983003976,0.000000000,4.090909004
1772681346.758094311,0.016079000,0.003127000,0.055126000,-0.002321910,0.003328290,0.012407260,0.999914790,-0.004561000,0.006714000,0.024800000,0.000482697,-0.000083522,-0.000392727,-0.008469813,0.020632634,0.000896661,0.009054177,-0.002906112,0.999794664,0.001920203,0.000480504,0.000343879,0.000000000,0.000000000,0.000000000,0.000000000,0.016347981,0.003141036,0.055079893,0.014495853,0.000816870,-0.002387340,0.003766678,0.000378205,-0.000305208,-0.177038235,0.306379066,0.982519098,-0.001521962,-0.002686806,0.008569812,0.999957516,0.000000000,0.000000000,0.000000000,0.000000000,0.000000000,0.000000000,0.982217343,0.000000000,4.090909004
1772681346.768095255,0.016082000,0.003123000,0.055128000,-0.002288240,0.003459870,0.012391870,0.999914610,-0.004490000,0.006976000,0.024769000,-0.000179960,0.000029990,-0.000230151,-0.005279593,0.006116383,0.007520595,0.009205812,-0.004536120,0.999999495,0.000707926,0.002090328,-0.000895423,0.000000000,0.000000000,0.000000000,0.000000000,0.016348480,0.003141254,0.055075867,0.014501400,0.000786262,-0.002254893,0.003791653,-0.001079053,0.000158822,-0.177278325,0.305234539,0.981048049,-0.001524177,-0.002676817,0.008556985,0.999957638,0.000000000,0.000000000,0.000000000,0.000000000,0.000000000,0.000000000,0.980938110,0.000000000,4.090909004
1772681346.778095484,0.016079000,0.003130000,0.055119000,-0.002354520,0.003511290,0.012438950,0.999913700,-0.004621000,0.007081000,0.024862000,-0.000415957,0.000046772,-0.000070488,-0.002422677,-0.005760500,0.008180915,0.009374597,-0.003661634,0.998551818,0.002468553,-0.000811646,0.000066552,0.000000000,0.000000000,0.000000000,0.000000000,0.016228092,0.003135993,0.055096991,0.014196268,0.000646722,-0.002139813,0.003994297,-0.000781722,-0.001002534,-0.176798349,0.304651588,0.980026856,-0.001520056,-0.002671681,0.008548093,0.999957727,0.000000000,0.000000000,0.000000000,0.000000000,0.000000000,0.000000000,0.979893862,0.000000000,4.090909004
1772681346.788096428,0.016069000,0.003126000,0.055116000,-0.002351430,0.003292620,0.012602840,0.999912400,-0.004620000,0.006644000,0.025191000,-0.000364446,0.000007381,0.000064584,0.000018423,-0.014271762,0.005178850,0.011187897,-0.002950446,0.996446089,-0.000896871,0.000011932,-0.001717964,0.000000000,0.000000000,0.000000000,0.000000000,0.016346973,0.003141244,0.055078816,0.014530065,0.000606131,-0.002279549,0.005477527,0.000076556,-0.003118172,-0.175763562,0.304292925,0.979376411,-0.001511068,-0.002668465,0.008542446,0.999957800,0.000000000,0.000000000,0.000000000,0.000000000,0.000000000,0.000000000,0.979348914,0.000000000,4.090909004
1772681346.798097134,0.016071000,0.003131000,0.055117000,-0.002353270,0.003363920,0.012558850,0.999912710,-0.004622000,0.006786000,0.025103000,-0.000164577,-0.000047627,0.000153389,0.001962954,-0.018692596,0.000816780,0.010637114,-0.002845975,0.996774836,-0.000988988,-0.000296592,-0.001483331,0.000000000,0.000000000,0.000000000,0.000000000,0.016347130,0.003141359,0.055078928,0.014558341,0.000607574,-0.002317793,0.005425959,0.000309040,-0.003317414,-0.175247004,0.304357999,0.979191259,-0.001506560,-0.002668992,0.008540841,0.999957805,0.000000000,0.000000000,0.000000000,0.000000000,0.000000000,0.000000000,0.979175360,0.000000000,4.090909004
1772681346.808097839,0.016071000,0.003125000,0.055131000,-0.002318490,0.003355530,0.012470690,0.999913920,-0.004553000,0.006768000,0.024927000,-0.000116814,-0.000005963,0.000077753,0.002555593,-0.017826268,0.000962803,0.010086331,-0.002741505,0.997103583,-0.001081106,-0.000605115,-0.001248699,0.000000000,0.000000000,0.000000000,0.000000000,0.016347288,0.003141474,0.055079040,0.014586618,0.000609018,-0.002356036,0.004880825,0.000397057,-0.002980844,-0.175225852,0.304382555,0.979045632,-0.001506377,-0.002669203,0.008539570,0.999957815,0.000000000,0.000000000,0.000000000,0.000000000,0.000000000,0.000000000,0.979029876,0.000000000,4.090909004
1772681346.818098068,0.016074000,0.003120000,0.055132000,-0.002319130,0.002927180,0.012390690,0.999916260,-0.004565000,0.005911000,0.024769000,-0.000197325,0.000032884,0.000078083,0.004762579,-0.003829066,0.002529922,0.009535575,-0.002637040,0.997432314,-0.001173219,-0.000913624,-0.001014078,0.000000000,0.000000000,0.000000000,0.000000000,0.016347445,0.003141589,0.055079152,0.014614893,0.000610462,-0.002394278,0.004335718,0.000485070,-0.002644291,-0.175204701,0.304407111,0.978900012,-0.001506194,-0.002669414,0.008538300,0.999957825,0.000000000,0.000000000,0.000000000,0.000000000,0.000000000,0.000000000,0.978884399,0.000000000,4.090909004
1772681346.828098297,0.016069000,0.003129000,0.055121000,-0.002270270,0.003113300,0.012563630,0.999913650,-0.004462000,0.006283000,0.025114000,-0.000270416,0.000220808,-0.000063651,0.004624025,0.004656324,0.004306596,0.008984818,-0.002532575,0.997761045,-0.001265332,-0.001222132,-0.000779457,0.000000000,0.000000000,0.000000000,0.000000000,0.016347602,0.003141704,0.055079264,0.014643169,0.000611905,-0.002432520,0.003790610,0.000573083,-0.002307738,-0.175183550,0.304431666,0.978754392,-0.001506011,-0.002669625,0.008537029,0.999957835,0.000000000,0.000000000,0.000000000,0.000000000,0.000000000,0.000000000,0.978738921,0.000000000,4.090909004
1772681346.838098764,0.016068000,0.003130000,0.055119000,-0.002283590,0.003258670,0.012587750,0.999912850,-0.004485000,0.006574000,0.025162000,-0.000295783,0.000204803,-0.000112385,0.003253040,0.009538469,0.007294687,0.008434049,-0.002428107,0.998089784,-0.001357448,-0.001530648,-0.000544830,0.000000000,0.000000000,0.000000000,0.000000000,0.016347759,0.003141820,0.055079376,0.014671444,0.000613349,-0.002470763,0.003245490,0.000661098,-0.001971177,-0.175162398,0.304456222,0.978608769,-0.001505828,-0.002669835,0.008535758,0.999957845,0.000000000,0.000000000,0.000000000,0.000000000,0.000000000,0.000000000,0.978593441,0.000000000,4.090909004
1772681346.848098755,0.016057000,0.003133000,0.055120000,-0.002256920,0.003262780,0.012642670,0.999912210,-0.004431000,0.006582000,0.025272000,-0.000102557,0.000141152,-0.000009265,0.000837728,0.014634374,0.003927833,0.007953240,-0.002522904,0.998385404,-0.000676277,-0.001518093,-0.000022365,0.000000000,0.000000000,0.000000000,0.000000000,0.016348100,0.003141824,0.055079825,0.014660144,0.000619651,-0.002508632,0.002700396,0.000749109,-0.001634632,-0.175141248,0.304480777,0.978463152,-0.001505645,-0.002670046,0.008534488,0.999957855,0.000000000,0.000000000,0.000000000,0.000000000,0.000000000,0.000000000,0.978447967,0.000000000,4.090909004
1772681346.858099699,0.016058000,0.003132000,0.055128000,-0.002234290,0.003482130,0.012599840,0.999912060,-0.004381000,0.007020000,0.025185000,0.000179377,-0.000067653,0.000101061,-0.001159812,0.021604591,-0.000009433,0.008255609,-0.003883511,0.998682964,0.001776720,-0.000196895,0.001873735,0.000000000,0.000000000,0.000000000,0.000000000,0.016351434,0.003139351,0.055081270,0.014546472,0.000595930,-0.002552554,0.002609871,-0.000367881,-0.001465931,-0.174895150,0.304935297,0.977894706,-0.001503477,-0.002673986,0.008529527,0.999957900,0.000000000,0.000000000,0.000000000,0.000000000,0.000000000,0.000000000,0.977810058,0.000000000,4.090909004
1772681346.868099928,0.016067000,0.003134000,0.055124000,-0.002251740,0.003285870,0.012543700,0.999913390,-0.004421000,0.006628000,0.025074000,0.000316508,-0.000212067,0.000009906,-0.002257621,0.015540151,-0.005093223,0.011025005,-0.004409165,1.000536084,-0.000297152,-0.000979338,0.002677475,0.000000000,0.000000000,0.000000000,0.000000000,0.016356903,0.003133984,0.055080157,0.014551326,0.000434307,-0.002514726,0.004880068,-0.001582516,-0.000032375,-0.173078532,0.305441781,0.975600188,-0.001487640,-0.002678241,0.008509542,0.999958132,0.000000000,0.000000000,0.000000000,0.000000000,0.000000000,0.000000000,0.975508420,0.000000000,4.090909004
1772681346.878101110,0.016071000,0.003125000,0.055126000,-0.002300400,0.003480530,0.012569110,0.999912300,-0.004513000,0.007018000,0.025123000,0.000249264,-0.000179280,-0.000136723,-0.000070867,0.014096583,-0.003076962,0.012517547,-0.002484559,1.000128367,0.000094920,-0.002475243,0.002175190,0.000000000,0.000000000,0.000000000,0.000000000,0.016360067,0.003131184,0.055079944,0.014849995,0.000341311,-0.002328600,0.007299427,0.000124525,0.000874717,-0.173102937,0.305501018,0.974940767,-0.001487864,-0.002678751,0.008503786,0.999958158,0.000000000,0.000000000,0.000000000,0.000000000,0.000000000,0.000000000,0.974807754,0.000000000,4.090909004
1772681346.888102293,0.016074000,0.003125000,0.055124000,-0.002296670,0.003537990,0.012547930,0.999912370,-0.004504000,0.007133000,0.025081000,0.000097584,-0.000105509,-0.000182582,0.001072293,0.004461938,-0.000179639,0.010908565,-0.002599926,0.998921798,-0.000471206,-0.002512179,0.000732465,0.000000000,0.000000000,0.000000000,0.000000000,0.016360154,0.003132112,0.055079327,0.015143895,0.000425771,-0.002265924,0.006159307,0.000985122,-0.001058271,-0.172606304,0.305607769,0.974283113,-0.001483538,-0.002679638,0.008498056,0.999958214,0.000000000,0.000000000,0.000000000,0.000000000,0.000000000,0.000000000,0.974226475,0.000000000,4.090909004
1772681346.898102760,0.016073000,0.003126000,0.055115000,-0.002276060,0.003776550,0.012595520,0.999910950,-0.004457000,0.007610000,0.025175000,-0.000240523,0.000063846,-0.000098148,0.004985588,-0.011962374,0.002401126,0.010809161,-0.003322705,0.998343477,-0.000945857,0.000428480,-0.001058248,0.000000000,0.000000000,0.000000000,0.000000000,0.016364897,0.003136255,0.055076487,0.015299609,0.000450078,-0.002290558,0.005165914,-0.000254091,-0.001388707,-0.172120289,0.306024726,0.973936571,-0.001479274,-0.002683236,0.008495038,0.999958217,0.000000000,0.000000000,0.000000000,0.000000000,0.000000000,0.000000000,0.973863530,0.000000000,4.090909004
1772681346.908103704,0.016063000,0.003128000,0.055118000,-0.002223300,0.003483410,0.012519280,0.999913090,-0.004359000,0.007022000,0.025024000,-0.000255518,0.000091660,0.000167257,0.006105852,-0.022375514,0.001965767,0.010564992,-0.002528970,0.998852343,-0.003478542,0.001857440,0.003189271,0.000000000,0.000000000,0.000000000,0.000000000,0.016491087,0.003141103,0.055056573,0.015787666,0.000437640,-0.002436951,0.005506836,0.000315075,-0.001406266,-0.172286195,0.305815376,0.973228354,-0.001480754,-0.002681412,0.008488857,0.999958231,0.000000000,0.000000000,0.000000000,0.000000000,0.000000000,0.000000000,0.972955519,0.000000000,4.090909004
1772681346.918103695,0.016064000,0.003128000,0.055125000,-0.002179760,0.003338210,0.012611200,0.999912530,-0.004275000,0.006731000,0.025209000,-0.000027582,0.000030515,0.000236619,0.003723166,-0.025867795,0.003890042,0.010644006,-0.003553690,0.999784859,-0.000135384,-0.002165955,0.000693122,0.000000000,0.000000000,0.000000000,0.000000000,0.016693498,0.003146938,0.055025251,0.016419065,0.000496702,-0.002541762,0.005228710,-0.000092243,-0.000292403,-0.173013152,0.304017955,0.971445492,-0.001487272,-0.002665758,0.008473306,0.999958413,0.000000000,0.000000000,0.000000000,0.000000000,0.000000000,0.000000000,0.971407881,0.000000000,4.090909004
1772681346.928104401,0.016065000,0.003130000,0.055125000,-0.002201060,0.003116120,0.012631490,0.999912940,-0.004323000,0.006287000,0.025250000,0.000270338,-0.000163197,0.000293336,-0.000333217,-0.010627321,0.004920584,0.008303246,-0.003211674,0.999040522,-0.001305813,0.002041839,-0.002379841,0.000000000,0.000000000,0.000000000,0.000000000,0.016921734,0.003153360,0.054990003,0.017034005,0.000456560,-0.002632912,0.003108042,-0.000672076,-0.000621856,-0.172615924,0.303906574,0.971213222,-0.001483819,-0.002664753,0.008471290,0.999958456,0.000000000,0.000000000,0.000000000,0.000000000,0.000000000,0.000000000,0.971198554,0.000000000,4.090909004
1772681346.938104868,0.016065000,0.003129000,0.055129000,-0.002147590,0.003099060,0.012598670,0.999913520,-0.004217000,0.006252000,0.025185000,0.000314255,-0.000238561,0.000194023,-0.001603856,0.012054650,0.004678399,0.008538461,-0.002118058,0.999480633,0.000005245,0.000222390,0.001272018,0.000000000,0.000000000,0.000000000,0.000000000,0.017021645,0.003156032,0.054974541,0.017210858,0.000453589,-0.002680236,0.002877873,0.001013359,-0.001360323,-0.173618838,0.301300079,0.969310164,-0.001492808,-0.002642058,0.008454696,0.999958690,0.000000000,0.000000000,0.000000000,0.000000000,0.000000000,0.000000000,0.972355274,0.000000000,4.090909004
1772681346.948105097,0.016079000,0.003120000,0.055132000,-0.002248880,0.003314370,0.012632780,0.999912180,-0.004414000,0.006685000,0.025252000,0.000234249,-0.000100032,-0.000130002,-0.001626440,0.029361353,0.002859687,0.008924475,-0.003194625,0.999943987,-0.000932413,0.001115491,-0.004310238,0.000000000,0.000000000,0.000000000,0.000000000,0.016303950,0.003132753,0.055086366,0.013057331,0.000564243,-0.001884418,0.003262472,0.000169369,0.000040904,-0.173753900,0.314093676,0.983984975,-0.001492681,-0.002753900,0.008582577,0.999956490,0.000000000,0.000000000,0.000000000,0.000000000,0.000000000,0.000000000,0.989492541,0.000000000,4.090909004
1772681346.958105803,0.016079000,0.003120000,0.055124000,-0.002253680,0.003606610,0.012724030,0.999910000,-0.004415000,0.007270000,0.025433000,0.000172385,0.000005944,-0.000275583,-0.001519436,0.031604774,-0.003085448,0.008511626,-0.004128698,0.998475224,-0.000010392,-0.000638701,-0.002178988,0.000000000,0.000000000,0.000000000,0.000000000,0.016323384,0.003132819,0.055091428,0.013214096,0.000537904,-0.001815859,0.003335289,-0.001444319,-0.001432284,-0.173841225,0.321000588,0.990710256,-0.001492768,-0.002814265,0.008641168,0.999956621,0.000000000,0.000000000,0.000000000,0.000000000,0.000000000,0.000000000,0.990939261,0.000000000,4.090909004
1772681346.968106031,0.016077000,0.003122000,0.055126000,-0.002232410,0.003729220,0.012624450,0.999910860,-0.004370000,0.007514000,0.025233000,0.000130138,0.000063496,-0.000145561,-0.002051561,0.021234444,-0.004176717,0.008139452,-0.002395187,0.999328275,-0.000235288,-0.002144875,-0.001362379,0.000000000,0.000000000,0.000000000,0.000000000,0.016331974,0.003132983,0.055094630,0.013237339,0.000466383,-0.001866084,0.001963376,0.000331946,-0.001446931,-0.173844427,0.320755839,0.989948809,-0.001492833,-0.002812120,0.008634526,0.999956667,0.000000000,0.000000000,0.000000000,0.000000000,0.000000000,0.000000000,0.989994270,0.000000000,4.090909004
1772681346.978106737,0.016066000,0.003127000,0.055121000,-0.002193130,0.003758430,0.012625650,0.999910820,-0.004291000,0.007572000,0.025236000,0.000055105,0.000191556,-0.000125380,-0.004866827,-0.001719116,-0.006235417,0.010755768,-0.001872343,1.000427718,-0.000692488,0.002103311,-0.002063262,0.000000000,0.000000000,0.000000000,0.000000000,0.016330255,0.003135094,0.055095264,0.013201124,0.000539182,-0.001839776,0.004617752,0.001394797,0.000931820,-0.173869538,0.321463386,0.987390546,-0.001493062,-0.002818263,0.008612194,0.999956847,0.000000000,0.000000000,0.000000000,0.000000000,0.000000000,0.000000000,0.988991582,0.000000000,4.090909004
1772681346.988107204,0.016077000,0.003133000,0.055116000,-0.002253280,0.003568360,0.012554810,0.999912280,-0.004417000,0.007193000,0.025095000,-0.000188545,0.000279759,0.000070935,-0.004716490,-0.019094942,-0.003763429,0.011518344,-0.003010031,0.999267824,0.002063400,0.002043578,-0.000939614,0.000000000,0.000000000,0.000000000,0.000000000,0.016323921,0.003139278,0.055090166,0.013374289,0.000682368,-0.001777480,0.006137448,0.000473985,-0.000687791,-0.173874050,0.321590543,0.986930788,-0.001493103,-0.002819367,0.008608180,0.999957011,0.000000000,0.000000000,0.000000000,0.000000000,0.000000000,0.000000000,0.986765148,0.000000000,4.090909004
1772681346.998107433,0.016084000,0.003124000,0.055125000,-0.002315830,0.003615790,0.012527700,0.999912310,-0.004541000,0.007289000,0.025040000,-0.000216302,0.000142706,0.000020608,-0.004302185,-0.021403247,0.001909650,0.010424897,-0.003567804,0.999148430,-0.000388961,0.000438599,-0.000734035,0.000000000,0.000000000,0.000000000,0.000000000,0.016322626,0.003142584,0.055085001,0.013573394,0.000702643,-0.001781134,0.005082336,-0.000481750,-0.000770678,-0.172963800,0.320244057,0.985655898,-0.001485292,-0.002807532,0.008597096,0.999957090,0.000000000,0.000000000,0.000000000,0.000000000,0.000000000,0.000000000,0.985571401,0.000000000,4.090909004
1772681347.008107901,0.016074000,0.003127000,0.055130000,-0.002343530,0.003362890,0.012608850,0.999912100,-0.004602000,0.006784000,0.025203000,-0.000265075,0.000000563,-0.000161022,-0.005267058,-0.017808984,0.006105829,0.010124356,-0.004021013,0.999026226,-0.000457502,0.001762265,0.000514736,0.000000000,0.000000000,0.000000000,0.000000000,0.016328016,0.003142246,0.055084596,0.013724102,0.000664983,-0.001794482,0.004350345,-0.000524070,-0.000980037,-0.172438808,0.320422868,0.984884339,-0.001480717,-0.002809043,0.008590374,0.999957188,0.000000000,0.000000000,0.000000000,0.000000000,0.000000000,0.000000000,0.984751029,0.000000000,4.090909004
1772681347.018108606,0.016068000,0.003134000,0.055118000,-0.002365000,0.003253170,0.012597120,0.999912560,-0.004648000,0.006565000,0.025180000,-0.000226557,-0.000134781,-0.000137558,-0.003707689,-0.009467053,0.004050553,0.010735272,-0.003927457,0.998357437,-0.000072593,-0.000278490,-0.001367865,0.000000000,0.000000000,0.000000000,0.000000000,0.016240530,0.003131793,0.055103907,0.013625741,0.000530376,-0.001723933,0.005130460,-0.001149999,-0.001320761,-0.172682187,0.319097126,0.983377529,-0.001482977,-0.002797473,0.008577235,0.999957261,0.000000000,0.000000000,0.000000000,0.000000000,0.000000000,0.000000000,0.983281724,0.000000000,4.090909004
1772681347.028108835,0.016058000,0.003132000,0.055124000,-0.002289050,0.003363810,0.012722740,0.999910780,-0.004492000,0.006785000,0.025431000,-0.000032204,-0.000182718,-0.000097643,-0.001637283,-0.000026032,0.002440163,0.010485622,-0.002094540,0.998416307,0.001611623,-0.001947282,-0.001424315,0.000000000,0.000000000,0.000000000,0.000000000,0.016324462,0.003132175,0.055095251,0.014016909,0.000426695,-0.001898712,0.005063543,0.000560496,-0.001716207,-0.172423048,0.317874533,0.982491453,-0.001480829,-0.002786774,0.008569526,0.999957383,0.000000000,0.000000000,0.000000000,0.000000000,0.000000000,0.000000000,0.982317659,0.000000000,4.090909004
1772681347.038108826,0.016070000,0.003123000,0.055109000,-0.002306490,0.003409920,0.012656740,0.999911430,-0.004526000,0.006878000,0.025299000,0.000355472,-0.000208357,0.000080297,0.000305808,-0.003817448,-0.003130285,0.008242490,-0.002660975,0.998083194,0.002604230,-0.003617902,0.000182676,0.000000000,0.000000000,0.000000000,0.000000000,0.016346935,0.003131896,0.055090441,0.014236676,0.000546679,-0.002028425,0.003262512,0.000678665,-0.001738799,-0.172344736,0.318380734,0.981347601,-0.001480135,-0.002791170,0.008559540,0.999957383,0.000000000,0.000000000,0.000000000,0.000000000,0.000000000,0.000000000,0.981288163,0.000000000,4.090909004
1772681347.048109055,0.016074000,0.003122000,0.055119000,-0.002432770,0.003264350,0.012577190,0.999912620,-0.004783000,0.006589000,0.025139000,0.000558702,-0.000226421,0.000395485,0.003329805,-0.005111377,-0.007190145,0.009199307,-0.002114235,0.998256944,-0.004814703,0.003717856,0.000836649,0.000000000,0.000000000,0.000000000,0.000000000,0.016348169,0.003135859,0.055078939,0.014153586,0.000592060,-0.002171897,0.003485833,0.000908652,-0.001651298,-0.171105980,0.319360951,0.980972815,-0.001469261,-0.002799627,0.008556287,0.999957433,0.000000000,0.000000000,0.000000000,0.000000000,0.000000000,0.000000000,0.980939023,0.000000000,4.090909004
1772681347.058109522,0.016081000,0.003121000,0.055130000,-0.002328670,0.003364720,0.012553930,0.999912820,-0.004573000,0.006787000,0.025093000,0.000242116,-0.000057241,0.000448045,0.005850649,-0.008332799,-0.006800023,0.008218885,-0.003587522,0.996985887,-0.001255889,0.002837065,0.001213286,0.000000000,0.000000000,0.000000000,0.000000000,0.016343377,0.003138711,0.055077418,0.014070812,0.000662527,-0.002290683,0.002739975,-0.000518403,-0.003099751,-0.171126949,0.319248412,0.980415503,-0.001469466,-0.002798639,0.008551424,0.999957533,0.000000000,0.000000000,0.000000000,0.000000000,0.000000000,0.000000000,0.980310471,0.000000000,4.090909004
1772681347.068109512,0.016086000,0.003123000,0.055131000,-0.002307370,0.003275450,0.012572090,0.999912940,-0.004532000,0.006608000,0.025130000,-0.000232579,0.000236230,0.000091427,0.005392127,-0.006359306,-0.007868480,0.008984765,-0.003166327,0.998861998,-0.003475622,0.000355754,0.003957953,0.000000000,0.000000000,0.000000000,0.000000000,0.016345332,0.003139050,0.055078158,0.013993398,0.000651655,-0.002461744,0.002987896,0.000036928,-0.001400341,-0.171062179,0.317551684,0.979864254,-0.001469041,-0.002783821,0.008546637,0.999957561,0.000000000,0.000000000,0.000000000,0.000000000,0.000000000,0.000000000,0.979785400,0.000000000,4.090909004
1772681347.078110218,0.016077000,0.003124000,0.055134000,-0.002221060,0.003019130,0.012485000,0.999915030,-0.004366000,0.006093000,0.024958000,-0.000582807,0.000321306,-0.000163780,0.004417671,-0.002751095,-0.005781842,0.010701095,-0.003484753,0.999683820,-0.001469926,0.000419280,0.001000759,0.000000000,0.000000000,0.000000000,0.000000000,0.016343777,0.003138574,0.055078654,0.013973763,0.000612980,-0.002472647,0.005010536,-0.000564380,-0.000194143,-0.171800605,0.315817603,0.979934969,-0.001475613,-0.002768744,0.008547260,0.999957561,0.000000000,0.000000000,0.000000000,0.000000000,0.000000000,0.000000000,0.979966859,0.000000000,4.090909004
1772681347.088111162,0.016068000,0.003130000,0.055128000,-0.002206640,0.003245290,0.012499660,0.999914170,-0.004332000,0.006545000,0.024986000,-0.000444413,0.000196762,-0.000460010,-0.000930043,-0.001118308,-0.005914650,0.010981319,-0.002940058,0.999247375,-0.001126711,0.000438587,-0.002140310,0.000000000,0.000000000,0.000000000,0.000000000,0.016341637,0.003138577,0.055078409,0.014105731,0.000583812,-0.002403585,0.005584399,0.000085543,-0.000559507,-0.172477157,0.315241935,0.979737457,-0.001481564,-0.002763769,0.008545528,0.999957629,0.000000000,0.000000000,0.000000000,0.000000000,0.000000000,0.000000000,0.979705090,0.000000000,4.090909004
1772681347.098111153,0.016056000,0.003131000,0.055116000,-0.002268220,0.003329220,0.012484610,0.999913950,-0.004453000,0.006715000,0.024955000,-0.000158419,0.000016801,-0.000295978,-0.005603259,0.008333859,-0.003689081,0.010470481,-0.002595334,0.998629687,-0.001015002,-0.002274972,-0.003150481,0.000000000,0.000000000,0.000000000,0.000000000,0.016341161,0.003141502,0.055077340,0.014255570,0.000583750,-0.002362902,0.005151799,0.000437846,-0.001182019,-0.172927141,0.315166743,0.978628463,-0.001485523,-0.002763132,0.008535841,0.999957735,0.000000000,0.000000000,0.000000000,0.000000000,0.000000000,0.000000000,0.978433351,0.000000000,4.090909004
1772681347.108111858,0.016062000,0.003133000,0.055112000,-0.002344570,0.003292970,0.012393470,0.999915030,-0.004607000,0.006644000,0.024772000,0.000169763,-0.000200374,0.000077772,-0.003160045,0.013409094,0.002471925,0.007917011,-0.002955260,0.998482825,-0.004041863,-0.001026057,-0.001324035,0.000000000,0.000000000,0.000000000,0.000000000,0.016346906,0.003141803,0.055078958,0.014332590,0.000627344,-0.002360827,0.002371970,0.000352103,-0.001716843,-0.173139331,0.315581465,0.976623111,-0.001487392,-0.002766741,0.008518330,0.999957832,0.000000000,0.000000000,0.000000000,0.000000000,0.000000000,0.000000000,0.976378147,0.000000000,4.090909004
1772681347.118112326,0.016073000,0.003125000,0.055122000,-0.002333510,0.003209060,0.012446550,0.999914670,-0.004587000,0.006476000,0.024879000,0.000510512,-0.000287373,0.000145192,-0.000819552,0.012248939,0.006871868,0.009508178,-0.003637932,0.999228877,0.001260203,-0.002108226,-0.000371465,0.000000000,0.000000000,0.000000000,0.000000000,0.016348874,0.003139697,0.055083177,0.014255842,0.000618611,-0.002340284,0.004234135,-0.000935943,-0.000181078,-0.174423808,0.315282635,0.975336164,-0.001498654,-0.002764212,0.008507073,0.999957940,0.000000000,0.000000000,0.000000000,0.000000000,0.000000000,0.000000000,0.975232070,0.000000000,4.090909004
1772681347.128113270,0.016080000,0.003122000,0.055126000,-0.002338860,0.003360850,0.012499960,0.999913490,-0.004593000,0.006780000,0.024985000,0.000328804,-0.000187322,0.000117474,0.000885617,0.007822367,0.009174273,0.008826593,-0.002980260,0.998356621,0.001447948,-0.003419140,-0.001819519,0.000000000,0.000000000,0.000000000,0.000000000,0.016353848,0.003133750,0.055084151,0.014292242,0.000557830,-0.002321502,0.003403583,0.000372170,-0.001918063,-0.175111840,0.314924916,0.974282218,-0.001504710,-0.002761128,0.008497865,0.999958126,0.000000000,0.000000000,0.000000000,0.000000000,0.000000000,0.000000000,0.974045243,0.000000000,4.090909004
1772681347.138113499,0.016077000,0.003120000,0.055131000,-0.002251700,0.003661850,0.012597760,0.999911400,-0.004411000,0.007380000,0.025180000,0.000095487,-0.000051356,-0.000017889,0.000908309,0.010978300,0.009815683,0.008795523,-0.002991005,1.000707278,0.000062819,0.000197953,-0.000074193,0.000000000,0.000000000,0.000000000,0.000000000,0.016353219,0.003132708,0.055083136,0.014247595,0.000523792,-0.002356978,0.003236799,-0.000096728,0.000099456,-0.174637536,0.315544549,0.971795003,-0.001500585,-0.002766467,0.008476164,0.999958158,0.000000000,0.000000000,0.000000000,0.000000000,0.000000000,0.000000000,0.971645390,0.000000000,4.090909004
1772681347.148114443,0.016074000,0.003121000,0.055126000,-0.002247080,0.003364160,0.012639530,0.999911930,-0.004409000,0.006785000,0.025265000,-0.000169335,0.000143502,-0.000193945,0.000736562,0.010138022,0.005567823,0.009639792,-0.003415047,1.000127047,-0.000510483,0.001172428,0.000216836,0.000000000,0.000000000,0.000000000,0.000000000,0.016350177,0.003136183,0.055081731,0.014177105,0.000553754,-0.002203754,0.003876992,-0.000047849,0.000716027,-0.174462483,0.316219062,0.970930292,-0.001499029,-0.002772329,0.008468613,0.999958270,0.000000000,0.000000000,0.000000000,0.000000000,0.000000000,0.000000000,0.970672864,0.000000000,4.090909004
1772681347.158114910,0.016077000,0.003127000,0.055109000,-0.002325340,0.003518990,0.012572650,0.999912070,-0.004562000,0.007096000,0.025130000,-0.000184389,0.000134489,-0.000164130,-0.000600746,0.004320803,-0.004644955,0.009718917,-0.002523211,0.998215306,-0.002245757,0.003596378,-0.001250162,0.000000000,0.000000000,0.000000000,0.000000000,0.016345331,0.003143533,0.055081233,0.014184071,0.000559997,-0.002093785,0.004351204,0.000109168,-0.001428059,-0.174500229,0.315476489,0.969933995,-0.001499437,-0.002765838,0.008459928,0.999958282,0.000000000,0.000000000,0.000000000,0.000000000,0.000000000,0.000000000,0.969898332,0.000000000,4.090909004
1772681347.168115139,0.016062000,0.003130000,0.055117000,-0.002366440,0.003549350,0.012613440,0.999911350,-0.004643000,0.007158000,0.025211000,-0.000212184,0.000110637,-0.000004992,0.000249297,-0.004310436,-0.010634000,0.010784028,-0.001228146,0.997572047,-0.000827773,-0.000609541,-0.000450105,0.000000000,0.000000000,0.000000000,0.000000000,0.016343335,0.003141925,0.055083380,0.014191842,0.000595559,-0.002161595,0.004786388,0.001820658,-0.002324580,-0.174580473,0.315246192,0.969573731,-0.001500163,-0.002763830,0.008456786,0.999958401,0.000000000,0.000000000,0.000000000,0.000000000,0.000000000,0.000000000,0.969432054,0.000000000,4.090909004
1772681347.178116083,0.016076000,0.003124000,0.055123000,-0.002305020,0.003545810,0.012529070,0.999912560,-0.004521000,0.007149000,0.025043000,-0.000077831,0.000080453,0.000101197,-0.001438696,-0.006440150,-0.010301933,0.010198442,-0.001933961,0.998514734,0.001145498,-0.002468449,0.001058755,0.000000000,0.000000000,0.000000000,0.000000000,0.016347375,0.003138764,0.055084437,0.014321870,0.000803106,-0.002286986,0.004892710,0.001553397,-0.001737814,-0.175121188,0.313454925,0.968683611,-0.001505035,-0.002748227,0.008449030,0.999958468,0.000000000,0.000000000,0.000000000,0.000000000,0.000000000,0.000000000,0.968566425,0.000000000,4.090909004
1772681347.188117027,0.016072000,0.003129000,0.055125000,-0.002246380,0.003490310,0.012442680,0.999913970,-0.004406000,0.007036000,0.024871000,-0.000058018,0.000110054,0.000223760,0.001068917,-0.004878726,-0.005503531,0.009285596,-0.004015961,0.998704571,0.001394188,-0.006637530,0.002115350,0.000000000,0.000000000,0.000000000,0.000000000,0.016353497,0.003139543,0.055085366,0.014448270,0.000913717,-0.002335958,0.003842600,-0.000387212,-0.001013748,-0.174337239,0.314217320,0.967727479,-0.001498161,-0.002754810,0.008440694,0.999958496,0.000000000,0.000000000,0.000000000,0.000000000,0.000000000,0.000000000,0.967632805,0.000000000,4.090909004
1772681347.198117971,0.016070000,0.003121000,0.055127000,-0.002294180,0.003423180,0.012369120,0.999915010,-0.004503000,0.006903000,0.024724000,-0.000011305,0.000064992,0.000242679,0.001642863,-0.010902905,0.001721130,0.008911742,-0.001959911,0.999169252,0.000572695,-0.000524327,0.001433176,0.000000000,0.000000000,0.000000000,0.000000000,0.016362312,0.003137000,0.055086050,0.014486162,0.000841848,-0.002381829,0.003404186,0.000598638,-0.000817488,-0.173644175,0.315649207,0.967244704,-0.001492019,-0.002767247,0.008436479,0.999958459,0.000000000,0.000000000,0.000000000,0.000000000,0.000000000,0.000000000,0.967240330,0.000000000,4.090909004
1772681347.208118200,0.016063000,0.003134000,0.055121000,-0.002291590,0.003351400,0.012474310,0.999913950,-0.004499000,0.006759000,0.024934000,0.000200161,-0.000041081,0.000065361,-0.001251458,-0.001753945,0.004012448,0.008844972,-0.001713503,0.998858437,-0.000055062,-0.001160346,0.000953007,0.000000000,0.000000000,0.000000000,0.000000000,0.016361759,0.003137127,0.055085376,0.014473871,0.000852959,-0.002379443,0.003317129,0.001309309,-0.001036395,-0.173471638,0.316687789,0.967137117,-0.001490440,-0.002776296,0.008435530,0.999958470,0.000000000,0.000000000,0.000000000,0.000000000,0.000000000,0.000000000,0.967118652,0.000000000,4.090909004
1772681347.218118668,0.016076000,0.003130000,0.055123000,-0.002364110,0.003386250,0.012554490,0.999912660,-0.004643000,0.006831000,0.025094000,0.000167043,-0.000178076,0.000104635,0.000455829,0.002847583,0.003425008,0.008778200,-0.001467090,0.998547614,-0.000682834,-0.001796381,0.000472827,0.000000000,0.000000000,0.000000000,0.000000000,0.016361205,0.003137255,0.055084703,0.014461579,0.000864070,-0.002377058,0.003247112,0.001550354,-0.001345149,-0.173427275,0.316776859,0.966974940,-0.001490050,-0.002777068,0.008434114,0.999958481,0.000000000,0.000000000,0.000000000,0.000000000,0.000000000,0.000000000,0.966956322,0.000000000,4.090909004
1772681347.228119135,0.016071000,0.003130000,0.055130000,-0.002237600,0.003405380,0.012537010,0.999913110,-0.004390000,0.006866000,0.025060000,0.000301436,-0.000296308,0.000095118,0.004953606,0.003079209,-0.000418965,0.008711428,-0.001220676,0.998236791,-0.001310607,-0.002432416,-0.000007354,0.000000000,0.000000000,0.000000000,0.000000000,0.016360652,0.003137382,0.055084029,0.014449287,0.000875182,-0.002374672,0.003177095,0.001791398,-0.001653903,-0.173382911,0.316865929,0.966812763,-0.001489660,-0.002777840,0.008432699,0.999958492,0.000000000,0.000000000,0.000000000,0.000000000,0.000000000,0.000000000,0.966793992,0.000000000,4.090909004
1772681347.238119125,0.016078000,0.003119000,0.055132000,-0.002270240,0.003432470,0.012545570,0.999912830,-0.004454000,0.006921000,0.025077000,0.000129245,-0.000048268,-0.000013674,0.009950150,-0.001979968,-0.004091096,0.008644659,-0.000974274,0.997925982,-0.001938349,-0.003068420,-0.000487511,0.000000000,0.000000000,0.000000000,0.000000000,0.016360099,0.003137509,0.055083355,0.014436995,0.000886292,-0.002372287,0.003107082,0.002032431,-0.001962643,-0.173338550,0.316954995,0.966650593,-0.001489270,-0.002778612,0.008431284,0.999958502,0.000000000,0.000000000,0.000000000,0.000000000,0.000000000,0.000000000,0.966631670,0.000000000,4.090909004
1772681347.248120308,0.016084000,0.003117000,0.055126000,-0.002261320,0.003552850,0.012401950,0.999914220,-0.004434000,0.007161000,0.024789000,-0.000144687,0.000100634,-0.000099022,0.007525651,-0.007626013,-0.005117625,0.008577882,-0.000727843,0.997615137,-0.002566166,-0.003704500,-0.000967726,0.000000000,0.000000000,0.000000000,0.000000000,0.016359546,0.003137637,0.055082682,0.014424702,0.000897404,-0.002369901,0.003037060,0.002273492,-0.002271419,-0.173294183,0.317044072,0.966488405,-0.001488881,-0.002779384,0.008429868,0.999958513,0.000000000,0.000000000,0.000000000,0.000000000,0.000000000,0.000000000,0.966469328,0.000000000,4.090909004
1772681347.258121014,0.016072000,0.003123000,0.055127000,-0.002110580,0.003293630,0.012390740,0.999915580,-0.004139000,0.006639000,0.024769000,-0.000342109,0.000277020,-0.000201404,0.003396336,-0.013959634,-0.000743965,0.008220738,-0.001118814,0.998339518,-0.002368379,-0.001475977,-0.000462462,0.000000000,0.000000000,0.000000000,0.000000000,0.016355208,0.003139924,0.055082325,0.014372400,0.000999191,-0.002416376,0.002967041,0.002514542,-0.002580180,-0.173249819,0.317133145,0.966326224,-0.001488491,-0.002780155,0.008428453,0.999958598,0.000000000,0.000000000,0.000000000,0.000000000,0.000000000,0.000000000,0.966306994,0.000000000,4.090909004
1772681347.268121481,0.016072000,0.003131000,0.055122000,-0.002146010,0.003236450,0.012470210,0.999914700,-0.004211000,0.006526000,0.024928000,-0.000273349,0.000273679,-0.000138607,-0.003879477,-0.014717067,0.001154187,0.008072969,-0.003299402,1.000487604,-0.000545842,0.003070681,0.001509350,0.000000000,0.000000000,0.000000000,0.000000000,0.016347874,0.003146070,0.055081711,0.014224870,0.001155759,-0.002417348,0.002056114,0.000383567,0.000620042,-0.173293960,0.317938720,0.965069169,-0.001488847,-0.002787172,0.008417473,0.999958634,0.000000000,0.000000000,0.000000000,0.000000000,0.000000000,0.000000000,0.964873742,0.000000000,4.090909004
1772681347.278121948,0.016065000,0.003141000,0.055121000,-0.002159280,0.003181220,0.012502250,0.999914450,-0.004239000,0.006416000,0.024992000,0.000004331,0.000080589,0.000099294,-0.007389864,-0.012534518,0.001546210,0.009795860,-0.004444547,0.998649033,0.001478440,0.001853448,0.000478293,0.000000000,0.000000000,0.000000000,0.000000000,0.016343100,0.003151680,0.055079346,0.014072805,0.001102852,-0.002283010,0.003961662,-0.001537943,-0.000455549,-0.173391067,0.316574921,0.964712842,-0.001489804,-0.002775274,0.008414378,0.999958685,0.000000000,0.000000000,0.000000000,0.000000000,0.000000000,0.000000000,0.964657974,0.000000000,4.090909004
1772681347.288122416,0.016067000,0.003127000,0.055126000,-0.002308970,0.003199520,0.012511620,0.999913940,-0.004538000,0.006456000,0.025009000,0.000367884,-0.000263404,0.000176211,-0.010527172,-0.005487961,0.003700883,0.009758142,-0.004272888,0.997784008,0.004353933,0.001088240,-0.001385348,0.000000000,0.000000000,0.000000000,0.000000000,0.016343200,0.003151910,0.055080740,0.014109962,0.000941160,-0.002294098,0.004586110,-0.001103928,-0.002567300,-0.172566779,0.316924114,0.963989471,-0.001482602,-0.002778251,0.008408082,0.999958798,0.000000000,0.000000000,0.000000000,0.000000000,0.000000000,0.000000000,0.963881733,0.000000000,4.090909004
1772681347.298123598,0.016075000,0.003122000,0.055127000,-0.002289130,0.003137810,0.012488180,0.999914480,-0.004500000,0.006332000,0.024963000,0.000429301,-0.000425456,0.000156846,-0.007409415,0.007611699,0.002543905,0.009975282,-0.004695393,0.998564955,0.003833405,-0.002769313,0.000219790,0.000000000,0.000000000,0.000000000,0.000000000,0.016344037,0.003147386,0.055081677,0.014167326,0.000778391,-0.002359015,0.004022516,-0.001531285,-0.001335930,-0.171955251,0.315532329,0.963152526,-0.001477389,-0.002766050,0.008400812,0.999958813,0.000000000,0.000000000,0.000000000,0.000000000,0.000000000,0.000000000,0.963063712,0.000000000,4.090909004
1772681347.308124065,0.016080000,0.003124000,0.055130000,-0.002350890,0.003203670,0.012421280,0.999914960,-0.004622000,0.006465000,0.024828000,0.000176114,-0.000284712,0.000150999,0.000734226,0.013773192,0.004794984,0.010384693,-0.004325345,0.999245838,0.000296808,-0.002714793,0.001816653,0.000000000,0.000000000,0.000000000,0.000000000,0.016349412,0.003146007,0.055077797,0.014256025,0.000611834,-0.002411358,0.005100417,-0.001560208,-0.001055258,-0.169540195,0.317513260,0.962640645,-0.001456181,-0.002783153,0.008396376,0.999958813,0.000000000,0.000000000,0.000000000,0.000000000,0.000000000,0.000000000,0.962488477,0.000000000,4.090909004
1772681347.318125010,0.016091000,0.003117000,0.055132000,-0.002319790,0.003229360,0.012530390,0.999913590,-0.004558000,0.006516000,0.025047000,-0.000152456,0.000053629,-0.000076937,0.000539122,0.016361689,0.004737239,0.010411342,-0.003285002,0.999827508,-0.001305565,-0.000672633,0.001002354,0.000000000,0.000000000,0.000000000,0.000000000,0.016354536,0.003143479,0.055074818,0.014347485,0.000467577,-0.002389158,0.004573530,-0.000475770,-0.000011936,-0.167482887,0.319577942,0.961891046,-0.001438095,-0.002801010,0.008389859,0.999958921,0.000000000,0.000000000,0.000000000,0.000000000,0.000000000,0.000000000,0.961726545,0.000000000,4.090909004
1772681347.328125477,0.016076000,0.003121000,0.055124000,-0.002284980,0.003372510,0.012623640,0.999912020,-0.004485000,0.006802000,0.025233000,-0.000384511,0.000391328,-0.000150922,0.000215187,0.011769082,0.004948086,0.009632224,-0.002335895,0.998767891,0.000162988,0.000723446,0.003561094,0.000000000,0.000000000,0.000000000,0.000000000,0.016466965,0.003145021,0.055056244,0.014746963,0.000415134,-0.002403091,0.004563340,0.000452664,-0.000867861,-0.168095667,0.319100786,0.960638358,-0.001443508,-0.002796875,0.008378919,0.999959052,0.000000000,0.000000000,0.000000000,0.000000000,0.000000000,0.000000000,0.960475554,0.000000000,4.090909004
1772681347.338126421,0.016064000,0.003127000,0.055128000,-0.002239750,0.003525400,0.012593040,0.999911980,-0.004390000,0.007107000,0.025171000,-0.000506957,0.000266395,-0.000078996,-0.001941832,0.001683846,0.003376128,0.010121300,-0.002382721,0.997942461,0.001528056,-0.003226356,0.003938173,0.000000000,0.000000000,0.000000000,0.000000000,0.016630924,0.003149829,0.055029226,0.015182592,0.000467015,-0.002535082,0.004138203,0.000754435,-0.001901598,-0.168664692,0.318726873,0.959669525,-0.001448525,-0.002793642,0.008370456,0.999959044,0.000000000,0.000000000,0.000000000,0.000000000,0.000000000,0.000000000,0.959713622,0.000000000,4.090909004
1772681347.348125935,0.016066000,0.003133000,0.055126000,-0.002301640,0.003460440,0.012611570,0.999911830,-0.004516000,0.006978000,0.025208000,-0.000231375,0.000243844,-0.000108559,-0.001446761,-0.006279898,0.002058673,0.010233816,-0.003337055,0.999850025,-0.000775996,0.000067139,-0.001518498,0.000000000,0.000000000,0.000000000,0.000000000,0.016795122,0.003155064,0.055001111,0.015666795,0.000517513,-0.002754148,0.004803274,-0.000062913,-0.000734564,-0.168799676,0.317954247,0.960015223,-0.001449751,-0.002786914,0.008373479,0.999959003,0.000000000,0.000000000,0.000000000,0.000000000,0.000000000,0.000000000,0.960044744,0.000000000,4.090909004
1772681347.358126640,0.016065000,0.003134000,0.055119000,-0.002445460,0.003320390,0.012511320,0.999913230,-0.004808000,0.006701000,0.025007000,0.000163936,0.000159526,-0.000093214,-0.000468880,-0.003819348,0.001011179,0.010604268,-0.004058051,1.002546483,0.002935514,0.003470601,0.000826108,0.000000000,0.000000000,0.000000000,0.000000000,0.016929066,0.003159069,0.054977625,0.015945455,0.000476631,-0.002702408,0.004927996,-0.000874627,0.002014688,-0.168822715,0.330745932,0.964386104,-0.001448900,-0.002898595,0.008411452,0.999958594,0.000000000,0.000000000,0.000000000,0.000000000,0.000000000,0.000000000,0.959515503,0.000000000,4.090909004
1772681347.368126869,0.016074000,0.003131000,0.055129000,-0.002295620,0.003246650,0.012628780,0.999912350,-0.004509000,0.006551000,0.025244000,0.000519680,-0.000105956,-0.000132081,0.003273941,0.001756569,0.002174101,0.010349906,-0.003023790,0.997528228,0.002252194,0.004557504,-0.001065029,0.000000000,0.000000000,0.000000000,0.000000000,0.016109242,0.003127391,0.055115534,0.011366305,0.000237346,-0.001381006,0.004510938,-0.000260667,-0.001133070,-0.168642610,0.345540163,0.974182369,-0.001445989,-0.003027804,0.008496749,0.999957404,0.000000000,0.000000000,0.000000000,0.000000000,0.000000000,0.000000000,0.971395583,0.000000000,4.090909004
1772681347.378128052,0.016070000,0.003124000,0.055125000,-0.002269020,0.003262820,0.012616800,0.999912510,-0.004455000,0.006582000,0.025220000,0.000395796,-0.000116464,-0.000213544,0.007352342,0.007648024,0.001957486,0.010626280,-0.002887757,0.997386515,-0.000595785,-0.001294263,-0.002519038,0.000000000,0.000000000,0.000000000,0.000000000,0.016214287,0.003131285,0.055102206,0.011802250,0.000211822,-0.001499009,0.004565583,0.000107254,-0.002613291,-0.168819591,0.342983385,0.976279469,-0.001447667,-0.003005533,0.008515077,0.999957291,0.000000000,0.000000000,0.000000000,0.000000000,0.000000000,0.000000000,0.976043441,0.000000000,4.090909004
1772681347.388128757,0.016085000,0.003136000,0.055116000,-0.002250990,0.003494610,0.012671820,0.999911070,-0.004413000,0.007046000,0.025329000,-0.000015170,0.000048209,-0.000154263,0.009082688,0.007993877,0.000925359,0.010919968,-0.003009252,0.998185999,0.000817255,0.001933070,0.000286576,0.000000000,0.000000000,0.000000000,0.000000000,0.016257247,0.003138424,0.055096192,0.012214769,0.000232122,-0.001700246,0.005067696,0.000114430,-0.001875413,-0.168075847,0.342528050,0.974885409,-0.001441247,-0.003001486,0.008502938,0.999957379,0.000000000,0.000000000,0.000000000,0.000000000,0.000000000,0.000000000,0.974760907,0.000000000,4.090909004
1772681347.398128748,0.016080000,0.003128000,0.055119000,-0.002205280,0.003608930,0.012636630,0.999911210,-0.004319000,0.007273000,0.025258000,-0.000285955,0.000149290,0.000034652,0.005958060,0.001510446,0.000518288,0.008426377,-0.004290719,0.998005647,0.004189354,-0.006334748,-0.001410929,0.000000000,0.000000000,0.000000000,0.000000000,0.016287253,0.003138264,0.055096376,0.012544255,0.000191976,-0.001806559,0.002663800,-0.001378548,-0.002150864,-0.167012183,0.341490653,0.974181586,-0.001432061,-0.002992346,0.008496837,0.999957472,0.000000000,0.000000000,0.000000000,0.000000000,0.000000000,0.000000000,0.974094135,0.000000000,4.090909004
1772681347.408129930,0.016075000,0.003127000,0.055117000,-0.002185690,0.003468960,0.012579960,0.999912460,-0.004284000,0.006992000,0.025146000,-0.000186564,0.000079093,0.000115979,0.001155736,-0.007884558,-0.002173725,0.008714603,-0.003257167,0.999254427,0.001541597,-0.001378325,0.000566525,0.000000000,0.000000000,0.000000000,0.000000000,0.016303933,0.003133104,0.055095087,0.012621541,0.000088899,-0.001912448,0.002673243,-0.000857168,-0.001201688,-0.165592075,0.341879625,0.973553803,-0.001419656,-0.002995627,0.008491391,0.999957502,0.000000000,0.000000000,0.000000000,0.000000000,0.000000000,0.000000000,0.973436166,0.000000000,4.090909004
1772681347.418131113,0.016066000,0.003138000,0.055121000,-0.002181950,0.003317810,0.012584700,0.999912920,-0.004280000,0.006690000,0.025156000,-0.000001127,-0.000154806,0.000206823,0.000827200,-0.010373336,-0.000427916,0.008574700,-0.001821650,0.999672233,-0.000766999,0.003026529,0.000247171,0.000000000,0.000000000,0.000000000,0.000000000,0.016315498,0.003124490,0.055089509,0.012649547,0.000021909,-0.001956826,0.002624271,0.000622822,-0.000428075,-0.164236087,0.343016405,0.973073476,-0.001407752,-0.003005441,0.008487222,0.999957538,0.000000000,0.000000000,0.000000000,0.000000000,0.000000000,0.000000000,0.973070320,0.000000000,4.090909004
1772681347.428131819,0.016062000,0.003136000,0.055125000,-0.002199070,0.003248090,0.012647580,0.999912320,-0.004316000,0.006551000,0.025282000,-0.000077636,-0.000164402,0.000044364,0.001378905,-0.001063480,-0.002678620,0.010600102,-0.004588781,0.999590157,0.002351207,0.002670754,-0.001116739,0.000000000,0.000000000,0.000000000,0.000000000,0.016323260,0.003121136,0.055084469,0.012672322,0.000080326,-0.001913681,0.004223320,-0.001141808,-0.000356119,-0.163483431,0.343013616,0.972337792,-0.001401203,-0.003005352,0.008480822,0.999957648,0.000000000,0.000000000,0.000000000,0.000000000,0.000000000,0.000000000,0.972182739,0.000000000,4.090909004
1772681347.438133001,0.016076000,0.003126000,0.055131000,-0.002195600,0.003331040,0.012621040,0.999912390,-0.004307000,0.006717000,0.025228000,0.000032107,0.000049491,-0.000083327,-0.001141521,0.011932772,-0.003911356,0.010118338,-0.002790665,0.999584852,0.000695202,0.003409005,-0.003282355,0.000000000,0.000000000,0.000000000,0.000000000,0.016323896,0.003126477,0.055087666,0.012831773,0.000003325,-0.001805390,0.004737928,-0.000358195,0.000083533,-0.162936291,0.341991159,0.970992608,-0.001396540,-0.002996373,0.008469110,0.999957818,0.000000000,0.000000000,0.000000000,0.000000000,0.000000000,0.000000000,0.970851441,0.000000000,4.090909004
1772681347.448133707,0.016088000,0.003123000,0.055119000,-0.002184860,0.003404170,0.012565640,0.999912870,-0.004284000,0.006863000,0.025117000,-0.000057008,0.000136781,0.000033719,-0.003692977,0.007960002,-0.005657772,0.008156518,-0.001588503,0.998153669,0.001237678,-0.002613584,0.000504417,0.000000000,0.000000000,0.000000000,0.000000000,0.016322192,0.003135699,0.055090821,0.012899620,0.000079581,-0.001797446,0.001873385,0.001644963,-0.002225952,-0.163366592,0.340588970,0.968770688,-0.001400456,-0.002984141,0.008449727,0.999957919,0.000000000,0.000000000,0.000000000,0.000000000,0.000000000,0.000000000,0.968493344,0.000000000,4.090909004
1772681347.458134413,0.016069000,0.003126000,0.055117000,-0.002203670,0.003570810,0.012550450,0.999912440,-0.004317000,0.007196000,0.025086000,-0.000077267,0.000061767,0.000062680,-0.004800469,-0.004011855,-0.007609801,0.009158215,-0.002538394,0.998740327,-0.002814294,-0.001615002,0.000535041,0.000000000,0.000000000,0.000000000,0.000000000,0.016325629,0.003137214,0.055090588,0.012844970,0.000212536,-0.001859405,0.003109734,0.000373124,-0.000968133,-0.163202571,0.341715132,0.967783129,-0.001398968,-0.002993944,0.008441100,0.999957919,0.000000000,0.000000000,0.000000000,0.000000000,0.000000000,0.000000000,0.967737151,0.000000000,4.090909004
1772681347.468135834,0.016059000,0.003142000,0.055119000,-0.002193330,0.003593450,0.012451050,0.999913620,-0.004297000,0.007241000,0.024887000,-0.000050230,-0.000056562,0.000019210,-0.006146188,-0.013114685,-0.005627499,0.010744415,-0.002457837,0.997920131,-0.002740600,0.000112842,0.000279813,0.000000000,0.000000000,0.000000000,0.000000000,0.016329182,0.003132450,0.055089277,0.012875155,0.000255961,-0.001941233,0.004185566,0.000411644,-0.001918384,-0.163083399,0.341926117,0.967479071,-0.001397920,-0.002995773,0.008438446,0.999957976,0.000000000,0.000000000,0.000000000,0.000000000,0.000000000,0.000000000,0.967358642,0.000000000,4.090909004
1772681347.478135824,0.016070000,0.003136000,0.055130000,-0.002340450,0.003286760,0.012489470,0.999913860,-0.004599000,0.006631000,0.024965000,0.000143793,-0.000330804,0.000003943,-0.005536017,-0.018594251,-0.001668892,0.011340451,-0.003217411,0.999170988,0.001419447,-0.001072928,0.001640182,0.000000000,0.000000000,0.000000000,0.000000000,0.016334283,0.003129138,0.055086391,0.013065143,0.000284978,-0.002094102,0.005523909,0.000030248,-0.001276844,-0.164212762,0.341767306,0.966414282,-0.001407815,-0.002994457,0.008429127,0.999958094,0.000000000,0.000000000,0.000000000,0.000000000,0.000000000,0.000000000,0.966240084,0.000000000,4.090909004
1772681347.488136768,0.016072000,0.003129000,0.055132000,-0.002307420,0.002956000,0.012498240,0.999914860,-0.004541000,0.005969000,0.024984000,0.000308875,-0.000395601,0.000089135,-0.002044488,-0.016605222,0.001186680,0.010629391,-0.002233664,0.999713488,0.001035054,0.003193876,0.001407540,0.000000000,0.000000000,0.000000000,0.000000000,0.016338417,0.003129282,0.055086692,0.013289157,0.000263376,-0.002121998,0.004843730,0.000188061,-0.000130643,-0.164330076,0.340948588,0.965163377,-0.001408931,-0.002987306,0.008418219,0.999958101,0.000000000,0.000000000,0.000000000,0.000000000,0.000000000,0.000000000,0.965180000,0.000000000,4.090909004
1772681347.498137951,0.016082000,0.003113000,0.055120000,-0.002276900,0.003188880,0.012474350,0.999914520,-0.004474000,0.006434000,0.024935000,0.000312954,-0.000152864,-0.000037760,-0.000370904,-0.008636395,0.001880278,0.008294162,-0.003998146,1.000345358,0.001503720,-0.001068186,0.000847636,0.000000000,0.000000000,0.000000000,0.000000000,0.016336099,0.003130602,0.055085817,0.013420128,0.000347725,-0.002085384,0.002975806,-0.000394746,0.000156527,-0.162604130,0.341173997,0.965218017,-0.001393852,-0.002989147,0.008418739,0.999958161,0.000000000,0.000000000,0.000000000,0.000000000,0.000000000,0.000000000,0.965179830,0.000000000,4.090909004
1772681347.508138895,0.016083000,0.003115000,0.055116000,-0.002312220,0.003287970,0.012524010,0.999913490,-0.004542000,0.006633000,0.025034000,0.000030864,0.000202530,-0.000059359,-0.000502296,0.005907762,0.002301687,0.007360664,-0.004104442,1.000759565,0.002482415,0.000626302,0.003489357,0.000000000,0.000000000,0.000000000,0.000000000,0.016331997,0.003134774,0.055082532,0.013303314,0.000233487,-0.001967199,0.001460613,-0.001499766,0.000758024,-0.162140715,0.340898338,0.964675723,-0.001389843,-0.002986701,0.008414021,0.999958228,0.000000000,0.000000000,0.000000000,0.000000000,0.000000000,0.000000000,0.964521458,0.000000000,4.090909004
1772681347.518139839,0.016080000,0.003124000,0.055124000,-0.002262400,0.003205950,0.012508770,0.999914060,-0.004444000,0.006468000,0.025004000,-0.000177610,0.000475841,0.000005827,-0.000531395,0.017012454,0.001105298,0.009698680,-0.003625026,0.999839013,0.001993625,-0.001326454,-0.000847642,0.000000000,0.000000000,0.000000000,0.000000000,0.016333057,0.003132106,0.055087661,0.013085107,0.000099756,-0.001804586,0.003126018,-0.000815958,0.000139301,-0.162108915,0.340728447,0.963803746,-0.001389601,-0.002985205,0.008406415,0.999958347,0.000000000,0.000000000,0.000000000,0.000000000,0.000000000,0.000000000,0.963794380,0.000000000,4.090909004
1772681347.528140306,0.016067000,0.003142000,0.055130000,-0.002270210,0.003251750,0.012520590,0.999913750,-0.004459000,0.006560000,0.025027000,-0.000050074,0.000345372,0.000087756,-0.001969497,0.020690440,0.001108517,0.007534170,-0.004085289,0.999519850,-0.000085939,0.000389252,-0.000222740,0.000000000,0.000000000,0.000000000,0.000000000,0.016330480,0.003134536,0.055086869,0.013091304,0.000033715,-0.001729436,0.002122470,-0.001167708,-0.000351740,-0.161925506,0.339474385,0.962473022,-0.001388127,-0.002974233,0.008394823,0.999958539,0.000000000,0.000000000,0.000000000,0.000000000,0.000000000,0.000000000,0.962137032,0.000000000,4.090909004
1772681347.538141012,0.016074000,0.003141000,0.055124000,-0.002362720,0.003352550,0.012504760,0.999913400,-0.004641000,0.006764000,0.024995000,0.000168830,0.000049705,0.000137014,0.002633841,0.019232741,0.002354607,0.009947070,-0.001507078,0.996962327,0.000205124,-0.001086921,-0.001579072,0.000000000,0.000000000,0.000000000,0.000000000,0.016330359,0.003130545,0.055090168,0.012976288,-0.000045143,-0.001725687,0.003621045,0.001393916,-0.002942301,-0.162237165,0.338596176,0.960626031,-0.001390959,-0.002966569,0.008378710,0.999958638,0.000000000,0.000000000,0.000000000,0.000000000,0.000000000,0.000000000,0.960492756,0.000000000,4.090909004
1772681347.548141479,0.016081000,0.003130000,0.055126000,-0.002328870,0.003517400,0.012538850,0.999912490,-0.004569000,0.007093000,0.025062000,0.000315770,-0.000363552,0.000030845,0.007372172,0.016820195,0.000616311,0.010249804,-0.003419936,0.998333173,0.000662090,0.000657027,0.000661587,0.000000000,0.000000000,0.000000000,0.000000000,0.016332248,0.003127488,0.055091174,0.013065411,0.000044085,-0.001916236,0.005039593,-0.000302507,-0.001719573,-0.162765216,0.338167180,0.958996678,-0.001395640,-0.002962845,0.008364484,0.999958729,0.000000000,0.000000000,0.000000000,0.000000000,0.000000000,0.000000000,0.958754617,0.000000000,4.090909004
1772681347.558141947,0.016082000,0.003121000,0.055124000,-0.002250500,0.003618870,0.012538590,0.999912310,-0.004410000,0.007294000,0.025062000,0.000165703,-0.000386103,-0.000140336,0.009741269,0.010260587,-0.000273894,0.008416063,-0.003690221,0.998844349,0.002227608,0.003382533,-0.001495979,0.000000000,0.000000000,0.000000000,0.000000000,0.016333145,0.003126313,0.055088037,0.013155680,0.000023023,-0.002035986,0.002241999,-0.001149558,-0.001306839,-0.163299356,0.338440773,0.957663898,-0.001400316,-0.002965255,0.008352835,0.999958866,0.000000000,0.000000000,0.000000000,0.000000000,0.000000000,0.000000000,0.957519266,0.000000000,4.090909004
1772681347.568142891,0.016088000,0.003121000,0.055122000,-0.002182110,0.003693860,0.012527140,0.999912330,-0.004271000,0.007442000,0.025039000,-0.000024571,-0.000260044,-0.000035079,0.007554934,-0.009014961,-0.001427148,0.010125969,-0.002663928,0.999488498,0.000831542,0.002351251,-0.001136016,0.000000000,0.000000000,0.000000000,0.000000000,0.016332223,0.003123906,0.055085281,0.013091558,-0.000041723,-0.002075740,0.003675319,0.000176801,-0.000580740,-0.163231031,0.337609252,0.955743176,-0.001399830,-0.002957971,0.008336087,0.999959011,0.000000000,0.000000000,0.000000000,0.000000000,0.000000000,0.000000000,0.955505517,0.000000000,4.090909004
1772681347.578143120,0.016085000,0.003125000,0.055129000,-0.002106830,0.003528390,0.012561010,0.999912660,-0.004125000,0.007109000,0.025108000,-0.000302446,0.000157681,-0.000020045,0.003573863,-0.020741983,-0.003272472,0.011096231,-0.002248162,1.000154363,-0.002290686,0.002032921,-0.000775907,0.000000000,0.000000000,0.000000000,0.000000000,0.016332606,0.003122867,0.055083257,0.013184642,-0.000017664,-0.002037534,0.005784885,0.000528462,-0.000057110,-0.163134341,0.335495710,0.954421584,-0.001399174,-0.002939504,0.008324584,0.999959138,0.000000000,0.000000000,0.000000000,0.000000000,0.000000000,0.000000000,0.954273071,0.000000000,4.090909004
1772681347.588144064,0.016072000,0.003126000,0.055124000,-0.002153970,0.003309490,0.012459370,0.999914580,-0.004225000,0.006672000,0.024905000,-0.000335874,0.000337486,-0.000096846,-0.003516658,-0.019804883,-0.001317655,0.009871382,-0.001657208,1.001299334,-0.003951093,0.003131117,0.001099071,0.000000000,0.000000000,0.000000000,0.000000000,0.016331176,0.003125755,0.055086808,0.013335822,0.000084285,-0.001898839,0.003994380,0.001164505,0.001030568,-0.163960785,0.335432261,0.953281028,-0.001406419,-0.002938996,0.008314610,0.999959213,0.000000000,0.000000000,0.000000000,0.000000000,0.000000000,0.000000000,0.953049929,0.000000000,4.090909004
1772681347.598144770,0.016069000,0.003133000,0.055118000,-0.002202110,0.003334600,0.012500710,0.999913880,-0.004321000,0.006724000,0.024988000,-0.000214223,0.000220245,-0.000008003,-0.007074486,-0.013732921,0.002155098,0.010245916,-0.001910971,1.001328380,0.000112396,0.000073521,0.000787007,0.000000000,0.000000000,0.000000000,0.000000000,0.016332551,0.003131038,0.055090226,0.013400426,0.000232015,-0.001673930,0.004183750,0.001418531,0.001875461,-0.165861260,0.333087884,0.952732198,-0.001423188,-0.002918669,0.008309803,0.999959230,0.000000000,0.000000000,0.000000000,0.000000000,0.000000000,0.000000000,0.952698520,0.000000000,4.090909004
1772681347.608144760,0.016078000,0.003126000,0.055128000,-0.002297820,0.003094600,0.012518810,0.999914210,-0.004518000,0.006246000,0.025024000,0.000022687,0.000055008,0.000017287,-0.007326467,-0.003634142,0.004730621,0.010381955,-0.002630289,0.999909488,-0.001137735,0.000652329,-0.000820127,0.000000000,0.000000000,0.000000000,0.000000000,0.016337196,0.003134518,0.055090754,0.013506921,0.000321921,-0.001483626,0.004955562,0.000211555,0.000152605,-0.165225164,0.331705225,0.952920833,-0.001417733,-0.002906560,0.008311482,0.999959332,0.000000000,0.000000000,0.000000000,0.000000000,0.000000000,0.000000000,0.952909929,0.000000000,4.090909004
1772681347.618144751,0.016074000,0.003136000,0.055119000,-0.002227080,0.003347860,0.012511860,0.999913640,-0.004370000,0.006751000,0.025010000,0.000194644,-0.000105101,0.000051531,-0.005933069,0.006756392,0.004355078,0.009930463,-0.002529161,0.999763013,-0.001242969,0.000011423,-0.001839089,0.000000000,0.000000000,0.000000000,0.000000000,0.016338670,0.003136011,0.055090909,0.013564680,0.000331432,-0.001437320,0.004814173,0.000255794,0.000074074,-0.165075939,0.331472543,0.952728472,-0.001416452,-0.002904517,0.008309810,0.999959368,0.000000000,0.000000000,0.000000000,0.000000000,0.000000000,0.000000000,0.952700950,0.000000000,4.090909004
1772681347.628145933,0.016076000,0.003128000,0.055124000,-0.002301320,0.003417890,0.012639740,0.999911630,-0.004516000,0.006893000,0.025265000,0.000222168,-0.000198354,0.000084085,-0.005372794,0.010040602,0.004481210,0.009835921,-0.002594072,0.999891664,-0.001039046,0.000636623,-0.001889141,0.000000000,0.000000000,0.000000000,0.000000000,0.016339105,0.003136876,0.055090233,0.013583719,0.000337988,-0.001433136,0.004672767,0.000300038,-0.000004465,-0.164956345,0.331277396,0.952519114,-0.001415428,-0.002902802,0.008307988,0.999959389,0.000000000,0.000000000,0.000000000,0.000000000,0.000000000,0.000000000,0.952491946,0.000000000,4.090909004
1772681347.638146400,0.016080000,0.003124000,0.055129000,-0.002301280,0.003281710,0.012591160,0.999912690,-0.004520000,0.006621000,0.025168000,0.000123593,-0.000302989,-0.000090475,-0.008854146,0.003839419,0.001424407,0.009741386,-0.002658978,1.000020305,-0.000835138,0.001261777,-0.001939190,0.000000000,0.000000000,0.000000000,0.000000000,0.016339540,0.003137741,0.055089556,0.013602756,0.000344543,-0.001428952,0.004531371,0.000344279,-0.000083000,-0.164836760,0.331082263,0.952309772,-0.001414404,-0.002901088,0.008306167,0.999959411,0.000000000,0.000000000,0.000000000,0.000000000,0.000000000,0.000000000,0.952282957,0.000000000,4.090909004
1772681347.648146391,0.016082000,0.003126000,0.055123000,-0.002341950,0.003368330,0.012576760,0.999912490,-0.004599000,0.006795000,0.025139000,-0.000089640,-0.000174735,-0.000036128,-0.007886092,-0.005303222,0.000165724,0.009646855,-0.002723882,1.000148941,-0.000631239,0.001886902,-0.001989237,0.000000000,0.000000000,0.000000000,0.000000000,0.016339975,0.003138607,0.055088879,0.013621793,0.000351098,-0.001424768,0.004389982,0.000388517,-0.000161530,-0.164717180,0.330887140,0.952100440,-0.001413380,-0.002899374,0.008304346,0.999959432,0.000000000,0.000000000,0.000000000,0.000000000,0.000000000,0.000000000,0.952073978,0.000000000,4.090909004
