t,px,py,pz,qx,qy,qz,qw,roll,pitch,yaw,vx,vy,vz,wx_vicon,wy_vicon,wz_vicon,imu_acc_x,imu_acc_y,imu_acc_z,imu_gyro_x,imu_gyro_y,imu_gyro_z,motor_motor_m1,motor_motor_m2,motor_motor_m3,motor_motor_m4,est_stateEstimate_x,est_stateEstimate_y,est_stateEstimate_z,est_stateEstimate_vx,est_stateEstimate_vy,est_stateEstimate_vz,est_stateEstimate_ax,est_stateEstimate_ay,est_stateEstimate_az,att_stateEstimate_roll,att_stateEstimate_pitch,att_stateEstimate_yaw,att_stateEstimate_qx,att_stateEstimate_qy,att_stateEstimate_qz,att_stateEstimate_qw,sp_ctrltarget_x,sp_ctrltarget_y,sp_ctrltarget_z,sp_ctrltarget_yaw,pid_controller_roll,pid_controller_pitch,pid_controller_yaw,pid_controller_cmd_thrust,pwr_pm_vbat
1772682400.399326324,0.013531000,0.007395000,0.054624000,-0.003713910,0.018607100,0.000135730,0.999819970,-0.007427000,0.037217000,0.000133000,-0.006852326,-0.004546946,0.012882079,-0.146691657,0.200593996,-0.073943717,0.019992475,0.002879867,1.003983790,0.003923333,0.018952100,-0.010116208,0.000000000,0.000000000,0.000000000,0.000000000,0.014284598,0.007435141,0.054881843,0.044819367,0.008767648,0.000298810,0.015351656,0.002656172,0.003309504,0.002997201,0.000075192,-0.002393143,0.000026155,-0.000000657,-0.000020884,0.999998987,0.000000000,0.000000000,0.000000000,0.000000000,0.000000000,0.000000000,-0.002315636,0.000000000,4.090909004
1772682400.409326077,0.013476000,0.007352000,0.054721000,-0.004203420,0.019484290,-0.000038070,0.999801330,-0.008413000,0.038970000,-0.000240000,-0.002863766,-0.002665198,0.005828175,-0.097542758,0.135678589,-0.033031880,0.017399161,0.003381853,1.001874570,0.001298125,0.011259063,-0.006865583,0.000000000,0.000000000,0.000000000,0.000000000,0.014315518,0.007470568,0.054812624,0.045007552,0.008962592,-0.000087650,0.015027626,0.002787906,0.001303246,0.003464363,0.000041436,-0.003222340,0.000030232,-0.000000362,-0.000028120,0.999998987,0.000000000,0.000000000,0.000000000,0.000000000,0.000000000,0.000000000,-0.003142655,0.000000000,4.090909004
1772682400.419325113,0.013466000,0.007339000,0.054756000,-0.004666060,0.020002200,-0.000174810,0.999789030,-0.009345000,0.040005000,-0.000537000,-0.000447622,-0.001385679,0.001564899,-0.061778890,0.089859322,-0.006720011,0.014806033,0.003883803,0.999765501,-0.001326895,0.003566577,-0.003615191,0.000000000,0.000000000,0.000000000,0.000000000,0.014346435,0.007505992,0.054743410,0.045195724,0.009157521,-0.000474082,0.014703619,0.002919630,-0.000702869,0.003931491,0.000007681,-0.004051479,0.000034309,-0.000000068,-0.000035356,0.999998987,0.000000000,0.000000000,0.000000000,0.000000000,0.000000000,0.000000000,-0.003969615,0.000000000,4.090909004
1772682400.429324865,0.013463000,0.007334000,0.054759000,-0.005050370,0.020492330,-0.000271460,0.999777220,-0.010118000,0.040984000,-0.000750000,0.000722687,-0.000594401,-0.000511260,-0.037181631,0.059203371,0.007667866,0.012748360,0.003789006,0.998057358,-0.002642316,-0.001687566,-0.001019514,0.000000000,0.000000000,0.000000000,0.000000000,0.014377355,0.007541420,0.054674190,0.045383909,0.009352465,-0.000860542,0.012986200,0.003064125,-0.001452233,0.003751126,-0.000674292,-0.004784849,0.000032735,0.000005883,-0.000041756,0.999998987,0.000000000,0.000000000,0.000000000,0.000000000,0.000000000,0.000000000,-0.004696794,0.000000000,4.090909004
1772682400.439323902,0.013486000,0.007324000,0.054734000,-0.005053600,0.020484750,-0.000091580,0.999777390,-0.010117000,0.040971000,-0.000391000,0.000973742,-0.000177374,-0.001003813,-0.021544277,0.039783594,0.012857576,0.012932098,0.001358403,0.997945772,0.001077511,0.002864024,-0.000983373,0.000000000,0.000000000,0.000000000,0.000000000,0.014365882,0.007538473,0.054686948,0.045274349,0.009364033,-0.000928964,0.012949721,0.001758522,-0.003122544,0.002815818,-0.001393722,-0.005380512,0.000024573,0.000012161,-0.000046954,0.999998987,0.000000000,0.000000000,0.000000000,0.000000000,0.000000000,0.000000000,-0.005270259,0.000000000,4.090909004
1772682400.449323416,0.013498000,0.007313000,0.054735000,-0.005059470,0.020706110,0.000039070,0.999772800,-0.010124000,0.041415000,-0.000132000,0.000632125,-0.000020610,-0.000516272,-0.012706521,0.027642701,0.011571193,0.013100244,0.001568530,0.996492331,-0.002484710,0.000844465,0.002018117,0.000000000,0.000000000,0.000000000,0.000000000,0.014354762,0.007530120,0.054708091,0.045227440,0.009233615,-0.001092805,0.012955208,0.001659132,-0.002848374,0.002143066,-0.001640654,-0.005505830,0.000018702,0.000014317,-0.000048048,0.999998987,0.000000000,0.000000000,0.000000000,0.000000000,0.000000000,0.000000000,-0.005652229,0.000000000,4.090909004
1772682400.459323168,0.013473000,0.007335000,0.054750000,-0.005234920,0.020999560,-0.000079020,0.999765780,-0.010480000,0.042001000,-0.000378000,0.000059170,0.000046951,-0.000033004,-0.006881389,0.014813773,0.009511778,0.013135260,0.002658762,0.998629864,-0.001003942,0.001428959,0.000896453,0.000000000,0.000000000,0.000000000,0.000000000,0.014345826,0.007521301,0.054722792,0.045179281,0.009143882,-0.001223084,0.013423934,0.002760833,-0.001624330,0.002162517,-0.002073224,-0.004444742,0.000018872,0.000018092,-0.000038788,0.999998987,0.000000000,0.000000000,0.000000000,0.000000000,0.000000000,0.000000000,-0.004681625,0.000000000,4.090909004
1772682400.469322681,0.013476000,0.007321000,0.054754000,-0.005250080,0.021046580,0.000030550,0.999764710,-0.010506000,0.042096000,-0.000160000,-0.000125780,0.000114882,0.000111833,-0.004820514,0.000259141,0.003323111,0.014433881,0.002058777,0.998819417,0.000634587,0.003230638,0.000065620,0.000000000,0.000000000,0.000000000,0.000000000,0.014351728,0.007510933,0.054717758,0.045275037,0.009145241,-0.001344476,0.014191913,0.001676187,-0.000528302,0.002068366,-0.002829951,-0.003402478,0.000018051,0.000024695,-0.000029693,0.999998987,0.000000000,0.000000000,0.000000000,0.000000000,0.000000000,0.000000000,-0.003336669,0.000000000,4.090909004
1772682400.479322672,0.013490000,0.007317000,0.054749000,-0.005211290,0.021056190,0.000010190,0.999764710,-0.010429000,0.042115000,-0.000199000,-0.000130889,0.000183785,-0.000032402,-0.003413401,-0.007850113,-0.004798721,0.013454384,0.001656280,1.000524413,-0.002961625,-0.000419262,-0.004221451,0.000000000,0.000000000,0.000000000,0.000000000,0.014363423,0.007500080,0.054713495,0.045433873,0.009010591,-0.001335799,0.013638425,0.001587593,0.000178030,0.001652922,-0.003628830,-0.003506322,0.000014425,0.000031667,-0.000030599,0.999998987,0.000000000,0.000000000,0.000000000,0.000000000,0.000000000,0.000000000,-0.003574809,0.000000000,4.090909004
1772682400.489321947,0.013479000,0.007331000,0.054750000,-0.005352490,0.020743820,-0.000032720,0.999770500,-0.010713000,0.041490000,-0.000288000,0.000080305,0.000017502,-0.000284525,0.000590522,-0.014801647,-0.007316600,0.013802487,0.001118694,1.000824258,0.004009172,-0.001974556,-0.000554856,0.000000000,0.000000000,0.000000000,0.000000000,0.014359263,0.007503614,0.054718700,0.045472751,0.008960774,-0.001221410,0.013107848,0.001173728,0.000473765,0.000669702,-0.003898346,-0.003223208,0.000005845,0.000034019,-0.000028128,0.999998987,0.000000000,0.000000000,0.000000000,0.000000000,0.000000000,0.000000000,-0.003222020,0.000000000,4.090909004
1772682400.499320745,0.013477000,0.007328000,0.054736000,-0.005251150,0.020771660,-0.000015330,0.999770460,-0.010510000,0.041546000,-0.000249000,0.000195246,0.000024748,-0.000475342,0.005129444,-0.017006443,-0.008147856,0.011252228,0.002477773,1.000902235,-0.001288308,0.008037113,0.000402539,0.000000000,0.000000000,0.000000000,0.000000000,0.014356920,0.007499341,0.054725505,0.045451833,0.008827692,-0.001084344,0.012057210,0.001923904,0.000879233,-0.000243111,-0.003672394,-0.003168303,-0.000002121,0.000032048,-0.000027649,0.999998987,0.000000000,0.000000000,0.000000000,0.000000000,0.000000000,0.000000000,-0.003188138,0.000000000,4.090909004
1772682400.509320736,0.013490000,0.007324000,0.054735000,-0.005192000,0.020703380,-0.000117830,0.999772170,-0.010396000,0.041408000,-0.000451000,-0.000411995,-0.000175140,0.000512794,-0.016889606,0.023521995,-0.018773547,0.013219617,0.002638005,0.999477460,0.001275822,-0.002548520,0.002531173,0.000000000,0.000000000,0.000000000,0.000000000,0.014362345,0.007493515,0.054727851,0.045360322,0.008820786,-0.000957568,0.013566329,0.003028274,-0.000027008,-0.000930923,-0.005164832,-0.002327838,-0.000008123,0.000045072,-0.000020314,0.999998987,0.000000000,0.000000000,0.000000000,0.000000000,0.000000000,0.000000000,-0.002500887,0.000000000,4.090909004
1772682400.519319534,0.013483000,0.007329000,0.054741000,-0.005215670,0.020813210,-0.000215020,0.999769750,-0.010447000,0.041627000,-0.000648000,0.000081315,0.000534901,-0.000503723,0.004809425,-0.005302605,-0.011147809,0.013500460,0.002370485,0.998688676,0.001762177,-0.000262123,-0.000813042,0.000000000,0.000000000,0.000000000,0.000000000,0.014359723,0.007498178,0.054730034,0.045435913,0.008909205,-0.000970492,0.013749738,0.001913235,-0.001609992,-0.000461151,-0.007029124,-0.002333973,-0.000004023,0.000061341,-0.000020367,0.999998987,0.000000000,0.000000000,0.000000000,0.000000000,0.000000000,0.000000000,-0.002156462,0.000000000,4.090909004
1772682400.529319525,0.013478000,0.007325000,0.054744000,-0.005271020,0.020804060,-0.000224360,0.999769650,-0.010558000,0.041608000,-0.000669000,0.000474468,0.000909152,-0.001259763,0.037473125,-0.048610340,0.001667118,0.012569238,0.002453411,0.998751391,-0.000029976,0.004074978,-0.000131715,0.000000000,0.000000000,0.000000000,0.000000000,0.014357664,0.007499293,0.054722963,0.045460122,0.008864635,-0.001128646,0.012763389,0.002605238,-0.001210001,0.000061370,-0.007527388,-0.003064910,0.000000537,0.000065689,-0.000026746,0.999998987,0.000000000,0.000000000,0.000000000,0.000000000,0.000000000,0.000000000,-0.003080894,0.000000000,4.090909004
1772682400.539319038,0.013481000,0.007338000,0.054731000,-0.005206320,0.020667130,-0.000243020,0.999772830,-0.010429000,0.041334000,-0.000702000,0.000532064,0.000830615,-0.001119841,0.053092398,-0.083337350,0.013490496,0.014135990,0.002994850,0.998241667,-0.003102048,0.002732472,0.002636624,0.000000000,0.000000000,0.000000000,0.000000000,0.014362659,0.007498192,0.054717964,0.045455026,0.008913730,-0.001216764,0.014031512,0.003165571,-0.001462640,0.000257384,-0.008830647,-0.003432341,0.000002248,0.000077062,-0.000029953,0.999998987,0.000000000,0.000000000,0.000000000,0.000000000,0.000000000,0.000000000,-0.003274605,0.000000000,4.090909004
1772682400.549319267,0.013475000,0.007332000,0.054752000,-0.005343020,0.020965420,-0.000334880,0.999765870,-0.010707000,0.041930000,-0.000894000,0.000504675,0.000290586,-0.000748950,0.055278550,-0.088009715,0.021980095,0.014328153,0.003787480,0.999409927,-0.001467083,0.002307354,-0.001864307,0.000000000,0.000000000,0.000000000,0.000000000,0.014363314,0.007500540,0.054717017,0.045597715,0.009012236,-0.001324248,0.014087101,0.003071849,-0.000611214,-0.000579450,-0.010646416,-0.003826080,-0.000005054,0.000092908,-0.000033388,0.999998987,0.000000000,0.000000000,0.000000000,0.000000000,0.000000000,0.000000000,-0.003857553,0.000000000,4.090909004
1772682400.559318304,0.013531000,0.007404000,0.054623000,-0.003663690,0.018362520,0.000186330,0.999824660,-0.007324000,0.036728000,0.000238000,0.000125586,-0.000049982,0.000075293,0.036126882,-0.055850246,0.017784688,0.012762242,0.001488605,0.998305707,-0.000772219,0.001740806,0.003536760,0.000000000,0.000000000,0.000000000,0.000000000,0.014361909,0.007500673,0.054717812,0.045667193,0.009070743,-0.001315819,0.012719959,0.001578800,-0.001912746,-0.001843560,-0.010175973,-0.003193677,-0.000016086,0.000088803,-0.000027869,0.999998987,0.000000000,0.000000000,0.000000000,0.000000000,0.000000000,0.000000000,-0.003290216,0.000000000,4.090909004
1772682400.569317818,0.013490000,0.007334000,0.054721000,-0.004111990,0.019183800,0.000142920,0.999807510,-0.008223000,0.038371000,0.000128000,-0.000556987,-0.000270325,0.000918671,-0.001676019,0.006137073,0.003343816,0.011638475,0.001672863,0.997825792,0.000307942,0.001695691,0.000832828,0.000000000,0.000000000,0.000000000,0.000000000,0.014362407,0.007507356,0.054710755,0.045569123,0.008973959,-0.001537316,0.011765847,0.001844670,-0.001214078,-0.002212884,-0.010096222,-0.002219550,-0.000019309,0.000088107,-0.000019367,0.999998987,0.000000000,0.000000000,0.000000000,0.000000000,0.000000000,0.000000000,-0.002321900,0.000000000,4.090909004
1772682400.579318285,0.013488000,0.007321000,0.054755000,-0.004640950,0.019720240,0.000050280,0.999794760,-0.009285000,0.039443000,-0.000083000,-0.000965564,-0.000496050,0.001510915,-0.043873553,0.068583021,-0.011390415,0.012554689,0.002097911,0.998878253,-0.001321010,0.003352347,0.002304697,0.000000000,0.000000000,0.000000000,0.000000000,0.014358780,0.007506658,0.054716506,0.045442819,0.008935777,-0.001576865,0.012739543,0.001974266,-0.001044439,-0.002217509,-0.011185845,-0.001674795,-0.000019350,0.000097615,-0.000014613,0.999998987,0.000000000,0.000000000,0.000000000,0.000000000,0.000000000,0.000000000,-0.001702688,0.000000000,4.090806447
1772682400.589318037,0.013476000,0.007332000,0.054746000,-0.004884580,0.020212760,-0.000042420,0.999783770,-0.009777000,0.040427000,-0.000283000,-0.000968789,-0.000395290,0.001416546,-0.071364343,0.106876376,-0.023058515,0.012482006,0.002587051,1.000600993,-0.004499624,-0.001120768,-0.001719333,0.000000000,0.000000000,0.000000000,0.000000000,0.014383436,0.007542157,0.054653046,0.045468024,0.009023938,-0.001860680,0.012981132,0.001990318,0.000058036,-0.002057883,-0.012214563,-0.001063105,-0.000017957,0.000106592,-0.000009275,0.999998987,0.000000000,0.000000000,0.000000000,0.000000000,0.000000000,0.000000000,-0.001169901,0.000000000,4.090282324
1772682400.599317551,0.013455000,0.007352000,0.054755000,-0.005244080,0.020903160,-0.000257850,0.999767720,-0.010506000,0.041806000,-0.000735000,-0.000619829,-0.000265255,0.001026677,-0.074527250,0.112530379,-0.028944666,0.012729512,0.001028596,1.000291356,-0.001993947,-0.001494438,-0.002716051,0.000000000,0.000000000,0.000000000,0.000000000,0.014375159,0.007524023,0.054670862,0.045375165,0.008874949,-0.001649787,0.012749836,0.001951040,0.000262932,-0.002053551,-0.012222670,-0.001180396,-0.000017920,0.000106663,-0.000010299,0.999998987,0.000000000,0.000000000,0.000000000,0.000000000,0.000000000,0.000000000,-0.001065722,0.000000000,4.089758214
1772682400.609316826,0.013464000,0.007341000,0.054749000,-0.005499930,0.021182050,-0.000360230,0.999760440,-0.011023000,0.042363000,-0.000954000,0.000371921,0.000338645,-0.000594906,-0.029837607,0.038002991,-0.015204099,0.013023183,0.002875384,1.000209168,0.002194709,0.001726719,-0.003863652,0.000000000,0.000000000,0.000000000,0.000000000,0.014369741,0.007507626,0.054698903,0.045306337,0.008769965,-0.001425789,0.013313672,0.003040844,-0.000162582,-0.001817335,-0.011810399,-0.001702126,-0.000015858,0.000103066,-0.000014852,0.999998987,0.000000000,0.000000000,0.000000000,0.000000000,0.000000000,0.000000000,-0.001686115,0.000000000,4.089234117
1772682400.619316339,0.013478000,0.007334000,0.054751000,-0.005564190,0.021152210,-0.000305780,0.999760740,-0.011149000,0.042304000,-0.000848000,0.000510871,-0.000330447,-0.000246121,-0.010800352,0.005844951,-0.005051662,0.012962611,0.002750943,0.999721826,0.004633251,0.000940847,-0.002919649,0.000000000,0.000000000,0.000000000,0.000000000,0.014360568,0.007504961,0.054709511,0.045290386,0.008830379,-0.001354341,0.012676909,0.002625468,0.000210911,-0.001375052,-0.011936983,-0.002218381,-0.000011998,0.000104170,-0.000019358,0.999998987,0.000000000,0.000000000,0.000000000,0.000000000,0.000000000,0.000000000,-0.002136022,0.000000000,4.088710007
1772682400.629316092,0.013480000,0.007333000,0.054745000,-0.005529010,0.021060300,-0.000328280,0.999762860,-0.011079000,0.042119000,-0.000890000,0.000612622,-0.000481869,-0.000037472,0.004463023,-0.023429351,0.005514032,0.012783200,0.001147782,1.000726752,0.004479935,-0.001855114,0.003148776,0.000000000,0.000000000,0.000000000,0.000000000,0.014344431,0.007514462,0.054720470,0.045188395,0.008840366,-0.001223667,0.012870793,0.002153306,0.001297836,-0.000625340,-0.012219258,-0.002584369,-0.000005455,0.000106633,-0.000022552,0.999998987,0.000000000,0.000000000,0.000000000,0.000000000,0.000000000,0.000000000,-0.002605799,0.000000000,4.088185885
1772682400.639316082,0.013482000,0.007325000,0.054755000,-0.005519810,0.021066260,-0.000357890,0.999762780,-0.011062000,0.042131000,-0.000949000,0.000272015,-0.000085744,-0.000228658,0.015446582,-0.037227651,0.012799305,0.012867449,0.002688991,0.999863217,-0.002619903,-0.001031009,0.003896055,0.000000000,0.000000000,0.000000000,0.000000000,0.014340846,0.007513950,0.054723614,0.045164472,0.008820443,-0.001085347,0.013682499,0.002704894,0.000316567,0.000373752,-0.012005759,-0.002280521,0.000003264,0.000104770,-0.000019902,0.999998987,0.000000000,0.000000000,0.000000000,0.000000000,0.000000000,0.000000000,-0.002366928,0.000000000,4.087661750
1772682400.649316311,0.013487000,0.007329000,0.054744000,-0.005387710,0.020658590,-0.000214590,0.999772050,-0.010791000,0.041317000,-0.000652000,-0.000341967,-0.000005556,0.000464075,0.001496426,-0.006315262,0.007917631,0.013487807,0.003378844,1.000401850,0.002194670,-0.000203945,-0.004563667,0.000000000,0.000000000,0.000000000,0.000000000,0.014345831,0.007509719,0.054727786,0.045246839,0.008862443,-0.001027605,0.013435426,0.003937649,0.000266943,0.000817262,-0.011823602,-0.001327904,0.000007133,0.000103180,-0.000011589,0.999998987,0.000000000,0.000000000,0.000000000,0.000000000,0.000000000,0.000000000,-0.001520967,0.000000000,4.087137603
1772682400.659316301,0.013483000,0.007332000,0.054742000,-0.005282890,0.020607960,-0.000146560,0.999773670,-0.010579000,0.041217000,-0.000511000,0.000198626,0.000760489,-0.000979861,0.025452877,-0.032774899,0.014368006,0.012878507,0.003205514,1.000173407,0.003822606,0.003466905,0.000634662,0.000000000,0.000000000,0.000000000,0.000000000,0.014350287,0.007508130,0.054727382,0.045270024,0.009016190,-0.000935115,0.013375356,0.002671349,-0.000429879,0.001050808,-0.012530110,-0.001221000,0.000009171,0.000109346,-0.000010656,0.999998987,0.000000000,0.000000000,0.000000000,0.000000000,0.000000000,0.000000000,-0.001054229,0.000000000,4.086613468
1772682400.669315577,0.013478000,0.007343000,0.054743000,-0.005188870,0.020498480,-0.000075000,0.999776420,-0.010387000,0.040999000,-0.000363000,0.000421728,0.000690033,-0.001075648,0.039782144,-0.040237335,0.017582066,0.012039818,0.002205808,0.998849242,-0.000765047,0.001033451,0.001011418,0.000000000,0.000000000,0.000000000,0.000000000,0.014353743,0.007503901,0.054732437,0.045275855,0.008986298,-0.000950747,0.012932870,0.002647363,-0.000439090,0.003142554,-0.012827411,-0.002627395,0.000027426,0.000111940,-0.000022931,0.999998987,0.000000000,0.000000000,0.000000000,0.000000000,0.000000000,0.000000000,-0.002512353,0.000000000,4.086089371
1772682400.679315090,0.013477000,0.007350000,0.054731000,-0.005168170,0.020521530,-0.000067550,0.999776050,-0.010346000,0.041045000,-0.000347000,0.000831353,0.001345740,-0.002239178,0.080459228,-0.091567986,0.025350749,0.012202322,0.003056765,1.000644408,-0.000168578,0.002483550,0.000185827,0.000000000,0.000000000,0.000000000,0.000000000,0.014357050,0.007503862,0.054729557,0.045211101,0.009014810,-0.000945921,0.012533301,0.002832462,0.000361891,0.004001008,-0.012671007,-0.003776509,0.000034919,0.000110574,-0.000032960,0.999998987,0.000000000,0.000000000,0.000000000,0.000000000,0.000000000,0.000000000,-0.003659346,0.000000000,4.085695665
1772682400.689314842,0.013491000,0.007341000,0.054735000,-0.004994480,0.020505420,-0.000058590,0.999777270,-0.009998000,0.041013000,-0.000322000,0.000732128,0.001296944,-0.002114796,0.103089204,-0.127572574,0.026521985,0.013907291,0.003020388,0.999823528,-0.001331739,0.004730480,0.004371414,0.000000000,0.000000000,0.000000000,0.000000000,0.014356732,0.007505770,0.054727154,0.045146765,0.009062498,-0.000884066,0.014221817,0.002926850,0.000268982,0.003550063,-0.013302822,-0.004555360,0.000030985,0.000116088,-0.000039757,0.999998987,0.000000000,0.000000000,0.000000000,0.000000000,0.000000000,0.000000000,-0.004503780,0.000000000,4.086220531
1772682400.699314356,0.013536000,0.007405000,0.054610000,-0.003384650,0.018265450,0.000413970,0.999827360,-0.006758000,0.036536000,0.000705000,-0.000175179,0.000270986,-0.000462308,0.075595718,-0.095788106,0.018302426,0.013141612,0.003773498,1.000886983,-0.003071160,0.006033336,-0.000501975,0.000000000,0.000000000,0.000000000,0.000000000,0.014353905,0.007512813,0.054727019,0.045235012,0.009126078,-0.000822226,0.013451363,0.004056490,0.001023977,0.002594343,-0.015442170,-0.004104253,0.000022645,0.000134758,-0.000035819,0.999998987,0.000000000,0.000000000,0.000000000,0.000000000,0.000000000,0.000000000,-0.004258541,0.000000000,4.086745383
1772682400.709314108,0.013489000,0.007350000,0.054720000,-0.003838620,0.019102960,0.000245590,0.999810120,-0.007672000,0.038210000,0.000345000,-0.000094719,0.000000311,-0.000377748,0.058257662,-0.079376337,0.012968842,0.013246067,0.004581321,0.999539170,-0.001577084,0.001640300,0.000052165,0.000000000,0.000000000,0.000000000,0.000000000,0.014352636,0.007521265,0.054721113,0.045221104,0.009361681,-0.000728877,0.013231458,0.004446639,-0.000550539,0.001313279,-0.017362008,-0.003391253,0.000011465,0.000151512,-0.000029596,0.999998987,0.000000000,0.000000000,0.000000000,0.000000000,0.000000000,0.000000000,-0.003403816,0.000000000,4.087270249
1772682400.719313622,0.013511000,0.007412000,0.054628000,-0.002791880,0.017369110,0.000508780,0.999845120,-0.005569000,0.034743000,0.000921000,-0.000114708,-0.000211058,0.000098468,0.030603883,-0.042021756,0.004316592,0.013466051,0.002279472,0.998189701,0.000327479,0.001153403,0.001203019,0.000000000,0.000000000,0.000000000,0.000000000,0.014358290,0.007522358,0.054720811,0.045242636,0.009501333,-0.000776965,0.013840989,0.001900825,-0.001265645,0.000826535,-0.018692434,-0.003817309,0.000007218,0.000163122,-0.000033313,0.999998987,0.000000000,0.000000000,0.000000000,0.000000000,0.000000000,0.000000000,-0.003742505,0.000000000,4.087795102
1772682400.729313850,0.013471000,0.007345000,0.054733000,-0.003679940,0.018601800,0.000219630,0.999820180,-0.007356000,0.037207000,0.000302000,-0.000617012,-0.000982794,0.001704024,-0.030991963,0.048313770,-0.016619811,0.012307910,0.001619084,0.998299924,-0.000374766,0.003955203,0.000461079,0.000000000,0.000000000,0.000000000,0.000000000,0.014384238,0.007555764,0.054654084,0.045331065,0.009482615,-0.001210597,0.011964112,0.001750260,-0.002600131,0.000708806,-0.019291058,-0.003286566,0.000006190,0.000168346,-0.000028682,0.999998987,0.000000000,0.000000000,0.000000000,0.000000000,0.000000000,0.000000000,-0.003479092,0.000000000,4.088319992
1772682400.739313126,0.013467000,0.007326000,0.054747000,-0.004294140,0.019673850,0.000094080,0.999797220,-0.008590000,0.039351000,0.000019000,-0.000389190,-0.000880597,0.001885711,-0.063366797,0.093451067,-0.025120224,0.011974874,0.001586501,0.998042522,0.001734794,0.000541346,-0.001748716,0.000000000,0.000000000,0.000000000,0.000000000,0.014374468,0.007545481,0.054672987,0.045174500,0.009346765,-0.001260610,0.012394976,0.001911679,-0.002128243,0.000922911,-0.020018579,-0.001669776,0.000008056,0.000174695,-0.000014573,0.999998987,0.000000000,0.000000000,0.000000000,0.000000000,0.000000000,0.000000000,-0.001889700,0.000000000,4.088844832
1772682400.749312401,0.013544000,0.007393000,0.054623000,-0.003135070,0.017919120,0.000330760,0.999834470,-0.006261000,0.035842000,0.000549000,0.000758022,0.000724824,-0.000731836,-0.015657685,0.022807200,-0.007615885,0.011778714,0.002499857,0.998744983,0.003010262,0.002225888,0.001239828,0.000000000,0.000000000,0.000000000,0.000000000,0.014376463,0.007567088,0.054639139,0.045031868,0.009302920,-0.001556809,0.012191483,0.002466594,-0.001213551,0.001549225,-0.020916944,-0.001253695,0.000013522,0.000182535,-0.000010943,0.999998987,0.000000000,0.000000000,0.000000000,0.000000000,0.000000000,0.000000000,-0.001112175,0.000000000,4.089369673
1772682400.759312391,0.013488000,0.007352000,0.054732000,-0.003951660,0.019304320,0.000054590,0.999805840,-0.007906000,0.038611000,-0.000043000,0.000936115,0.000960261,-0.001338728,0.018538439,-0.032997680,0.006000960,0.011772978,0.002900252,0.999336713,0.000571474,-0.003006564,0.000825435,0.000000000,0.000000000,0.000000000,0.000000000,0.014357175,0.007546053,0.054670779,0.044816256,0.009200308,-0.001452019,0.012001815,0.002836236,-0.000617562,0.002370491,-0.021417067,-0.001423388,0.000020689,0.000186899,-0.000012425,0.999998987,0.000000000,0.000000000,0.000000000,0.000000000,0.000000000,0.000000000,-0.001507929,0.000000000,4.089894551
1772682400.769311666,0.013469000,0.007336000,0.054771000,-0.004701260,0.020188430,-0.000161580,0.999785130,-0.009415000,0.040378000,-0.000513000,0.000833024,0.001092277,-0.001770149,0.050394158,-0.090206562,0.018398108,0.011614603,0.002508619,0.999737488,-0.002058066,-0.001738938,-0.004365566,0.000000000,0.000000000,0.000000000,0.000000000,0.014345427,0.007525168,0.054694024,0.044640767,0.009141293,-0.001336397,0.012184690,0.001904706,0.000026532,0.002463252,-0.021393038,-0.000843053,0.000021497,0.000186690,-0.000007361,0.999998987,0.000000000,0.000000000,0.000000000,0.000000000,0.000000000,0.000000000,-0.000888071,0.000000000,4.090419391
1772682400.779311419,0.013525000,0.007407000,0.054645000,-0.003502930,0.018203650,0.000319330,0.999828110,-0.006998000,0.036411000,0.000511000,-0.000107015,-0.000097380,0.000054061,0.023731513,-0.052916671,0.011794457,0.012404436,0.001503658,0.999722507,0.000188957,0.002561042,0.000237644,0.000000000,0.000000000,0.000000000,0.000000000,0.014374551,0.007546769,0.054646091,0.044629646,0.009151677,-0.001497848,0.013287332,0.001466126,-0.000998856,0.001631252,-0.021828962,-0.000729219,0.000014237,0.000190494,-0.000006366,0.999998987,0.000000000,0.000000000,0.000000000,0.000000000,0.000000000,0.000000000,-0.000719644,0.000000000,4.090909004
1772682400.789310694,0.013545000,0.007416000,0.054602000,-0.002568270,0.016934180,0.000557030,0.999853150,-0.005120000,0.033873000,0.001028000,-0.000623986,-0.001005561,0.001139675,-0.018658941,0.011073683,0.002163599,0.013724604,0.002489865,0.998714439,0.003183540,-0.000319576,0.001515964,0.000000000,0.000000000,0.000000000,0.000000000,0.014362768,0.007537542,0.054673956,0.044605121,0.009017045,-0.001388527,0.013750992,0.002095927,-0.002053511,0.001351762,-0.022377560,-0.000453638,0.000011797,0.000195281,-0.000003961,0.999998987,0.000000000,0.000000000,0.000000000,0.000000000,0.000000000,0.000000000,-0.000527196,0.000000000,4.090909004
1772682400.799311876,0.013503000,0.007347000,0.054699000,-0.003419620,0.017961700,0.000340480,0.999832770,-0.006830000,0.035927000,0.000558000,-0.000538067,-0.001069452,0.001181440,-0.047245691,0.050779392,-0.010872107,0.012586953,0.001574082,0.998960114,-0.001897613,0.001243044,0.006875961,0.000000000,0.000000000,0.000000000,0.000000000,0.014346733,0.007523297,0.054710653,0.044640096,0.008942180,-0.001345172,0.012578504,0.001837023,-0.000899581,0.002234647,-0.022630509,0.000063200,0.000019501,0.000197489,0.000000548,0.999998987,0.000000000,0.000000000,0.000000000,0.000000000,0.000000000,0.000000000,0.000024396,0.000000000,4.090909004
1772682400.809312344,0.013475000,0.007327000,0.054762000,-0.004301520,0.019329030,0.000075620,0.999803920,-0.008605000,0.038661000,-0.000015000,-0.001352151,-0.001606839,0.002852305,-0.102274014,0.138760599,-0.035264777,0.011822789,0.000468091,0.999958718,-0.001006460,0.001263453,0.000287753,0.000000000,0.000000000,0.000000000,0.000000000,0.014366707,0.007551345,0.054664204,0.044641469,0.008925040,-0.001552411,0.012542692,0.001120739,-0.000796611,0.002460308,-0.023147665,0.000979393,0.000021468,0.000202002,0.000008542,0.999998987,0.000000000,0.000000000,0.000000000,0.000000000,0.000000000,0.000000000,0.000824420,0.000000000,4.090909004
1772682400.819312096,0.013474000,0.007337000,0.054754000,-0.004810620,0.020039700,-0.000082090,0.999787610,-0.009630000,0.040081000,-0.000357000,-0.001494598,-0.001404755,0.002865669,-0.131668481,0.182559601,-0.049517221,0.013217347,0.002360505,0.999811053,0.000934579,0.002793025,-0.000533449,0.000000000,0.000000000,0.000000000,0.000000000,0.014386290,0.007567425,0.054617087,0.044633424,0.008790912,-0.001739827,0.013819290,0.002476049,-0.000140682,0.001879515,-0.023848795,0.001130982,0.000016400,0.000208120,0.000009866,0.999998987,0.000000000,0.000000000,0.000000000,0.000000000,0.000000000,0.000000000,0.001220661,0.000000000,4.090909004
1772682400.829311132,0.013474000,0.007326000,0.054755000,-0.005313610,0.020533670,-0.000207700,0.999775020,-0.010643000,0.041067000,-0.000634000,-0.000394784,-0.000198820,0.000663886,-0.094855615,0.130609257,-0.038320481,0.013393816,0.002170582,1.000469385,0.002808650,0.001502856,-0.001102086,0.000000000,0.000000000,0.000000000,0.000000000,0.014375850,0.007542232,0.054641990,0.044653140,0.008703538,-0.001551455,0.013974201,0.002458547,0.000522838,0.001568769,-0.024805116,0.001652382,0.000013687,0.000216466,0.000014417,0.999998987,0.000000000,0.000000000,0.000000000,0.000000000,0.000000000,0.000000000,0.001532919,0.000000000,4.090909004
1772682400.839311600,0.013469000,0.007332000,0.054758000,-0.005601860,0.020911030,-0.000467690,0.999765540,-0.011231000,0.041819000,-0.001170000,0.000416211,0.000463512,-0.000985592,-0.042842367,0.061293816,-0.021607212,0.012667639,0.001606548,0.999483543,-0.000218882,0.000592667,0.001436424,0.000000000,0.000000000,0.000000000,0.000000000,0.014355424,0.007516650,0.054692251,0.044666172,0.008594626,-0.001232637,0.013201222,0.002239802,-0.000276787,0.002116018,-0.025370269,0.001709131,0.000018462,0.000221398,0.000014911,0.999998987,0.000000000,0.000000000,0.000000000,0.000000000,0.000000000,0.000000000,0.001787980,0.000000000,4.090909004
1772682400.849310637,0.013472000,0.007334000,0.054758000,-0.005669750,0.021195940,-0.000536160,0.999759120,-0.011370000,0.042388000,-0.001314000,0.000449001,0.000235476,-0.000654426,-0.014990049,0.024308276,-0.009381057,0.012192036,0.002920121,1.000593637,0.001686483,-0.002592364,0.000899842,0.000000000,0.000000000,0.000000000,0.000000000,0.014346423,0.007509850,0.054712588,0.044648010,0.008567847,-0.001125803,0.012595859,0.002223828,0.000539926,0.002310898,-0.026321387,0.001746513,0.000020163,0.000229698,0.000015237,0.999998987,0.000000000,0.000000000,0.000000000,0.000000000,0.000000000,0.000000000,0.001698031,0.000000000,4.090909004
1772682400.859310865,0.013476000,0.007332000,0.054741000,-0.005765780,0.021288760,-0.000500630,0.999756620,-0.011561000,0.042574000,-0.001248000,0.000189166,0.000136425,-0.000135201,0.002435772,0.007710406,0.002166446,0.012614033,0.003131087,1.001462282,0.000326721,0.000455598,0.002323795,0.000000000,0.000000000,0.000000000,0.000000000,0.014341948,0.007500960,0.054723961,0.044625347,0.008552013,-0.000966519,0.012515585,0.003403879,0.001000441,0.001964487,-0.027606393,0.001464577,0.000017140,0.000240912,0.000012777,0.999998987,0.000000000,0.000000000,0.000000000,0.000000000,0.000000000,0.000000000,0.001543043,0.000000000,4.090909004
1772682400.869310379,0.013490000,0.007332000,0.054742000,-0.005697880,0.021262230,-0.000441770,0.999757600,-0.011422000,0.042522000,-0.001127000,0.000274677,0.000083860,-0.000266926,0.013964188,-0.007864497,0.014617764,0.013544393,0.004115352,1.002580165,-0.000696720,0.002254760,0.003690549,0.000000000,0.000000000,0.000000000,0.000000000,0.014336719,0.007500573,0.054734283,0.044648749,0.008732548,-0.000719913,0.014536636,0.004500557,0.002387043,0.002156304,-0.027805713,0.002096675,0.000018813,0.000242651,0.000018292,0.999998987,0.000000000,0.000000000,0.000000000,0.000000000,0.000000000,0.000000000,0.001919622,0.000000000,4.090909004
1772682400.879309893,0.013481000,0.007339000,0.054740000,-0.005603380,0.021147000,-0.000377760,0.999760600,-0.011230000,0.042292000,-0.000993000,0.000277532,-0.000149110,-0.000260807,0.020147493,-0.016704284,0.023224191,0.014456905,0.003119339,1.001709089,0.001732831,-0.000025626,0.001524801,0.000000000,0.000000000,0.000000000,0.000000000,0.014337024,0.007502919,0.054740403,0.044829047,0.008909203,-0.000464499,0.014825474,0.002788650,0.002359195,0.001772950,-0.027261819,0.003380909,0.000015465,0.000237905,0.000029500,0.999998987,0.000000000,0.000000000,0.000000000,0.000000000,0.000000000,0.000000000,0.003266059,0.000000000,4.090909004
1772682400.889309168,0.013480000,0.007337000,0.054757000,-0.005426220,0.020982720,-0.000284170,0.999765070,-0.010872000,0.041965000,-0.000797000,-0.000098021,-0.000097866,0.000107967,0.019180735,-0.019430656,0.018055897,0.013489673,0.003905893,1.000662975,0.001802723,0.003816754,-0.001611377,0.000000000,0.000000000,0.000000000,0.000000000,0.014343011,0.007504493,0.054737064,0.045085288,0.008985442,-0.000268276,0.013970286,0.003573144,0.000263989,0.001279404,-0.028259943,0.004980753,0.000011154,0.000246615,0.000043462,0.999998987,0.000000000,0.000000000,0.000000000,0.000000000,0.000000000,0.000000000,0.004765945,0.000000000,4.090909004
1772682400.899309158,0.013477000,0.007330000,0.054743000,-0.005431950,0.021059010,-0.000172150,0.999763460,-0.010878000,0.042119000,-0.000574000,-0.000090834,-0.000067756,0.000199267,0.018839042,-0.016122790,0.009946695,0.012541242,0.003725633,1.000385678,0.003225793,0.000133113,-0.002031557,0.000000000,0.000000000,0.000000000,0.000000000,0.014353058,0.007506625,0.054736928,0.045217107,0.009126795,-0.000243132,0.012889281,0.004395058,-0.000032538,0.000945379,-0.029743863,0.004741366,0.000008239,0.000259565,0.000041374,0.999998987,0.000000000,0.000000000,0.000000000,0.000000000,0.000000000,0.000000000,0.004877139,0.000000000,4.090909004
1772682400.909308434,0.013494000,0.007326000,0.054732000,-0.005353650,0.020923000,-0.000081900,0.999766750,-0.010718000,0.041848000,-0.000388000,-0.000508385,-0.000447272,0.000843397,-0.006600398,0.009540402,-0.005517154,0.012325935,0.002838923,1.001310977,0.002158377,0.001419358,-0.002919014,0.000000000,0.000000000,0.000000000,0.000000000,0.014354694,0.007512439,0.054737380,0.045240823,0.009315380,-0.000198970,0.013634244,0.003148548,0.001696949,0.001775950,-0.030662860,0.003514751,0.000015490,0.000267585,0.000030668,0.999998987,0.000000000,0.000000000,0.000000000,0.000000000,0.000000000,0.000000000,0.003652273,0.000000000,4.090909004
1772682400.919307470,0.013479000,0.007331000,0.054748000,-0.005204180,0.020854290,-0.000123220,0.999768970,-0.010420000,0.041710000,-0.000464000,0.000172537,0.000321259,-0.000412967,0.013323543,-0.025943481,-0.006151109,0.012014453,0.002175177,1.001323011,0.003216767,0.003208056,-0.002214758,0.000000000,0.000000000,0.000000000,0.000000000,0.014355438,0.007515014,0.054746007,0.045301014,0.009354980,-0.000021890,0.012714136,0.001910072,0.001662453,0.001679523,-0.032215378,0.003288459,0.000014649,0.000281133,0.000028693,0.999998987,0.000000000,0.000000000,0.000000000,0.000000000,0.000000000,0.000000000,0.003278171,0.000000000,4.090909004
1772682400.929307699,0.013467000,0.007338000,0.054762000,-0.005305370,0.020755400,-0.000321900,0.999770450,-0.010631000,0.041510000,-0.000865000,0.000638477,0.000771037,-0.001454446,0.042320300,-0.068170846,0.002538588,0.011658054,0.004310702,1.000035626,0.001564776,0.001212914,0.001782133,0.000000000,0.000000000,0.000000000,0.000000000,0.014355442,0.007512633,0.054744401,0.045266070,0.009341316,0.000098638,0.012552971,0.004177118,-0.000464175,0.001122016,-0.034128702,0.003028582,0.000009784,0.000297830,0.000026426,0.999998965,0.000000000,0.000000000,0.000000000,0.000000000,0.000000000,0.000000000,0.003083727,0.000000000,4.090909004
1772682400.939307451,0.013489000,0.007332000,0.054742000,-0.005179870,0.020712020,-0.000305500,0.999772020,-0.010379000,0.041423000,-0.000826000,0.000207795,0.000513805,-0.000776865,0.039019614,-0.057263275,0.003005227,0.012698442,0.003763101,0.997867599,-0.000325969,0.000432735,0.004144444,0.000000000,0.000000000,0.000000000,0.000000000,0.014362028,0.007511153,0.054739521,0.045296675,0.009520836,-0.000021786,0.013949425,0.003495004,-0.001767951,0.001812440,-0.035005765,0.002825320,0.000015809,0.000305484,0.000024651,0.999998927,0.000000000,0.000000000,0.000000000,0.000000000,0.000000000,0.000000000,0.002831087,0.000000000,4.090909004
1772682400.949307442,0.013470000,0.007332000,0.054749000,-0.005292280,0.020560870,-0.000332690,0.999774540,-0.010605000,0.041121000,-0.000884000,0.000435228,0.000880908,-0.001695205,0.055996436,-0.082783215,0.015462413,0.012994115,0.001639434,0.998857455,0.000318239,0.001825875,0.002836823,0.000000000,0.000000000,0.000000000,0.000000000,0.014358729,0.007513786,0.054743385,0.045388797,0.009587593,-0.000171993,0.013392209,0.001297750,-0.001476614,0.002007749,-0.035531609,0.004404773,0.000017509,0.000310073,0.000038433,0.999998927,0.000000000,0.000000000,0.000000000,0.000000000,0.000000000,0.000000000,0.004136097,0.000000000,4.090909004
1772682400.959306717,0.013538000,0.007399000,0.054620000,-0.003613880,0.018430970,0.000185210,0.999823590,-0.007225000,0.036865000,0.000237000,0.000617032,0.000881432,-0.001758066,0.068947977,-0.096786580,0.024541661,0.013832221,0.000751121,0.999256015,0.000103745,0.001603660,0.003531950,0.000000000,0.000000000,0.000000000,0.000000000,0.014352718,0.007517978,0.054750409,0.045435414,0.009466179,-0.000249906,0.014377322,0.001215391,-0.000891076,0.001284936,-0.035431512,0.005672029,0.000011198,0.000309199,0.000049494,0.999998927,0.000000000,0.000000000,0.000000000,0.000000000,0.000000000,0.000000000,0.005602262,0.000000000,4.090909004
1772682400.969307184,0.013492000,0.007342000,0.054709000,-0.004171960,0.019333610,0.000103400,0.999804380,-0.008345000,0.038670000,0.000045000,0.000264400,0.000547566,-0.000886560,0.061991598,-0.081390834,0.024121147,0.014858984,0.003384810,0.999948312,0.001845241,-0.002660734,-0.001167573,0.000000000,0.000000000,0.000000000,0.000000000,0.014361570,0.007516193,0.054743319,0.045668925,0.009345753,-0.000328511,0.015452602,0.003776668,-0.000863012,0.001229076,-0.035049000,0.005982873,0.000010710,0.000305861,0.000052207,0.999998927,0.000000000,0.000000000,0.000000000,0.000000000,0.000000000,0.000000000,0.005986550,0.000000000,4.090909004
1772682400.979306698,0.013461000,0.007345000,0.054747000,-0.004656120,0.019970700,-0.000137990,0.999789710,-0.009323000,0.039942000,-0.000462000,-0.000289071,-0.000057694,0.000428701,0.031953874,-0.038062267,0.013796959,0.016771242,0.003079828,0.999074221,0.001337545,0.003627273,0.000134275,0.000000000,0.000000000,0.000000000,0.000000000,0.014360907,0.007517285,0.054739455,0.045978809,0.009484038,-0.000408228,0.017626872,0.002764320,-0.001119455,0.001876801,-0.034501370,0.005685648,0.000016363,0.000301082,0.000049612,0.999998951,0.000000000,0.000000000,0.000000000,0.000000000,0.000000000,0.000000000,0.005736741,0.000000000,4.090909004
1772682400.989306688,0.013527000,0.007400000,0.054626000,-0.003241950,0.017754320,0.000370500,0.999837050,-0.006474000,0.035513000,0.000626000,-0.000377535,-0.000892602,0.001311726,-0.008474585,0.022813712,0.002538203,0.015272820,0.003683709,1.000823331,0.000264645,0.001737302,0.001470230,0.000000000,0.000000000,0.000000000,0.000000000,0.014396128,0.007550266,0.054674243,0.046487630,0.009603521,-0.000742644,0.015485600,0.002953624,0.000910579,0.002035472,-0.035037186,0.005177216,0.000017749,0.000305758,0.000045174,0.999998965,0.000000000,0.000000000,0.000000000,0.000000000,0.000000000,0.000000000,0.005237515,0.000000000,4.090909004
1772682400.999307632,0.013493000,0.007349000,0.054719000,-0.003773390,0.018848110,0.000177110,0.999815220,-0.007544000,0.037700000,0.000212000,-0.000621597,-0.001283501,0.001940588,-0.046532056,0.072534025,-0.008676510,0.014099671,0.003201689,1.002272443,-0.003427531,0.002738772,-0.000135308,0.000000000,0.000000000,0.000000000,0.000000000,0.014394123,0.007538896,0.054685910,0.046653380,0.009624183,-0.000523659,0.015006501,0.002673132,0.002468763,0.002256594,-0.035509499,0.005573980,0.000019677,0.000309880,0.000048636,0.999998927,0.000000000,0.000000000,0.000000000,0.000000000,0.000000000,0.000000000,0.005434197,0.000000000,4.090909004
1772682401.009307146,0.013483000,0.007334000,0.054733000,-0.004263650,0.019474840,0.000125180,0.999801250,-0.008527000,0.038953000,0.000084000,-0.000057208,-0.000698716,0.000947226,-0.052221909,0.073674566,-0.011205000,0.013981550,0.001754582,1.001031842,-0.002151571,0.004010839,0.000731260,0.000000000,0.000000000,0.000000000,0.000000000,0.014381039,0.007537385,0.054709732,0.046773053,0.009586022,-0.000165223,0.014472269,0.001557576,0.000548903,0.001819376,-0.036322223,0.007293749,0.000015857,0.000316973,0.000063645,0.999998927,0.000000000,0.000000000,0.000000000,0.000000000,0.000000000,0.000000000,0.007055092,0.000000000,4.090909004
1772682401.019307137,0.013476000,0.007324000,0.054750000,-0.004638190,0.020080120,0.000035430,0.999787610,-0.009281000,0.040163000,-0.000116000,-0.000320152,-0.000975840,0.001554351,-0.081539205,0.109874146,-0.020513109,0.013408999,0.004329744,0.999706163,-0.002558552,0.002145728,0.000297086,0.000000000,0.000000000,0.000000000,0.000000000,0.014406194,0.007559872,0.054668267,0.046923952,0.009599333,-0.000291027,0.014422577,0.004524570,0.000067158,0.000709604,-0.037851776,0.007986677,0.000006169,0.000330320,0.000069695,0.999998927,0.000000000,0.000000000,0.000000000,0.000000000,0.000000000,0.000000000,0.007989973,0.000000000,4.090909004
1772682401.029306889,0.013486000,0.007317000,0.054752000,-0.005064450,0.020611290,-0.000069830,0.999774740,-0.010138000,0.041224000,-0.000349000,-0.000391463,-0.000568079,0.001343118,-0.082125017,0.106367726,-0.025647519,0.013523890,0.004734498,0.997945810,0.002546262,0.001059700,0.001116934,0.000000000,0.000000000,0.000000000,0.000000000,0.014403524,0.007548484,0.054689568,0.046987567,0.009717110,-0.000224004,0.013819227,0.004841494,-0.001496195,0.000278536,-0.038485065,0.006920375,0.000002410,0.000335846,0.000060391,0.999998927,0.000000000,0.000000000,0.000000000,0.000000000,0.000000000,0.000000000,0.007083949,0.000000000,4.090909004
1772682401.039306641,0.013476000,0.007328000,0.054763000,-0.005331980,0.020857660,-0.000190390,0.999768220,-0.010679000,0.041716000,-0.000604000,0.000193517,0.000171080,-0.000181998,-0.043663205,0.050107581,-0.014793172,0.012589183,0.003810891,0.996671095,0.003290395,0.002368376,0.000924171,0.000000000,0.000000000,0.000000000,0.000000000,0.014397356,0.007535646,0.054709070,0.046991479,0.009861660,-0.000351243,0.013794404,0.004352913,-0.002274516,0.000091449,-0.039272906,0.006049781,0.000000780,0.000342721,0.000052794,0.999998927,0.000000000,0.000000000,0.000000000,0.000000000,0.000000000,0.000000000,0.006070170,0.000000000,4.090909004
1772682401.049307585,0.013487000,0.007338000,0.054743000,-0.005529990,0.020867330,-0.000266730,0.999766920,-0.011078000,0.041734000,-0.000765000,-0.000187981,0.000247073,-0.000156608,-0.027103064,0.034949376,-0.010347676,0.012228827,0.002614112,0.998543892,-0.003983254,0.003927774,-0.000694963,0.000000000,0.000000000,0.000000000,0.000000000,0.014390501,0.007524730,0.054726831,0.046989869,0.009949362,-0.000500463,0.013211287,0.002674696,-0.001581000,0.000311441,-0.040571483,0.005527726,0.000002701,0.000354053,0.000048237,0.999998927,0.000000000,0.000000000,0.000000000,0.000000000,0.000000000,0.000000000,0.005631575,0.000000000,4.090909004
1772682401.059306860,0.013484000,0.007321000,0.054761000,-0.005553120,0.021197470,-0.000247650,0.999759860,-0.011124000,0.042395000,-0.000731000,-0.000673521,-0.000096797,0.000357254,-0.033392456,0.042999828,-0.011274883,0.011905722,0.001075933,0.997494126,0.000710049,0.004201277,0.004098581,0.000000000,0.000000000,0.000000000,0.000000000,0.014392074,0.007516777,0.054735485,0.046961936,0.009880047,-0.000626523,0.012625814,0.001120728,-0.002421265,0.000556634,-0.042065905,0.005318956,0.000004840,0.000367095,0.000046415,0.999998927,0.000000000,0.000000000,0.000000000,0.000000000,0.000000000,0.000000000,0.005287307,0.000000000,4.090909004
1772682401.069306850,0.013473000,0.007324000,0.054756000,-0.005481730,0.021130220,-0.000279820,0.999761660,-0.010983000,0.042260000,-0.000792000,-0.000197771,0.000541797,-0.000805362,0.004940247,-0.003844897,-0.000774672,0.012307273,0.000142379,0.998485714,-0.000501744,0.001477623,-0.000615787,0.000000000,0.000000000,0.000000000,0.000000000,0.014388206,0.007517673,0.054742079,0.046907155,0.009734843,-0.000777914,0.013273982,-0.000171241,-0.001954898,-0.000115917,-0.043418410,0.005859761,-0.000001031,0.000378897,0.000051136,0.999998927,0.000000000,0.000000000,0.000000000,0.000000000,0.000000000,0.000000000,0.005775293,0.000000000,4.090909004
1772682401.079306602,0.013466000,0.007329000,0.054748000,-0.005725590,0.021433550,-0.000307460,0.999753830,-0.011472000,0.042866000,-0.000861000,0.000427730,0.000985728,-0.001538325,0.044936046,-0.055736459,0.007016168,0.012230788,0.001573237,0.999078210,0.002558467,-0.003551109,0.000449517,0.000000000,0.000000000,0.000000000,0.000000000,0.014391538,0.007521200,0.054734412,0.046924820,0.009504952,-0.000948702,0.013608669,0.001424203,-0.000273303,-0.000204760,-0.043366097,0.006639306,-0.000001809,0.000378441,0.000057940,0.999998927,0.000000000,0.000000000,0.000000000,0.000000000,0.000000000,0.000000000,0.006536423,0.000000000,4.090869017
1772682401.089306116,0.013464000,0.007349000,0.054736000,-0.005537540,0.021057580,-0.000277770,0.999762890,-0.011094000,0.042115000,-0.000789000,0.000601627,0.001212773,-0.001501727,0.067893567,-0.091852490,0.008780808,0.013806307,0.002259651,0.998635112,-0.000321175,-0.000434799,0.006476706,0.000000000,0.000000000,0.000000000,0.000000000,0.014392434,0.007512957,0.054738632,0.046988822,0.009436871,-0.000933496,0.014174197,0.001659360,-0.000908603,0.000231088,-0.042937058,0.006803374,0.000001994,0.000374697,0.000059370,0.999998927,0.000000000,0.000000000,0.000000000,0.000000000,0.000000000,0.000000000,0.006852479,0.000000000,4.090331486
1772682401.099305153,0.013475000,0.007335000,0.054750000,-0.005525390,0.021011050,-0.000378760,0.999763900,-0.011074000,0.042020000,-0.000990000,0.000759595,0.000857636,-0.001135926,0.069847630,-0.102373375,0.009258207,0.013152984,0.002427347,0.999957011,-0.001621061,0.006533497,0.002102517,0.000000000,0.000000000,0.000000000,0.000000000,0.014387234,0.007509714,0.054737828,0.047089579,0.009358941,-0.001004096,0.013646444,0.002792835,-0.000442584,0.000417428,-0.043511732,0.007818495,0.000003617,0.000379712,0.000068228,0.999998927,0.000000000,0.000000000,0.000000000,0.000000000,0.000000000,0.000000000,0.007578234,0.000000000,4.089793980
1772682401.109305143,0.013528000,0.007406000,0.054631000,-0.003700460,0.018719700,0.000068210,0.999817920,-0.007402000,0.037442000,-0.000002000,0.000162436,-0.000294491,0.000527616,0.034252980,-0.051675876,0.002993657,0.013071398,0.002978940,1.001165017,-0.000262532,0.001060901,0.001667857,0.000000000,0.000000000,0.000000000,0.000000000,0.014382111,0.007511878,0.054732746,0.047125176,0.009414985,-0.000969409,0.013358373,0.003126882,0.001408558,-0.000056253,-0.045145530,0.008724876,-0.000000521,0.000393969,0.000076139,0.999998927,0.000000000,0.000000000,0.000000000,0.000000000,0.000000000,0.000000000,0.008710822,0.000000000,4.089256423
1772682401.119304895,0.013493000,0.007357000,0.054722000,-0.004249570,0.019380640,-0.000167260,0.999803130,-0.008510000,0.038762000,-0.000500000,0.000035082,-0.000130831,0.000096079,0.023276600,-0.040324041,0.004851532,0.014018349,0.001969009,1.000893729,0.001145477,0.001676202,-0.000411586,0.000000000,0.000000000,0.000000000,0.000000000,0.014379752,0.007521954,0.054726175,0.047182141,0.009486528,-0.000815498,0.014923593,0.001943074,0.001057193,0.000101343,-0.046659521,0.007567213,0.000000858,0.000407182,0.000066036,0.999998927,0.000000000,0.000000000,0.000000000,0.000000000,0.000000000,0.000000000,0.007784256,0.000000000,4.088718879
1772682401.129305124,0.013478000,0.007345000,0.054739000,-0.004633860,0.019749990,-0.000217580,0.999794190,-0.009282000,0.039500000,-0.000619000,-0.000295365,-0.000355487,0.000413627,-0.008304835,0.006055815,0.001910738,0.014240441,0.001624964,0.999082452,-0.001202760,0.004170673,0.000325058,0.000000000,0.000000000,0.000000000,0.000000000,0.014387514,0.007523511,0.054724948,0.047381126,0.009435758,-0.000735722,0.015184540,0.001255604,-0.000823580,-0.000205226,-0.047738978,0.007090127,-0.000001817,0.000416601,0.000061874,0.999998927,0.000000000,0.000000000,0.000000000,0.000000000,0.000000000,0.000000000,0.007078171,0.000000000,4.088181310
1772682401.139305115,0.013481000,0.007334000,0.054740000,-0.004795500,0.019958890,-0.000160660,0.999789290,-0.009603000,0.039918000,-0.000513000,-0.000202589,0.000087803,-0.000148061,-0.011572634,0.014073783,0.003307819,0.013701993,0.002444299,0.998265787,-0.000928334,-0.000407230,0.001866323,0.000000000,0.000000000,0.000000000,0.000000000,0.014414958,0.007554324,0.054672259,0.047587710,0.009433406,-0.001013158,0.014903100,0.002448456,-0.001890070,0.000027147,-0.048554348,0.008383386,0.000000206,0.000423717,0.000073159,0.999998927,0.000000000,0.000000000,0.000000000,0.000000000,0.000000000,0.000000000,0.008150974,0.000000000,4.087643753
1772682401.149304867,0.013471000,0.007344000,0.054740000,-0.005001370,0.020236600,-0.000211440,0.999782690,-0.010017000,0.040473000,-0.000626000,0.000309662,0.000916437,-0.001364680,0.022070273,-0.027615085,0.010404723,0.014593696,0.004074056,0.997449853,0.001941316,0.002341296,0.000825440,0.000000000,0.000000000,0.000000000,0.000000000,0.014415316,0.007547330,0.054686507,0.047714983,0.009435908,-0.001143146,0.015304996,0.003421131,-0.001884785,0.000105926,-0.049103037,0.009869309,0.000000887,0.000428505,0.000086125,0.999998927,0.000000000,0.000000000,0.000000000,0.000000000,0.000000000,0.000000000,0.009760503,0.000000000,4.087106209
1772682401.159304857,0.013522000,0.007415000,0.054618000,-0.003602380,0.018337030,0.000171090,0.999825360,-0.007202000,0.036677000,0.000210000,0.001541414,0.002415095,-0.004095809,0.119061128,-0.156561359,0.035018837,0.013934716,0.005130375,0.999659271,0.002298159,-0.000360026,0.000054069,0.000000000,0.000000000,0.000000000,0.000000000,0.014408190,0.007537107,0.054702797,0.047859989,0.009554212,-0.001199046,0.014799916,0.004881546,0.000154564,-0.000459705,-0.049488338,0.010231583,-0.000004050,0.000431867,0.000089289,0.999998927,0.000000000,0.000000000,0.000000000,0.000000000,0.000000000,0.000000000,0.010255755,0.000000000,4.086568652
1772682401.169304609,0.013495000,0.007360000,0.054709000,-0.004151500,0.019349670,-0.000001680,0.999804160,-0.008308000,0.038701000,-0.000164000,0.001382940,0.001759173,-0.003220748,0.144103599,-0.192251047,0.039857610,0.013849132,0.003338445,1.000355161,0.000949993,0.000595794,0.001319573,0.000000000,0.000000000,0.000000000,0.000000000,0.014406985,0.007529279,0.054711371,0.047971717,0.009744681,-0.001084604,0.015010477,0.003433453,-0.000685500,-0.001095261,-0.049684351,0.009783323,-0.000009595,0.000433577,0.000085380,0.999998927,0.000000000,0.000000000,0.000000000,0.000000000,0.000000000,0.000000000,0.009850459,0.000000000,4.086031108
1772682401.179304600,0.013523000,0.007416000,0.054617000,-0.002967920,0.017611290,0.000300240,0.999840460,-0.005928000,0.035226000,0.000496000,0.000732089,0.000427633,-0.001167842,0.112094641,-0.153628347,0.033019878,0.014067838,0.002016916,0.999407956,-0.000902533,0.002335166,0.002197840,0.000000000,0.000000000,0.000000000,0.000000000,0.014406607,0.007535869,0.054707254,0.048103036,0.009799467,-0.001104281,0.015232842,0.002447174,-0.000228067,-0.001600368,-0.050275138,0.010341704,-0.000014005,0.000438732,0.000090254,0.999998927,0.000000000,0.000000000,0.000000000,0.000000000,0.000000000,0.000000000,0.010222183,0.000000000,4.085763753
1772682401.189304829,0.013529000,0.007428000,0.054596000,-0.002121690,0.016364440,0.000539300,0.999863700,-0.004227000,0.032733000,0.001010000,-0.000373436,-0.001662221,0.001978565,0.015088852,-0.024061867,0.010092543,0.013672327,0.001388071,0.998515902,0.002275164,-0.003545980,-0.000834594,0.000000000,0.000000000,0.000000000,0.000000000,0.014429233,0.007568345,0.054653843,0.048293289,0.009843142,-0.001328229,0.014116256,0.001453541,-0.001973181,-0.001433829,-0.051238541,0.011768687,-0.000012558,0.000447140,0.000102707,0.999998927,0.000000000,0.000000000,0.000000000,0.000000000,0.000000000,0.000000000,0.011586610,0.000000000,4.086287461
1772682401.199304819,0.013545000,0.007409000,0.054593000,-0.001630200,0.015658670,0.000735220,0.999875800,-0.003239000,0.031321000,0.001420000,-0.000804973,-0.001896395,0.002771261,-0.052724462,0.064821080,-0.007222899,0.013523473,0.000821415,0.997532890,0.000746735,-0.000348545,-0.000803474,0.000000000,0.000000000,0.000000000,0.000000000,0.014430717,0.007561868,0.054662570,0.048324747,0.009675748,-0.001440907,0.013733457,0.000784322,-0.003319593,-0.000594874,-0.050523558,0.009639666,-0.000005228,0.000440901,0.000084124,0.999998927,0.000000000,0.000000000,0.000000000,0.000000000,0.000000000,0.000000000,0.010067232,0.000000000,4.086811155
1772682401.209304333,0.013499000,0.007343000,0.054717000,-0.003046590,0.017674970,0.000409490,0.999839060,-0.006082000,0.035354000,0.000712000,-0.000569711,-0.001103194,0.001996029,-0.080691662,0.101729970,-0.015411585,0.013832448,0.001083244,0.997667555,-0.000236015,0.001479226,0.001056051,0.000000000,0.000000000,0.000000000,0.000000000,0.014444326,0.007582741,0.054622323,0.048375028,0.009548294,-0.001830057,0.014580699,0.000861625,-0.003384633,0.000122388,-0.049380823,0.008466531,0.000001036,0.000430929,0.000073884,0.999998927,0.000000000,0.000000000,0.000000000,0.000000000,0.000000000,0.000000000,0.008473608,0.000000000,4.087334825
1772682401.219304800,0.013488000,0.007328000,0.054750000,-0.004054280,0.018990930,0.000173860,0.999811420,-0.008106000,0.037985000,0.000194000,-0.000650560,-0.001242183,0.002276436,-0.109875358,0.150875314,-0.024035639,0.012573207,0.002803834,1.000417131,0.000067132,0.003351906,-0.000731991,0.000000000,0.000000000,0.000000000,0.000000000,0.014454820,0.007596331,0.054588121,0.048417310,0.009437036,-0.002142675,0.013087157,0.003143907,0.001209940,-0.000234381,-0.049258264,0.008114285,-0.000002076,0.000429860,0.000070811,0.999998927,0.000000000,0.000000000,0.000000000,0.000000000,0.000000000,0.000000000,0.008169098,0.000000000,4.087858545
1772682401.229304790,0.013481000,0.007321000,0.054755000,-0.004801320,0.019990020,-0.000011340,0.999788650,-0.009609000,0.039982000,-0.000215000,-0.000587427,-0.000170789,0.000854178,-0.087422643,0.120858747,-0.021377212,0.012840466,0.003335324,1.001521261,0.000824235,0.004829161,0.000655069,0.000000000,0.000000000,0.000000000,0.000000000,0.014466057,0.007593869,0.054571676,0.048346800,0.009447109,-0.002009866,0.013671089,0.003485107,0.000837220,-0.000408374,-0.050038881,0.007618563,-0.000003593,0.000436672,0.000066486,0.999998927,0.000000000,0.000000000,0.000000000,0.000000000,0.000000000,0.000000000,0.007674410,0.000000000,4.088382239
1772682401.239304781,0.013523000,0.007407000,0.054639000,-0.003538070,0.018203970,0.000309930,0.999827990,-0.007068000,0.036412000,0.000491000,-0.000429090,0.000430702,-0.000078790,-0.054195985,0.073077253,-0.015666278,0.012924195,0.003828214,0.998841213,0.001813582,0.004797897,0.001020564,0.000000000,0.000000000,0.000000000,0.000000000,0.014451558,0.007563924,0.054619384,0.048263353,0.009407022,-0.001711527,0.014177404,0.003420733,-0.000088110,-0.000522377,-0.051165913,0.007401203,-0.000004587,0.000446507,0.000064590,0.999998927,0.000000000,0.000000000,0.000000000,0.000000000,0.000000000,0.000000000,0.007382728,0.000000000,4.088905934
1772682401.249303579,0.013497000,0.007361000,0.054709000,-0.004287890,0.019291930,0.000125400,0.999804690,-0.008576000,0.038587000,0.000085000,-0.000364558,0.000219819,-0.000150878,-0.028854583,0.046368671,-0.011100165,0.013827593,0.002237029,1.000868030,0.002265241,-0.001479928,-0.001737058,0.000000000,0.000000000,0.000000000,0.000000000,0.014435825,0.007536288,0.054670636,0.048230540,0.009381222,-0.001449199,0.014558766,0.002742829,0.000738004,-0.000796589,-0.051997590,0.007344892,-0.000006981,0.000453765,0.000064099,0.999998927,0.000000000,0.000000000,0.000000000,0.000000000,0.000000000,0.000000000,0.007404539,0.000000000,4.089429566
1772682401.259303093,0.013485000,0.007330000,0.054736000,-0.004682710,0.019978240,0.000061990,0.999789450,-0.009369000,0.039959000,-0.000063000,-0.000566564,-0.000783139,0.001177049,-0.045037923,0.074127759,-0.012766298,0.012859046,0.002737840,1.001180141,-0.000647527,0.001430232,-0.001441751,0.000000000,0.000000000,0.000000000,0.000000000,0.014423787,0.007517557,0.054704620,0.048259440,0.009317136,-0.001121751,0.013746016,0.002988227,0.001055953,-0.000478692,-0.052051949,0.006154655,-0.000004202,0.000454239,0.000053711,0.999998927,0.000000000,0.000000000,0.000000000,0.000000000,0.000000000,0.000000000,0.006404584,0.000000000,4.089953236
1772682401.269303083,0.013458000,0.007345000,0.054750000,-0.005136770,0.020479660,-0.000162170,0.999777060,-0.010287000,0.040960000,-0.000535000,-0.000491329,-0.001108303,0.001589161,-0.058358802,0.090893379,-0.013722838,0.012937844,0.003494216,1.000607713,-0.001337824,-0.000264232,-0.001145430,0.000000000,0.000000000,0.000000000,0.000000000,0.014439447,0.007553668,0.054660900,0.048254282,0.009497634,-0.001148771,0.014606240,0.003492826,0.000286080,-0.000100636,-0.052977150,0.004739391,-0.000000897,0.000462313,0.000041359,0.999998904,0.000000000,0.000000000,0.000000000,0.000000000,0.000000000,0.000000000,0.004836484,0.000000000,4.090476931
1772682401.279303074,0.013479000,0.007332000,0.054752000,-0.005371920,0.020879630,-0.000189550,0.999767550,-0.010759000,0.041760000,-0.000604000,-0.000239244,-0.000879256,0.001093831,-0.055023357,0.083979647,-0.010747624,0.013379118,0.003556567,0.999223904,0.001073535,0.000300955,-0.001661033,0.000000000,0.000000000,0.000000000,0.000000000,0.014434553,0.007549816,0.054674069,0.048276903,0.009566681,-0.001037977,0.014061263,0.003080942,-0.000984791,-0.000039168,-0.053439511,0.004032463,-0.000000358,0.000466348,0.000035190,0.999998868,0.000000000,0.000000000,0.000000000,0.000000000,0.000000000,0.000000000,0.004097571,0.000000000,4.090909004
1772682401.289303064,0.013476000,0.007325000,0.054755000,-0.005366750,0.021158730,-0.000151930,0.999761710,-0.010747000,0.042318000,-0.000531000,0.000436452,0.000125702,-0.000252065,-0.015307391,0.030509664,0.001023494,0.013137051,0.003215163,0.999128966,0.001550569,-0.001168278,-0.000371519,0.000000000,0.000000000,0.000000000,0.000000000,0.014423718,0.007531773,0.054698659,0.048251881,0.009560086,-0.001005533,0.014553346,0.003340988,-0.000774577,-0.000265857,-0.054384114,0.003776620,-0.000002336,0.000474591,0.000032958,0.999998868,0.000000000,0.000000000,0.000000000,0.000000000,0.000000000,0.000000000,0.003775614,0.000000000,4.090909004
1772682401.299302340,0.013493000,0.007325000,0.054747000,-0.005438390,0.021020700,-0.000035460,0.999764250,-0.010886000,0.042043000,-0.000300000,0.000293947,0.000178268,-0.000287905,-0.005464219,0.012639242,0.003979385,0.012446808,0.002699787,1.000663537,0.001214067,-0.000583398,0.000672406,0.000000000,0.000000000,0.000000000,0.000000000,0.014407576,0.007530352,0.054716562,0.048226578,0.009620586,-0.000920767,0.013295685,0.002637393,0.000303490,-0.000181957,-0.055959805,0.004379458,-0.000001607,0.000488342,0.000038219,0.999998868,0.000000000,0.000000000,0.000000000,0.000000000,0.000000000,0.000000000,0.004271766,0.000000000,4.090909004
