t,px,py,pz,qx,qy,qz,qw,roll,pitch,yaw,vx,vy,vz,wx_vicon,wy_vicon,wz_vicon,imu_acc_x,imu_acc_y,imu_acc_z,imu_gyro_x,imu_gyro_y,imu_gyro_z,motor_motor_m1,motor_motor_m2,motor_motor_m3,motor_motor_m4,est_stateEstimate_x,est_stateEstimate_y,est_stateEstimate_z,est_stateEstimate_vx,est_stateEstimate_vy,est_stateEstimate_vz,est_stateEstimate_ax,est_stateEstimate_ay,est_stateEstimate_az,att_stateEstimate_roll,att_stateEstimate_pitch,att_stateEstimate_yaw,att_stateEstimate_qx,att_stateEstimate_qy,att_stateEstimate_qz,att_stateEstimate_qw,sp_ctrltarget_x,sp_ctrltarget_y,sp_ctrltarget_z,sp_ctrltarget_yaw,pid_controller_roll,pid_controller_pitch,pid_controller_yaw,pid_controller_cmd_thrust,pwr_pm_vbat
1772422003.762881517,0.017374000,0.007068000,0.054104000,-0.002025510,0.004827980,0.006930520,0.999962280,-0.003984000,0.009684000,0.013842000,0.000319697,-0.000417444,0.002898119,-0.011376329,-0.069750064,-0.010300650,0.011468815,-0.002800194,0.999287066,-0.000130255,0.002560663,-0.003875384,0.000000000,0.000000000,0.000000000,0.000000000,0.017567622,0.007073367,0.054102995,0.019783706,0.000785194,-0.002073496,0.008975234,-0.000426919,-0.001176037,-0.125025144,0.130433055,0.476693775,-0.001086304,-0.001142772,0.004158675,0.999989092,0.000000000,0.000000000,0.000000000,0.000000000,0.000000000,0.000000000,0.476825282,0.000000000,3.964875550
1772422003.772881508,0.017364000,0.007073000,0.054101000,-0.002117630,0.004691360,0.006888130,0.999963030,-0.004171000,0.009412000,0.013757000,-0.000021096,-0.000130614,0.001347651,-0.007460269,-0.072583806,-0.013307708,0.008523918,-0.002618814,0.998606865,0.000308477,0.002881063,0.001358868,0.000000000,0.000000000,0.000000000,0.000000000,0.017562644,0.007074903,0.054104277,0.020034479,0.000740644,-0.002030908,0.006429681,-0.000260554,-0.001454730,-0.125319206,0.128613196,0.476073091,-0.001088942,-0.001126896,0.004153273,0.999989107,0.000000000,0.000000000,0.000000000,0.000000000,0.000000000,0.000000000,0.476235919,0.000000000,3.965386589
1772422003.782881260,0.017387000,0.007058000,0.054137000,-0.002098620,0.003987690,0.006764480,0.999966970,-0.004143000,0.008004000,0.013513000,-0.000186364,0.000035703,0.000316181,-0.004191883,-0.050354302,-0.011768242,0.007486163,-0.001787078,0.999905452,0.002015036,0.000264676,0.002286239,0.000000000,0.000000000,0.000000000,0.000000000,0.017557703,0.007077719,0.054104968,0.020062449,0.000696708,-0.002087777,0.005782810,-0.000308365,-0.000228233,-0.125337055,0.127233093,0.475544768,-0.001089153,-0.001114848,0.004148676,0.999989152,0.000000000,0.000000000,0.000000000,0.000000000,0.000000000,0.000000000,0.475647319,0.000000000,3.965897615
1772422003.792881250,0.017365000,0.007069000,0.054125000,-0.002115110,0.004144190,0.006773150,0.999966240,-0.004174000,0.008317000,0.013529000,-0.000219464,0.000106682,-0.000278108,-0.001612799,-0.013551447,-0.007250354,0.009312067,-0.003479327,0.999943544,0.005555377,-0.002229691,0.002569929,0.000000000,0.000000000,0.000000000,0.000000000,0.017565329,0.007074605,0.054105347,0.019959570,0.000716076,-0.002046514,0.006803150,-0.000392520,0.000174359,-0.124195723,0.127039396,0.475650117,-0.001079199,-0.001113117,0.004149608,0.999989162,0.000000000,0.000000000,0.000000000,0.000000000,0.000000000,0.000000000,0.475522766,0.000000000,3.966408654
1772422003.802881241,0.017357000,0.007074000,0.054125000,-0.002119770,0.004182810,0.006760780,0.999966150,-0.004183000,0.008394000,0.013504000,-0.000163753,0.000107498,-0.000517036,0.000227247,0.027331019,-0.001298528,0.009656357,-0.001574300,0.999911798,0.005568095,0.001184404,-0.001133445,0.000000000,0.000000000,0.000000000,0.000000000,0.017561377,0.007076744,0.054096589,0.019949785,0.000644047,-0.002003817,0.007313861,0.000613212,0.000080380,-0.122966383,0.126601462,0.475561804,-0.001068488,-0.001109250,0.004148853,0.999989217,0.000000000,0.000000000,0.000000000,0.000000000,0.000000000,0.000000000,0.475733390,0.000000000,3.966919692
1772422003.812880754,0.017381000,0.007063000,0.054125000,-0.002124750,0.003952530,0.006746650,0.999967170,-0.004196000,0.007934000,0.013477000,-0.000062587,0.000063326,-0.000482421,0.001283288,0.061801015,0.004532895,0.007033891,-0.000989435,0.999791008,0.004374967,-0.001215570,0.002035544,0.000000000,0.000000000,0.000000000,0.000000000,0.017561772,0.007075457,0.054090295,0.020024475,0.000674203,-0.001931327,0.005855632,0.001067170,-0.000383185,-0.121798218,0.126304661,0.475066566,-0.001058309,-0.001106613,0.004144546,0.999989271,0.000000000,0.000000000,0.000000000,0.000000000,0.000000000,0.000000000,0.475090003,0.000000000,3.967430707
1772422003.822880507,0.017359000,0.007075000,0.054101000,-0.002125880,0.004827990,0.006782290,0.999963090,-0.004186000,0.009685000,0.013545000,-0.000050719,0.000025699,-0.000277623,0.001044095,0.058479794,0.006374564,0.007074662,-0.002910047,0.998760379,-0.001244819,0.000235112,0.002319045,0.000000000,0.000000000,0.000000000,0.000000000,0.017562527,0.007075354,0.054095174,0.019956011,0.000798301,-0.001832801,0.005574174,-0.000158113,-0.000972641,-0.120469866,0.127040725,0.475153032,-0.001046690,-0.001112989,0.004145306,0.999989265,0.000000000,0.000000000,0.000000000,0.000000000,0.000000000,0.000000000,0.475077262,0.000000000,3.967941733
1772422003.832880020,0.017371000,0.007065000,0.054104000,-0.002124020,0.005226780,0.006797850,0.999960980,-0.004177000,0.010482000,0.013574000,0.000208489,-0.000147514,0.000246659,0.000626558,0.030945132,0.003618672,0.010603889,-0.003849405,1.001460250,-0.000058302,-0.002065487,0.004172039,0.000000000,0.000000000,0.000000000,0.000000000,0.017562055,0.007075892,0.054102007,0.019815988,0.000771175,-0.001813992,0.007421023,-0.001272314,0.000348347,-0.120261868,0.126818995,0.475410056,-0.001044881,-0.001111049,0.004147553,0.999989212,0.000000000,0.000000000,0.000000000,0.000000000,0.000000000,0.000000000,0.475364698,0.000000000,3.968452747
1772422003.842880011,0.017368000,0.007069000,0.054121000,-0.002141400,0.005169980,0.006846520,0.999960900,-0.004212000,0.010369000,0.013672000,-0.000118842,0.000085431,0.000233295,-0.003120520,0.007885126,0.003836690,0.010491197,-0.001730785,0.999647759,0.000324164,-0.000544772,-0.001375151,0.000000000,0.000000000,0.000000000,0.000000000,0.017560928,0.007075238,0.054105453,0.019906561,0.000640153,-0.001671872,0.008456010,-0.000146534,-0.000167685,-0.119911180,0.125758525,0.475052764,-0.001041862,-0.001101779,0.004144449,0.999989219,0.000000000,0.000000000,0.000000000,0.000000000,0.000000000,0.000000000,0.475321746,0.000000000,3.968963786
1772422003.852879524,0.017368000,0.007069000,0.054127000,-0.002081330,0.005120950,0.006919550,0.999960780,-0.004092000,0.010270000,0.013818000,-0.000164841,0.000097047,0.000129623,-0.005260108,-0.017735119,0.003313305,0.009765262,-0.001424939,0.998829527,-0.000000193,-0.003502748,-0.003622887,0.000000000,0.000000000,0.000000000,0.000000000,0.017560841,0.007076015,0.054102719,0.020052998,0.000618978,-0.001610211,0.007739736,0.001131300,-0.001237917,-0.119301707,0.125625892,0.473850981,-0.001036560,-0.001100589,0.004133968,0.999989331,0.000000000,0.000000000,0.000000000,0.000000000,0.000000000,0.000000000,0.474195327,0.000000000,3.969474800
1772422003.862879515,0.017367000,0.007067000,0.054125000,-0.002162640,0.004493390,0.006792250,0.999964500,-0.004264000,0.009016000,0.013566000,0.000121562,-0.000068726,-0.000041550,-0.004367306,-0.025986815,0.001116810,0.008186305,-0.000622990,0.998701020,0.001178642,0.001794113,-0.000123829,0.000000000,0.000000000,0.000000000,0.000000000,0.017558667,0.007078665,0.054097947,0.020171712,0.000690503,-0.001660567,0.006246900,0.001295036,-0.000851326,-0.118579448,0.126310044,0.472573346,-0.001030245,-0.001106522,0.004122819,0.999989331,0.000000000,0.000000000,0.000000000,0.000000000,0.000000000,0.000000000,0.472827275,0.000000000,3.969165459
1772422003.872879028,0.017367000,0.007071000,0.054113000,-0.002214200,0.004812330,0.006833410,0.999962620,-0.004363000,0.009655000,0.013646000,-0.000154818,0.000041356,-0.000409072,-0.001820394,0.003019754,0.003161225,0.006378537,-0.001834909,0.999394310,-0.001882838,0.003393289,0.001976564,0.000000000,0.000000000,0.000000000,0.000000000,0.017560795,0.007076792,0.054094542,0.020184664,0.000810637,-0.001726665,0.004611340,0.000524905,-0.000487150,-0.118247756,0.125248400,0.471712032,-0.001027396,-0.001097237,0.004115316,0.999989382,0.000000000,0.000000000,0.000000000,0.000000000,0.000000000,0.000000000,0.471807921,0.000000000,3.968810918
1772422003.882879257,0.017358000,0.007077000,0.054106000,-0.002251590,0.004833690,0.006928050,0.999961780,-0.004436000,0.009698000,0.013835000,-0.000112704,0.000050097,-0.000338714,0.002694520,0.025746176,0.004643661,0.006870995,-0.002962600,1.000069945,-0.001398391,0.001059239,-0.001177832,0.000000000,0.000000000,0.000000000,0.000000000,0.017562526,0.007075252,0.054094879,0.020036282,0.000862743,-0.001712616,0.004399066,-0.001048066,-0.000179274,-0.119433827,0.124514775,0.470884916,-0.001037781,-0.001090870,0.004108093,0.999989390,0.000000000,0.000000000,0.000000000,0.000000000,0.000000000,0.000000000,0.471392355,0.000000000,3.968456351
1772422003.892878771,0.017372000,0.007062000,0.054108000,-0.002151770,0.004965940,0.006898590,0.999961560,-0.004235000,0.009961000,0.013776000,-0.000106313,0.000096212,-0.000110451,0.005395887,0.030182914,0.002266209,0.010251702,-0.003637091,0.999496608,-0.000062819,-0.000648936,0.001762113,0.000000000,0.000000000,0.000000000,0.000000000,0.017556068,0.007079287,0.054096097,0.019818711,0.000802799,-0.001633797,0.006274724,-0.001345164,0.000000970,-0.120220699,0.124688041,0.469369600,-0.001044656,-0.001092397,0.004094861,0.999989510,0.000000000,0.000000000,0.000000000,0.000000000,0.000000000,0.000000000,0.469404873,0.000000000,3.968101810
1772422003.902879477,0.017367000,0.007068000,0.054114000,-0.002102020,0.005347740,0.006884490,0.999959790,-0.004130000,0.010724000,0.013747000,-0.000163267,0.000181430,0.000123640,0.005058364,0.020767436,-0.001982665,0.010529253,-0.003651171,0.999235618,0.000797025,-0.001337065,0.002548773,0.000000000,0.000000000,0.000000000,0.000000000,0.017553666,0.007081025,0.054096624,0.019781625,0.000758640,-0.001606995,0.006611709,-0.001396661,-0.000169265,-0.120251466,0.124573931,0.469198863,-0.001044930,-0.001091401,0.004093372,0.999989510,0.000000000,0.000000000,0.000000000,0.000000000,0.000000000,0.000000000,0.469235493,0.000000000,3.967747227
1772422003.912879705,0.017352000,0.007078000,0.054113000,-0.002107300,0.005362900,0.006974830,0.999959070,-0.004140000,0.010755000,0.013928000,-0.000177545,0.000153866,0.000220047,0.000701391,-0.007347412,-0.007815257,0.010265979,-0.003580700,0.999078127,0.001641758,-0.001952511,0.002637468,0.000000000,0.000000000,0.000000000,0.000000000,0.017553858,0.007081285,0.054097077,0.019806335,0.000732928,-0.001602939,0.006948678,-0.001448156,-0.000339491,-0.120282232,0.124459826,0.469028135,-0.001045204,-0.001090404,0.004091883,0.999989510,0.000000000,0.000000000,0.000000000,0.000000000,0.000000000,0.000000000,0.469066120,0.000000000,3.967392661
1772422003.922879457,0.017363000,0.007077000,0.054117000,-0.002088880,0.005093860,0.006850510,0.999961380,-0.004108000,0.010216000,0.013680000,-0.000016667,0.000065754,0.000093570,-0.002424697,-0.015479420,-0.007421058,0.010002717,-0.003510232,0.998920643,0.002486451,-0.002567928,0.002726160,0.000000000,0.000000000,0.000000000,0.000000000,0.017554050,0.007081545,0.054097529,0.019831045,0.000707217,-0.001598882,0.007285631,-0.001499648,-0.000509710,-0.120312996,0.124345726,0.468857415,-0.001045478,-0.001089408,0.004090394,0.999989510,0.000000000,0.000000000,0.000000000,0.000000000,0.000000000,0.000000000,0.468896755,0.000000000,3.967038111
1772422003.932879448,0.017362000,0.007073000,0.054110000,-0.002173170,0.004953830,0.006726440,0.999962750,-0.004280000,0.009937000,0.013432000,0.000122650,-0.000108489,0.000077370,-0.005277661,-0.020848862,-0.003646244,0.009739449,-0.003439763,0.998763156,0.003331163,-0.003183360,0.002814853,0.000000000,0.000000000,0.000000000,0.000000000,0.017554241,0.007081805,0.054097982,0.019855754,0.000681505,-0.001594825,0.007622591,-0.001551142,-0.000679933,-0.120343761,0.124231624,0.468686690,-0.001045753,-0.001088412,0.004088905,0.999989510,0.000000000,0.000000000,0.000000000,0.000000000,0.000000000,0.000000000,0.468727387,0.000000000,3.966683553
1772422003.942879200,0.017357000,0.007077000,0.054117000,-0.002219840,0.004908150,0.006768160,0.999962590,-0.004373000,0.009846000,0.013515000,0.000290463,-0.000338676,0.000145319,-0.004361153,-0.019592175,-0.001494152,0.009476187,-0.003369295,0.998605673,0.004175856,-0.003798777,0.002903545,0.000000000,0.000000000,0.000000000,0.000000000,0.017554433,0.007082065,0.054098435,0.019880464,0.000655794,-0.001590769,0.007959544,-0.001602635,-0.000850151,-0.120374526,0.124117524,0.468515970,-0.001046027,-0.001087416,0.004087415,0.999989510,0.000000000,0.000000000,0.000000000,0.000000000,0.000000000,0.000000000,0.468558022,0.000000000,3.966329004
1772422003.952879190,0.017366000,0.007067000,0.054116000,-0.002168750,0.004821820,0.006827630,0.999962710,-0.004272000,0.009673000,0.013635000,0.000300078,-0.000249787,0.000070843,-0.000812984,-0.003535455,-0.000107583,0.009192111,-0.003365530,0.998653033,0.004485670,-0.003950261,0.002406048,0.000000000,0.000000000,0.000000000,0.000000000,0.017554624,0.007082325,0.054098888,0.019905173,0.000630082,-0.001586712,0.007044976,-0.001731646,-0.001131655,-0.119657412,0.125328316,0.468125191,-0.001039729,-0.001097953,0.004084001,0.999989510,0.000000000,0.000000000,0.000000000,0.000000000,0.000000000,0.000000000,0.468254039,0.000000000,3.965974446
1772422003.962879658,0.017374000,0.007064000,0.054116000,-0.002145690,0.004995310,0.006850400,0.999961760,-0.004223000,0.010020000,0.013680000,0.000008897,0.000058372,-0.000070222,0.001901574,0.005451316,0.002466538,0.008680125,-0.003890279,1.001162516,-0.000879082,0.000135864,-0.003881674,0.000000000,0.000000000,0.000000000,0.000000000,0.017555317,0.007080451,0.054096428,0.019968633,0.000490468,-0.001660864,0.006218755,-0.001354815,0.000701787,-0.119500144,0.126136483,0.466818934,-0.001038341,-0.001104988,0.004072597,0.999989541,0.000000000,0.000000000,0.000000000,0.000000000,0.000000000,0.000000000,0.467239830,0.000000000,3.965619871
1772422003.972879887,0.017368000,0.007066000,0.054123000,-0.002200890,0.004905320,0.006824220,0.999962260,-0.004335000,0.009840000,0.013627000,0.000055614,0.000209635,-0.000086810,0.003695311,0.004648996,-0.001225303,0.008445586,-0.002437406,1.002154049,0.000880058,-0.005572431,0.000427594,0.000000000,0.000000000,0.000000000,0.000000000,0.017553095,0.007080453,0.054099042,0.019967809,0.000306978,-0.001540108,0.005922481,-0.000285444,0.002221208,-0.119505779,0.126985323,0.465907951,-0.001038369,-0.001112387,0.004064639,0.999989613,0.000000000,0.000000000,0.000000000,0.000000000,0.000000000,0.000000000,0.465985641,0.000000000,3.965265305
1772422003.982879639,0.017363000,0.007074000,0.054116000,-0.002167090,0.004851350,0.006773360,0.999962940,-0.004269000,0.009732000,0.013526000,-0.000066181,0.000260179,-0.000012995,0.002072790,0.001975528,-0.004418152,0.008350749,-0.001561511,1.000468542,0.001704957,-0.005168662,0.003519691,0.000000000,0.000000000,0.000000000,0.000000000,0.017556624,0.007075223,0.054100839,0.019958136,0.000241712,-0.001265578,0.006329951,0.000200127,0.000528790,-0.118830769,0.128393680,0.465959448,-0.001032428,-0.001124654,0.004065082,0.999989569,0.000000000,0.000000000,0.000000000,0.000000000,0.000000000,0.000000000,0.465886646,0.000000000,3.964910755
1772422003.992880106,0.017369000,0.007077000,0.054107000,-0.002108970,0.005056310,0.006744880,0.999962250,-0.004150000,0.010141000,0.013469000,-0.000166919,0.000204584,0.000126729,-0.000834842,-0.000076184,-0.005469811,0.007831271,-0.002960013,1.000820070,0.003205086,0.004961660,0.000452437,0.000000000,0.000000000,0.000000000,0.000000000,0.017562077,0.007071186,0.054102859,0.019953957,0.000268383,-0.001106089,0.006062346,-0.000387912,0.000256572,-0.117764505,0.127859270,0.465914344,-0.001023142,-0.001119952,0.004064704,0.999989580,0.000000000,0.000000000,0.000000000,0.000000000,0.000000000,0.000000000,0.466003249,0.000000000,3.964556180
1772422004.002879858,0.017359000,0.007080000,0.054115000,-0.002147940,0.004925720,0.006775650,0.999962610,-0.004229000,0.009880000,0.013531000,-0.000082343,-0.000043201,0.000170280,-0.001442215,-0.005361840,-0.003927677,0.009053040,-0.002380985,0.999122452,0.001737662,0.001679351,0.000755596,0.000000000,0.000000000,0.000000000,0.000000000,0.017562078,0.007070103,0.054107010,0.019918649,0.000226517,-0.001000459,0.006417679,-0.000753241,-0.000675976,-0.116683146,0.126977426,0.465309682,-0.001013743,-0.001112213,0.004059445,0.999989629,0.000000000,0.000000000,0.000000000,0.000000000,0.000000000,0.000000000,0.465535730,0.000000000,3.964222908
1772422004.012879848,0.017371000,0.007072000,0.054123000,-0.002155600,0.004897730,0.006729720,0.999963040,-0.004245000,0.009824000,0.013439000,-0.000202020,-0.000053710,0.000007284,-0.000688695,0.003252793,0.000994784,0.010374996,-0.001962361,0.999222300,-0.001354996,0.001653147,-0.001238127,0.000000000,0.000000000,0.000000000,0.000000000,0.017559815,0.007072122,0.054107582,0.019917851,0.000211129,-0.000988562,0.007634871,-0.000306199,-0.001231138,-0.116128619,0.127118459,0.464701121,-0.001008905,-0.001113419,0.004054138,0.999989629,0.000000000,0.000000000,0.000000000,0.000000000,0.000000000,0.000000000,0.464751170,0.000000000,3.964222908
1772422004.022880077,0.017360000,0.007072000,0.054126000,-0.002178850,0.004920360,0.006759810,0.999962670,-0.004291000,0.009870000,0.013499000,-0.000311888,-0.000011208,-0.000075699,-0.000640575,0.009069249,0.005104953,0.008502916,-0.002046417,0.999735648,0.002380792,0.000075366,-0.000382954,0.000000000,0.000000000,0.000000000,0.000000000,0.017561139,0.007076181,0.054102485,0.020069027,0.000210573,-0.001068267,0.006449569,-0.000197854,-0.000547682,-0.116298256,0.127538790,0.464276039,-0.001010374,-0.001117089,0.004050423,0.999989641,0.000000000,0.000000000,0.000000000,0.000000000,0.000000000,0.000000000,0.464414173,0.000000000,3.964222908
1772422004.032880068,0.017361000,0.007070000,0.054116000,-0.002197610,0.004962830,0.006721310,0.999962680,-0.004329000,0.009955000,0.013421000,-0.000152739,-0.000006838,-0.000193940,0.001958871,0.012845981,0.006173114,0.008246982,-0.003342272,0.999065411,0.002345197,-0.003403183,0.002013086,0.000000000,0.000000000,0.000000000,0.000000000,0.017558132,0.007078998,0.054104148,0.020087653,0.000235742,-0.001061309,0.006451518,-0.001076681,-0.000398147,-0.115108192,0.129050354,0.463871507,-0.000999940,-0.001130234,0.004046892,0.999989666,0.000000000,0.000000000,0.000000000,0.000000000,0.000000000,0.000000000,0.463924913,0.000000000,3.964222908
1772422004.042880297,0.017357000,0.007075000,0.054112000,-0.002138140,0.004982090,0.006816050,0.999962070,-0.004208000,0.009993000,0.013611000,0.000165696,-0.000010431,-0.000302992,0.003681765,0.016329311,0.006105261,0.008065909,-0.003668903,0.999849957,-0.002055289,0.000662659,0.001288965,0.000000000,0.000000000,0.000000000,0.000000000,0.017561244,0.007076747,0.054108635,0.020052619,0.000153046,-0.001069968,0.005849496,-0.001739890,0.000390881,-0.115802082,0.128178959,0.463944637,-0.001006025,-0.001122655,0.004047531,0.999989651,0.000000000,0.000000000,0.000000000,0.000000000,0.000000000,0.000000000,0.463900320,0.000000000,3.964222908
1772422004.052879810,0.017348000,0.007084000,0.054103000,-0.002098980,0.005331680,0.006909180,0.999959710,-0.004124000,0.010692000,0.013797000,0.000098971,0.000132226,-0.000287083,0.003849390,0.009207332,0.005534926,0.009331010,-0.002629988,1.000867773,0.000351854,-0.000445751,0.000254006,0.000000000,0.000000000,0.000000000,0.000000000,0.017557964,0.007075332,0.054111932,0.019989856,0.000032535,-0.001034985,0.007115600,-0.000228748,0.000585840,-0.116309655,0.127113764,0.463989073,-0.001010492,-0.001113378,0.004047923,0.999989688,0.000000000,0.000000000,0.000000000,0.000000000,0.000000000,0.000000000,0.463992491,0.000000000,3.964222908
1772422004.062880039,0.017366000,0.007073000,0.054114000,-0.002113050,0.005204100,0.006869180,0.999960630,-0.004155000,0.010437000,0.013717000,0.000196892,0.000082964,-0.000105789,0.002397880,0.002746842,0.001151733,0.011245345,-0.001518467,0.999857218,0.000775430,-0.000732841,0.000439122,0.000000000,0.000000000,0.000000000,0.000000000,0.017556501,0.007072882,0.054109511,0.020011686,-0.000052924,-0.000902235,0.008877978,-0.000125555,0.000307868,-0.116294026,0.126627351,0.463930198,-0.001010373,-0.001109132,0.004047414,0.999989688,0.000000000,0.000000000,0.000000000,0.000000000,0.000000000,0.000000000,0.463954969,0.000000000,3.964222908
1772422004.072879553,0.017374000,0.007069000,0.054115000,-0.002097170,0.005119390,0.006832360,0.999961360,-0.004124000,0.010267000,0.013644000,-0.000057518,0.000173407,0.000097630,0.000746850,-0.002833092,-0.000259337,0.011155356,-0.003549704,0.997698355,0.001585304,0.001185597,-0.002367826,0.000000000,0.000000000,0.000000000,0.000000000,0.017554907,0.007073762,0.054106668,0.020208468,0.000011643,-0.000860035,0.008654631,-0.000806260,-0.001609264,-0.116103904,0.126384406,0.463941502,-0.001008722,-0.001107005,0.004047516,0.999989688,0.000000000,0.000000000,0.000000000,0.000000000,0.000000000,0.000000000,0.463910458,0.000000000,3.964222908
1772422004.082879543,0.017365000,0.007078000,0.054108000,-0.002121840,0.005090890,0.006854960,0.999961290,-0.004174000,0.010211000,0.013689000,-0.000253924,0.000230847,0.000051651,0.000995649,-0.009013989,0.000243570,0.010197395,-0.003554347,0.998777721,0.000432708,-0.000005020,0.000853133,0.000000000,0.000000000,0.000000000,0.000000000,0.017550724,0.007078453,0.054100881,0.020446567,-0.000051941,-0.000962950,0.007873140,-0.001182228,-0.001834908,-0.116068525,0.126158544,0.464104213,-0.001008420,-0.001105035,0.004048939,0.999989688,0.000000000,0.000000000,0.000000000,0.000000000,0.000000000,0.000000000,0.464055682,0.000000000,3.964222908
1772422004.092879295,0.017349000,0.007087000,0.054105000,-0.002081080,0.005046650,0.006854120,0.999961610,-0.004093000,0.010122000,0.013688000,-0.000027020,0.000117055,0.000073757,0.001744117,-0.021457595,0.001823794,0.008600880,-0.002688364,0.998624828,-0.001313743,-0.001981844,-0.000158096,0.000000000,0.000000000,0.000000000,0.000000000,0.017556919,0.007075998,0.054101955,0.020620168,-0.000170238,-0.001075506,0.007169630,-0.000344974,-0.001256541,-0.116033497,0.126227255,0.463897403,-0.001008114,-0.001105631,0.004047134,0.999989688,0.000000000,0.000000000,0.000000000,0.000000000,0.000000000,0.000000000,0.464048410,0.000000000,3.964222908
1772422004.102879524,0.017360000,0.007079000,0.054115000,-0.002107990,0.005062380,0.006833450,0.999961620,-0.004147000,0.010153000,0.013646000,0.000223213,-0.000152409,0.000173621,0.002976908,-0.024585139,0.001023035,0.008372100,-0.002276305,0.998646051,-0.000792633,-0.000788848,0.000793587,0.000000000,0.000000000,0.000000000,0.000000000,0.017563118,0.007072898,0.054102931,0.020671420,-0.000219647,-0.001135627,0.006101950,0.000152918,-0.001399265,-0.115790358,0.126255058,0.463192679,-0.001005998,-0.001105859,0.004040986,0.999989688,0.000000000,0.000000000,0.000000000,0.000000000,0.000000000,0.000000000,0.463357142,0.000000000,3.964222908
1772422004.112879038,0.017355000,0.007085000,0.054116000,-0.002055020,0.004921220,0.006929600,0.999961770,-0.004042000,0.009871000,0.013840000,0.000676380,-0.000523544,0.000292560,0.001761466,-0.025504086,-0.001652301,0.007839662,-0.001857653,0.998987200,0.001152233,-0.001409272,0.000414855,0.000000000,0.000000000,0.000000000,0.000000000,0.017566547,0.007072107,0.054101826,0.020683949,-0.000226371,-0.001207739,0.005345457,0.000190394,-0.001347498,-0.115682911,0.125870275,0.462468620,-0.001005081,-0.001102491,0.004034672,0.999989730,0.000000000,0.000000000,0.000000000,0.000000000,0.000000000,0.000000000,0.462636164,0.000000000,3.964222908
1772422004.122879028,0.017370000,0.007074000,0.054112000,-0.002029930,0.004675040,0.006910510,0.999963130,-0.003995000,0.009378000,0.013803000,0.000683722,-0.000582421,0.000225214,0.000640884,-0.024728718,-0.005390945,0.008340619,-0.001787887,0.999161028,0.000057431,0.000181694,0.000877997,0.000000000,0.000000000,0.000000000,0.000000000,0.017562506,0.007076256,0.054097998,0.020607587,-0.000177804,-0.001291718,0.006181378,0.000679764,-0.000401713,-0.115395501,0.126901556,0.461640982,-0.001002544,-0.001111473,0.004027443,0.999989748,0.000000000,0.000000000,0.000000000,0.000000000,0.000000000,0.000000000,0.461716377,0.000000000,3.964222908
1772422004.132878780,0.017395000,0.007059000,0.054122000,-0.002080080,0.004397390,0.006789550,0.999965120,-0.004100000,0.008823000,0.013561000,0.000250700,-0.000173194,0.000014219,-0.000694485,-0.009415295,-0.006127505,0.007726421,-0.001487669,0.999467648,-0.000551512,0.003997887,-0.000349835,0.000000000,0.000000000,0.000000000,0.000000000,0.017558127,0.007079339,0.054097733,0.020534269,-0.000124033,-0.001333496,0.005601900,0.000299885,-0.000785158,-0.116220767,0.126717736,0.462013668,-0.001009749,-0.001109901,0.004030689,0.999989748,0.000000000,0.000000000,0.000000000,0.000000000,0.000000000,0.000000000,0.462070674,0.000000000,3.964222908
1772422004.142879009,0.017378000,0.007060000,0.054123000,-0.002050930,0.004607530,0.006754370,0.999964470,-0.004040000,0.009243000,0.013490000,-0.000216803,0.000235839,-0.000195163,-0.001649315,0.007414718,-0.004811336,0.010342930,-0.000661780,1.000591290,-0.000208111,0.001393352,0.002464735,0.000000000,0.000000000,0.000000000,0.000000000,0.017556822,0.007081155,0.054100888,0.020423516,-0.000044595,-0.001330545,0.007300742,0.001453026,0.000169647,-0.115990258,0.125461292,0.461311284,-0.001007788,-0.001098923,0.004024573,0.999989808,0.000000000,0.000000000,0.000000000,0.000000000,0.000000000,0.000000000,0.461401825,0.000000000,3.964222908
1772422004.152879000,0.017373000,0.007071000,0.054112000,-0.002098250,0.004753090,0.006797440,0.999963400,-0.004132000,0.009534000,0.013575000,-0.000321640,0.000271543,-0.000032459,-0.001364207,0.020205330,-0.001458929,0.011587290,-0.001141419,0.999825917,0.000002254,-0.005819642,-0.000705647,0.000000000,0.000000000,0.000000000,0.000000000,0.017561658,0.007078630,0.054100688,0.020498827,0.000079671,-0.001221707,0.009356348,0.001157878,-0.000392244,-0.116251727,0.126472877,0.460207770,-0.001010045,-0.001107750,0.004014932,0.999989808,0.000000000,0.000000000,0.000000000,0.000000000,0.000000000,0.000000000,0.460557535,0.000000000,3.964222908
1772422004.162879229,0.017359000,0.007081000,0.054113000,-0.002075260,0.004704610,0.006762360,0.999963910,-0.004087000,0.009437000,0.013506000,-0.000475370,0.000349243,-0.000037626,-0.000512979,0.024632825,0.005124309,0.009578156,-0.002681641,0.998352299,0.001966322,-0.001328886,0.001285812,0.000000000,0.000000000,0.000000000,0.000000000,0.017579114,0.007069245,0.054105733,0.020838907,0.000218823,-0.001148892,0.007737341,-0.000487893,-0.001217923,-0.115389188,0.126972375,0.459552639,-0.001002507,-0.001112073,0.004009219,0.999989808,0.000000000,0.000000000,0.000000000,0.000000000,0.000000000,0.000000000,0.459530971,0.000000000,3.964222908
1772422004.172879934,0.017363000,0.007086000,0.054113000,-0.002078510,0.005062980,0.006828800,0.999961710,-0.004088000,0.010154000,0.013637000,-0.000156935,0.000141395,-0.000023116,0.000724383,0.012018676,0.005618692,0.007864805,-0.002731296,0.996659264,-0.006387021,0.003536293,0.001943621,0.000000000,0.000000000,0.000000000,0.000000000,0.017580286,0.007065981,0.054108646,0.020961329,0.000198524,-0.001208345,0.006473480,-0.000607933,-0.002835847,-0.115360553,0.126558328,0.459438482,-0.001002273,-0.001108458,0.004008226,0.999989817,0.000000000,0.000000000,0.000000000,0.000000000,0.000000000,0.000000000,0.459509033,0.000000000,3.964222908
1772422004.182879686,0.017372000,0.007073000,0.054114000,-0.002098070,0.004933240,0.006852210,0.999962150,-0.004129000,0.009895000,0.013684000,0.000104507,-0.000086422,-0.000125253,-0.000793297,0.010331750,0.002575414,0.008522533,-0.002458194,0.996732499,-0.003460800,-0.000088921,0.001226535,0.000000000,0.000000000,0.000000000,0.000000000,0.017578922,0.007067888,0.054105777,0.020928350,0.000148487,-0.001368781,0.006239129,0.000034363,-0.003075991,-0.116366723,0.126206748,0.459168004,-0.001011068,-0.001105422,0.004005859,0.999989865,0.000000000,0.000000000,0.000000000,0.000000000,0.000000000,0.000000000,0.459251108,0.000000000,3.964222908
1772422004.192879677,0.017372000,0.007066000,0.054124000,-0.002059240,0.004937660,0.006866590,0.999962110,-0.004051000,0.009903000,0.013713000,-0.000133800,0.000026573,-0.000376224,-0.004134374,0.018691249,0.000769575,0.008016641,-0.001362859,0.997253766,-0.000849940,0.000478312,-0.002216995,0.000000000,0.000000000,0.000000000,0.000000000,0.017573848,0.007072493,0.054102606,0.020875787,0.000133368,-0.001580211,0.005921521,0.000560255,-0.002096370,-0.116941904,0.126225525,0.458803908,-0.001016090,-0.001105603,0.004002676,0.999989867,0.000000000,0.000000000,0.000000000,0.000000000,0.000000000,0.000000000,0.458969781,0.000000000,3.964222908
1772422004.202879667,0.017363000,0.007078000,0.054107000,-0.002124910,0.005015630,0.006870260,0.999961560,-0.004181000,0.010060000,0.013720000,-0.000050078,0.000080478,-0.000316589,-0.007175816,0.010839484,-0.000716383,0.006426923,-0.001168144,0.998598904,-0.000677986,-0.004466848,0.001384489,0.000000000,0.000000000,0.000000000,0.000000000,0.017467064,0.007076477,0.054104983,0.018348020,0.000072752,-0.001548117,0.004358868,0.000696566,-0.001484136,-0.116745305,0.139115613,0.461939171,-0.001013884,-0.001218111,0.004029921,0.999989867,0.000000000,0.000000000,0.000000000,0.000000000,0.000000000,0.000000000,0.458524193,0.000000000,3.964222908
1772422004.212879896,0.017369000,0.007078000,0.054107000,-0.002114470,0.004950910,0.006786290,0.999962480,-0.004162000,0.009930000,0.013552000,0.000114647,0.000073796,0.000019639,-0.005935514,-0.006518218,-0.001905682,0.006986241,-0.001640541,0.998888974,0.003087486,-0.001727337,-0.000034312,0.000000000,0.000000000,0.000000000,0.000000000,0.017439099,0.007079357,0.054098620,0.016831766,0.000052290,-0.001470153,0.004074064,0.000260626,-0.001461856,-0.118184931,0.165308655,0.469413214,-0.001025438,-0.001446803,0.004094893,0.999989038,0.000000000,0.000000000,0.000000000,0.000000000,0.000000000,0.000000000,0.461744404,0.000000000,3.964222908
1772422004.222879887,0.017356000,0.007084000,0.054094000,-0.002209470,0.005443640,0.006837810,0.999959360,-0.004345000,0.010917000,0.013652000,0.000313734,0.000008936,0.000314550,-0.003335951,-0.012624379,-0.001306290,0.007518289,-0.002238064,0.997236583,-0.000122583,0.002467129,-0.000995802,0.000000000,0.000000000,0.000000000,0.000000000,0.017484317,0.007082638,0.054093091,0.017011198,0.000113507,-0.001523574,0.004711742,-0.000001734,-0.002352958,-0.117742878,0.165412546,0.468793140,-0.001021584,-0.001447688,0.004089487,0.999989092,0.000000000,0.000000000,0.000000000,0.000000000,0.000000000,0.000000000,0.464964538,0.000000000,3.964222908
1772422004.232879639,0.017364000,0.007085000,0.054107000,-0.002255400,0.005078980,0.006850310,0.999961090,-0.004441000,0.010189000,0.013678000,0.000361131,-0.000093959,0.000329895,0.000366480,-0.025878580,0.000287330,0.009005017,-0.001173509,0.997725224,-0.000562418,0.001772837,-0.002235352,0.000000000,0.000000000,0.000000000,0.000000000,0.017514691,0.007078535,0.054100020,0.017163126,0.000108587,-0.001642529,0.005349648,0.001090273,-0.002589567,-0.118574453,0.164685214,0.467913544,-0.001028878,-0.001441363,0.004081807,0.999989092,0.000000000,0.000000000,0.000000000,0.000000000,0.000000000,0.000000000,0.468184595,0.000000000,3.964222908
1772422004.242879152,0.017388000,0.007066000,0.054132000,-0.002164310,0.004529490,0.006822040,0.999964130,-0.004267000,0.009088000,0.013625000,0.000205012,-0.000198543,0.000322592,0.002529068,-0.033469186,0.001198780,0.009897345,0.000022426,0.999134989,-0.000137768,0.000965539,-0.001828915,0.000000000,0.000000000,0.000000000,0.000000000,0.017532481,0.007074584,0.054105344,0.017313656,0.000147550,-0.001775993,0.007027003,0.001948484,-0.001286344,-0.119168685,0.164583581,0.466852308,-0.001034081,-0.001440488,0.004072540,0.999989133,0.000000000,0.000000000,0.000000000,0.000000000,0.000000000,0.000000000,0.467150642,0.000000000,3.964222908
1772422004.252879143,0.017382000,0.007071000,0.054124000,-0.002118120,0.004553060,0.006851050,0.999963920,-0.004174000,0.009135000,0.013683000,-0.000431469,0.000220532,-0.000251069,0.002522982,-0.019204342,0.002587746,0.010667007,-0.000674293,0.999771026,-0.000492255,0.001270375,-0.000436777,0.000000000,0.000000000,0.000000000,0.000000000,0.017538975,0.007075402,0.054103800,0.017493914,0.000306725,-0.001855512,0.007908697,0.001679778,-0.000511269,-0.118690765,0.164226909,0.466059262,-0.001029933,-0.001437351,0.004065628,0.999989152,0.000000000,0.000000000,0.000000000,0.000000000,0.000000000,0.000000000,0.466264026,0.000000000,3.964222908
1772422004.262879133,0.017366000,0.007079000,0.054111000,-0.002137610,0.004711200,0.006831150,0.999963280,-0.004211000,0.009451000,0.013643000,-0.000611520,0.000268318,-0.000431294,0.001357931,-0.002250058,0.000316565,0.010085498,-0.002624364,0.998674219,-0.002217281,0.000707983,0.000572262,0.000000000,0.000000000,0.000000000,0.000000000,0.017536934,0.007080777,0.054095696,0.017762529,0.000500953,-0.001856100,0.007359653,-0.001026153,-0.000924322,-0.119186326,0.163355306,0.465149732,-0.001034300,-0.001429754,0.004057693,0.999989196,0.000000000,0.000000000,0.000000000,0.000000000,0.000000000,0.000000000,0.465483453,0.000000000,3.964222908
1772422004.272879601,0.017358000,0.007086000,0.054098000,-0.002147370,0.004559960,0.006871050,0.999963690,-0.004232000,0.009149000,0.013723000,-0.000506333,0.000270824,-0.000513210,-0.003743971,0.015322797,-0.000156715,0.008396150,-0.003101204,0.997719810,-0.001359823,-0.002223808,0.001025311,0.000000000,0.000000000,0.000000000,0.000000000,0.017533766,0.007084932,0.054089011,0.018015320,0.000497053,-0.001903774,0.005650374,-0.000953736,-0.002005566,-0.119939912,0.163846573,0.464623618,-0.001040865,-0.001434063,0.004053088,0.999989212,0.000000000,0.000000000,0.000000000,0.000000000,0.000000000,0.000000000,0.464724428,0.000000000,3.964222908
1772422004.282879591,0.017355000,0.007081000,0.054105000,-0.002215300,0.004674240,0.006850750,0.999963150,-0.004367000,0.009379000,0.013681000,-0.000056274,0.000016531,-0.000084965,-0.006041666,0.010928650,-0.000396373,0.008518269,-0.002960903,0.997953452,0.001866005,-0.001631549,0.000065182,0.000000000,0.000000000,0.000000000,0.000000000,0.017529971,0.007088415,0.054085566,0.018085061,0.000418590,-0.002025178,0.004811706,-0.000680026,-0.001895395,-0.119051971,0.164801192,0.464657583,-0.001033082,-0.001442363,0.004053387,0.999989212,0.000000000,0.000000000,0.000000000,0.000000000,0.000000000,0.000000000,0.464663081,0.000000000,3.964222908
1772422004.292878866,0.017344000,0.007095000,0.054096000,-0.002187270,0.005032690,0.006879250,0.999961280,-0.004305000,0.010095000,0.013737000,0.000345999,-0.000335509,0.000447533,-0.003740612,0.004598776,0.000815951,0.009183727,-0.002640668,1.000142006,0.001933175,-0.000125456,0.000328211,0.000000000,0.000000000,0.000000000,0.000000000,0.017532065,0.007088076,0.054086096,0.018111043,0.000350051,-0.002127270,0.006893743,0.000111068,-0.000736041,-0.117425010,0.166023532,0.464349570,-0.001018845,-0.001452969,0.004050709,0.999989249,0.000000000,0.000000000,0.000000000,0.000000000,0.000000000,0.000000000,0.464439461,0.000000000,3.964222908
1772422004.302879095,0.017379000,0.007066000,0.054123000,-0.002227880,0.004686150,0.006803540,0.999963390,-0.004392000,0.009402000,0.013587000,0.000611675,-0.000557771,0.000815230,0.000251897,-0.003808387,0.001228395,0.009015221,-0.002158400,1.001637049,0.000595725,-0.000496007,0.001282010,0.000000000,0.000000000,0.000000000,0.000000000,0.017542478,0.007080277,0.054093201,0.018186186,0.000287118,-0.002117012,0.005850823,0.000013111,0.001537172,-0.117739100,0.165537989,0.463792209,-0.001021610,-0.001448739,0.004045845,0.999989258,0.000000000,0.000000000,0.000000000,0.000000000,0.000000000,0.000000000,0.463925397,0.000000000,3.964222908
1772422004.312879086,0.017382000,0.007072000,0.054119000,-0.002244000,0.004568180,0.006844870,0.999963620,-0.004425000,0.009167000,0.013670000,0.000509169,-0.000488753,0.000713132,0.003532225,-0.017650522,-0.000850623,0.008405214,-0.001695967,1.000569553,0.001342921,-0.000899906,0.000513322,0.000000000,0.000000000,0.000000000,0.000000000,0.017545651,0.007079339,0.054094337,0.018246399,0.000287081,-0.002043657,0.005824284,0.000566176,0.000907960,-0.117552258,0.165605725,0.463588563,-0.001019980,-0.001449321,0.004044070,0.999989238,0.000000000,0.000000000,0.000000000,0.000000000,0.000000000,0.000000000,0.463638981,0.000000000,3.964222908
1772422004.322879553,0.017370000,0.007067000,0.054125000,-0.002173310,0.004676170,0.006881100,0.999963030,-0.004282000,0.009382000,0.013742000,0.000141045,-0.000011480,0.000134849,0.005618569,-0.023671626,-0.002238207,0.007795178,-0.001233511,0.999502006,0.002090152,-0.001303823,-0.000255402,0.000000000,0.000000000,0.000000000,0.000000000,0.017548824,0.007078400,0.054095472,0.018306615,0.000287044,-0.001970298,0.005797743,0.001119268,0.000278719,-0.117365407,0.165673464,0.463384907,-0.001018349,-0.001449904,0.004042294,0.999989217,0.000000000,0.000000000,0.000000000,0.000000000,0.000000000,0.000000000,0.463437381,0.000000000,3.964222908
1772422004.332879543,0.017364000,0.007072000,0.054124000,-0.002153230,0.004739950,0.006892690,0.999962690,-0.004241000,0.009509000,0.013766000,-0.000261383,0.000274320,-0.000285179,0.004824961,-0.012055564,-0.002972213,0.008023124,-0.000713846,0.998976076,0.000143838,-0.003449923,-0.000968025,0.000000000,0.000000000,0.000000000,0.000000000,0.017550183,0.007076422,0.054098167,0.018331017,0.000316473,-0.001895987,0.005615143,0.001650126,-0.000475656,-0.117221820,0.165813926,0.463176223,-0.001017094,-0.001451123,0.004040474,0.999989252,0.000000000,0.000000000,0.000000000,0.000000000,0.000000000,0.000000000,0.463235791,0.000000000,3.964222908
1772422004.342879534,0.017382000,0.007065000,0.054133000,-0.002113160,0.004283550,0.006790190,0.999965540,-0.004168000,0.008596000,0.013563000,-0.000496446,0.000510257,-0.000684461,0.003924128,0.008610967,-0.003042956,0.008453949,-0.001102192,0.998566830,-0.001857299,-0.001944452,-0.001719841,0.000000000,0.000000000,0.000000000,0.000000000,0.017548273,0.007074530,0.054102280,0.018326044,0.000423869,-0.001834243,0.004905986,0.001986302,-0.001753753,-0.117706924,0.167011432,0.462894310,-0.001021289,-0.001461587,0.004037997,0.999989234,0.000000000,0.000000000,0.000000000,0.000000000,0.000000000,0.000000000,0.462962641,0.000000000,3.964222908
1772422004.352879047,0.017366000,0.007082000,0.054108000,-0.002114450,0.004324430,0.006760230,0.999965560,-0.004170000,0.008677000,0.013503000,-0.000123815,0.000246445,-0.000407343,0.001083371,0.017250488,-0.005178219,0.008914593,-0.000479086,0.997468455,-0.002034440,0.001837415,-0.000122525,0.000000000,0.000000000,0.000000000,0.000000000,0.017548969,0.007074557,0.054106136,0.018352660,0.000580742,-0.001842243,0.006164311,0.001459370,-0.002575712,-0.117926349,0.167436358,0.461575254,-0.001023205,-0.001465292,0.004026479,0.999989250,0.000000000,0.000000000,0.000000000,0.000000000,0.000000000,0.000000000,0.461861632,0.000000000,3.964222908
1772422004.362879038,0.017359000,0.007093000,0.054097000,-0.002126390,0.004799330,0.006785180,0.999963200,-0.004188000,0.009627000,0.013550000,0.000033469,0.000121445,-0.000177428,-0.000150259,0.024793924,-0.002595797,0.008361091,-0.001428303,0.997292340,-0.001341638,-0.000795797,0.000276587,0.000000000,0.000000000,0.000000000,0.000000000,0.017551539,0.007077328,0.054104500,0.018395518,0.000765398,-0.002016362,0.006029404,0.001377807,-0.003023036,-0.118256016,0.167057170,0.461500052,-0.001026097,-0.001461993,0.004025822,0.999989271,0.000000000,0.000000000,0.000000000,0.000000000,0.000000000,0.000000000,0.461589697,0.000000000,3.964222908
1772422004.372878790,0.017364000,0.007075000,0.054110000,-0.002144330,0.004949070,0.006810400,0.999962260,-0.004221000,0.009927000,0.013600000,-0.000162102,0.000083897,-0.000099320,-0.002019441,0.039059715,0.001241334,0.009123486,-0.002850138,0.997389050,0.001385232,-0.003440440,0.002035092,0.000000000,0.000000000,0.000000000,0.000000000,0.017546016,0.007087796,0.054091935,0.018425731,0.000921797,-0.002286447,0.005691359,-0.000825536,-0.002467197,-0.117656881,0.168128127,0.460810172,-0.001020839,-0.001471312,0.004019800,0.999989322,0.000000000,0.000000000,0.000000000,0.000000000,0.000000000,0.000000000,0.460867888,0.000000000,3.964222908
1772422004.382878780,0.017369000,0.007077000,0.054111000,-0.002136570,0.005028950,0.006773850,0.999962130,-0.004205000,0.010087000,0.013527000,0.000054351,-0.000175991,0.000212355,-0.001909213,0.036615375,0.002676630,0.010773160,-0.001198924,0.997239707,0.000770943,0.001270514,-0.002838540,0.000000000,0.000000000,0.000000000,0.000000000,0.017544090,0.007087973,0.054086633,0.018516826,0.000838671,-0.002510947,0.007174880,0.000558546,-0.002942038,-0.116352228,0.168904313,0.460607561,-0.001009430,-0.001478038,0.004018042,0.999989292,0.000000000,0.000000000,0.000000000,0.000000000,0.000000000,0.000000000,0.460808852,0.000000000,3.964222908
1772422004.392879009,0.017371000,0.007077000,0.054123000,-0.002134650,0.005100070,0.006761590,0.999961860,-0.004200000,0.010229000,0.013502000,0.000251943,-0.000199534,0.000274184,-0.001365465,0.026209817,0.001069727,0.010264845,-0.001766909,0.999972058,-0.001615441,0.002208567,0.001049518,0.000000000,0.000000000,0.000000000,0.000000000,0.017547858,0.007086511,0.054087440,0.018766399,0.000904678,-0.002714104,0.007044414,-0.000223484,0.000361438,-0.116529111,0.169282248,0.460705959,-0.001010959,-0.001481343,0.004018895,0.999989331,0.000000000,0.000000000,0.000000000,0.000000000,0.000000000,0.000000000,0.460765436,0.000000000,3.964222908
1772422004.402879477,0.017365000,0.007079000,0.054113000,-0.002134720,0.005212800,0.006836630,0.999960760,-0.004198000,0.010455000,0.013652000,-0.000008605,0.000035490,-0.000045649,-0.001349564,0.016501298,0.001414246,0.011800943,-0.002661463,0.998977936,0.001345684,-0.000305635,0.000820582,0.000000000,0.000000000,0.000000000,0.000000000,0.017550774,0.007086648,0.054091835,0.018946208,0.000960717,-0.002610787,0.009139870,-0.000290693,-0.000943066,-0.116411269,0.169218396,0.460759814,-0.001009932,-0.001480782,0.004019367,0.999989331,0.000000000,0.000000000,0.000000000,0.000000000,0.000000000,0.000000000,0.460755873,0.000000000,3.964222908
1772422004.412879944,0.017360000,0.007085000,0.054101000,-0.002213570,0.005472110,0.006818080,0.999959330,-0.004353000,0.010974000,0.013613000,-0.000000816,0.000032129,-0.000062510,0.001218502,-0.000207349,0.000638625,0.011723642,-0.003175261,0.999211295,0.005949303,0.000067921,0.000525185,0.000000000,0.000000000,0.000000000,0.000000000,0.017550452,0.007087892,0.054089759,0.019177439,0.000910665,-0.002561320,0.009217726,-0.001216154,-0.000605866,-0.115186009,0.169508186,0.460018486,-0.000999239,-0.001483262,0.004012911,0.999989331,0.000000000,0.000000000,0.000000000,0.000000000,0.000000000,0.000000000,0.460281981,0.000000000,3.964222908
1772422004.422879696,0.017382000,0.007066000,0.054123000,-0.002119030,0.005218360,0.006781260,0.999961150,-0.004167000,0.010465000,0.013541000,-0.000082615,0.000011538,-0.000059615,0.001869574,-0.016413425,-0.001308988,0.009157204,-0.003840951,1.001195075,0.002598581,0.003501578,0.003455088,0.000000000,0.000000000,0.000000000,0.000000000,0.017551147,0.007089716,0.054084241,0.019538497,0.000811779,-0.002569456,0.005456491,-0.002114733,0.001061715,-0.113486809,0.168262148,0.459914137,-0.000984456,-0.001472328,0.004012033,0.999989354,0.000000000,0.000000000,0.000000000,0.000000000,0.000000000,0.000000000,0.459866273,0.000000000,3.964222908
1772422004.432879686,0.017361000,0.007087000,0.054105000,-0.002155240,0.005392660,0.006800870,0.999960010,-0.004237000,0.010814000,0.013579000,0.000107032,-0.000083139,0.000065249,0.002653458,-0.037973846,-0.004081513,0.009292838,-0.002430559,1.001130839,-0.000476298,-0.001801079,0.002163053,0.000000000,0.000000000,0.000000000,0.000000000,0.017561170,0.007082274,0.054091337,0.019676113,0.000606154,-0.002367146,0.007001413,-0.000290743,0.001568066,-0.112527797,0.167187395,0.460111003,-0.000976122,-0.001462917,0.004013772,0.999989390,0.000000000,0.000000000,0.000000000,0.000000000,0.000000000,0.000000000,0.460067680,0.000000000,3.964222908
1772422004.442879915,0.017364000,0.007075000,0.054116000,-0.002122460,0.004883740,0.006810310,0.999962630,-0.004178000,0.009796000,0.013600000,0.000214025,-0.000178788,0.000297067,0.002997799,-0.050305717,-0.005226808,0.008022486,-0.002310402,0.998365043,0.001141480,-0.004871045,0.000498996,0.000000000,0.000000000,0.000000000,0.000000000,0.017556887,0.007087167,0.054087556,0.019702262,0.000522939,-0.002111017,0.005212382,-0.000963420,-0.001177739,-0.111605101,0.168723590,0.459910266,-0.000968019,-0.001476288,0.004012019,0.999989390,0.000000000,0.000000000,0.000000000,0.000000000,0.000000000,0.000000000,0.459994126,0.000000000,3.964222908
1772422004.452879906,0.017378000,0.007069000,0.054124000,-0.002053570,0.004463220,0.006717200,0.999965370,-0.004047000,0.008954000,0.013417000,0.000241997,-0.000467755,0.000512530,0.002110821,-0.055584583,-0.003937643,0.009071176,-0.003897364,0.998982244,0.000646854,0.000789291,-0.000727209,0.000000000,0.000000000,0.000000000,0.000000000,0.017557544,0.007083128,0.054092618,0.019684080,0.000490615,-0.002095880,0.006316812,-0.002101113,-0.001016797,-0.111665585,0.169490173,0.459462620,-0.000968526,-0.001482976,0.004008106,0.999989390,0.000000000,0.000000000,0.000000000,0.000000000,0.000000000,0.000000000,0.459580332,0.000000000,3.964222908
1772422004.462879419,0.017364000,0.007082000,0.054110000,-0.002136430,0.004578710,0.006715470,0.999964690,-0.004211000,0.009186000,0.013412000,0.000224340,-0.000442269,0.000493066,0.000754209,-0.041858016,-0.004450612,0.009779243,-0.001711014,0.999231102,0.000387500,-0.002371890,-0.000166636,0.000000000,0.000000000,0.000000000,0.000000000,0.017562584,0.007079199,0.054097099,0.019683103,0.000292839,-0.002094155,0.006863976,0.000319125,-0.000900052,-0.112281285,0.170022734,0.460104848,-0.000973872,-0.001487651,0.004013698,0.999989366,0.000000000,0.000000000,0.000000000,0.000000000,0.000000000,0.000000000,0.459871325,0.000000000,3.964222908
1772422004.472879171,0.017385000,0.007059000,0.054130000,-0.002091670,0.004155740,0.006723520,0.999966570,-0.004127000,0.008339000,0.013430000,0.000154254,-0.000304857,0.000356954,0.001335367,-0.023872365,-0.001685152,0.008146517,-0.001232963,0.999193967,0.000247032,-0.000468168,0.001351917,0.000000000,0.000000000,0.000000000,0.000000000,0.017561293,0.007080004,0.054095373,0.019779705,0.000276281,-0.002079343,0.005226309,0.000910837,-0.000795576,-0.112532139,0.170284840,0.459787670,-0.000976056,-0.001489944,0.004010924,0.999989357,0.000000000,0.000000000,0.000000000,0.000000000,0.000000000,0.000000000,0.459949870,0.000000000,3.964222908
1772422004.482879400,0.017375000,0.007061000,0.054133000,-0.002080530,0.004214560,0.006725600,0.999966340,-0.004104000,0.008457000,0.013434000,-0.000264841,0.000126088,-0.000131255,0.000927074,0.005895359,0.005078578,0.007289768,-0.001996396,0.998777341,0.001540336,0.000645567,0.003067389,0.000000000,0.000000000,0.000000000,0.000000000,0.017568678,0.007071309,0.054102987,0.019772829,0.000344289,-0.002042894,0.004473715,-0.000367304,-0.001238783,-0.111639436,0.169221433,0.459770804,-0.000968303,-0.001480633,0.004010798,0.999989390,0.000000000,0.000000000,0.000000000,0.000000000,0.000000000,0.000000000,0.459700342,0.000000000,3.964222908
1772422004.492879868,0.017375000,0.007053000,0.054140000,-0.002078640,0.004113170,0.006732770,0.999966710,-0.004102000,0.008254000,0.013449000,-0.000490540,0.000177409,-0.000328458,0.002701824,0.027444042,0.011153384,0.007954227,-0.002138259,0.998185403,0.000161942,-0.001559798,0.001101310,0.000000000,0.000000000,0.000000000,0.000000000,0.017567761,0.007066917,0.054109444,0.019622561,0.000354884,-0.002035178,0.004877212,0.000169509,-0.002461137,-0.111164151,0.168872423,0.459779115,-0.000964167,-0.001477571,0.004010879,0.999989390,0.000000000,0.000000000,0.000000000,0.000000000,0.000000000,0.000000000,0.459750683,0.000000000,3.964222908
1772422004.502880812,0.017366000,0.007079000,0.054117000,-0.002053040,0.004494560,0.006759900,0.999964940,-0.004045000,0.009017000,0.013502000,-0.000451807,0.000302875,-0.000438462,0.006044009,0.038282667,0.012641180,0.009743503,-0.002697903,1.000043573,0.000023731,-0.004253964,0.000813893,0.000000000,0.000000000,0.000000000,0.000000000,0.017565354,0.007064791,0.054112213,0.019491421,0.000336366,-0.002124106,0.006546477,-0.000497494,-0.000187456,-0.111089603,0.170387342,0.458669711,-0.000963478,-0.001490779,0.004001186,0.999989426,0.000000000,0.000000000,0.000000000,0.000000000,0.000000000,0.000000000,0.459077340,0.000000000,3.964222908
1772422004.512881041,0.017356000,0.007080000,0.054107000,-0.002067430,0.004660120,0.006915060,0.999963090,-0.004070000,0.009349000,0.013811000,-0.000465618,0.000403089,-0.000373310,0.002267095,0.039815825,0.012343408,0.009488218,-0.003628762,1.000233012,0.001856551,-0.000394447,-0.000247854,0.000000000,0.000000000,0.000000000,0.000000000,0.017558243,0.007074276,0.054102156,0.019529384,0.000327445,-0.002116117,0.007123452,-0.001236082,0.000007552,-0.110124781,0.171400154,0.458381195,-0.000955027,-0.001499581,0.003998673,0.999989450,0.000000000,0.000000000,0.000000000,0.000000000,0.000000000,0.000000000,0.457875544,0.000000000,3.964222908
1772422004.522881269,0.017360000,0.007071000,0.054115000,-0.002024490,0.004911820,0.006980640,0.999961520,-0.003980000,0.009852000,0.013942000,-0.000050291,0.000158819,0.000041919,-0.001971668,0.017436864,0.006494426,0.008292908,-0.004284337,1.000041189,0.000271018,0.002727433,-0.000845285,0.000000000,0.000000000,0.000000000,0.000000000,0.017552958,0.007077305,0.054095992,0.019572826,0.000249189,-0.002058683,0.005356170,-0.002946955,-0.000195190,-0.109626219,0.169612038,0.456539719,-0.000950763,-0.001483944,0.003982624,0.999989478,0.000000000,0.000000000,0.000000000,0.000000000,0.000000000,0.000000000,0.456673748,0.000000000,3.964222908
1772422004.532881498,0.017357000,0.007070000,0.054118000,-0.002009110,0.005079010,0.006967950,0.999960810,-0.003947000,0.010186000,0.013916000,-0.000008955,0.000182382,0.000065870,-0.006065914,0.010099926,-0.000196649,0.007062217,-0.003355423,0.999489369,-0.000860317,0.001052582,0.000395060,0.000000000,0.000000000,0.000000000,0.000000000,0.017551578,0.007075001,0.054095890,0.019601380,0.000038111,-0.001967848,0.004177131,-0.002246683,-0.001329431,-0.109877691,0.168442624,0.456048531,-0.000953004,-0.001473744,0.003978344,0.999989537,0.000000000,0.000000000,0.000000000,0.000000000,0.000000000,0.000000000,0.455491163,0.000000000,3.964222908
1772422004.542881489,0.017363000,0.007079000,0.054121000,-0.002032510,0.004841710,0.006930200,0.999962200,-0.003998000,0.009711000,0.013841000,-0.000083003,0.000185354,-0.000203943,-0.007467830,0.017201821,-0.004522600,0.008610306,-0.002019922,0.999687388,-0.000224220,0.000283020,-0.002166072,0.000000000,0.000000000,0.000000000,0.000000000,0.017549808,0.007073128,0.054097888,0.019424164,-0.000145287,-0.001932296,0.005859841,-0.000322720,0.000171504,-0.109874220,0.168519511,0.454390449,-0.000952992,-0.001474401,0.003963874,0.999989595,0.000000000,0.000000000,0.000000000,0.000000000,0.000000000,0.000000000,0.454321494,0.000000000,3.964222908
1772422004.552881718,0.017361000,0.007077000,0.054126000,-0.002201530,0.004776690,0.006893070,0.999962410,-0.004337000,0.009584000,0.013766000,0.000177312,0.000018104,-0.000263034,-0.004830404,0.017558359,-0.007322974,0.008840341,-0.000812994,0.999738440,-0.002194887,0.001170854,0.000472079,0.000000000,0.000000000,0.000000000,0.000000000,0.017550909,0.007075098,0.054100979,0.019380735,-0.000179092,-0.001892887,0.005862618,0.001539426,-0.000812222,-0.110394977,0.168532221,0.453399747,-0.000957549,-0.001474522,0.003955223,0.999989654,0.000000000,0.000000000,0.000000000,0.000000000,0.000000000,0.000000000,0.453515123,0.000000000,3.964222908
1772422004.562881470,0.017363000,0.007083000,0.054110000,-0.002190010,0.004910870,0.006805510,0.999962390,-0.004313000,0.009851000,0.013590000,0.000207964,-0.000145552,-0.000312588,-0.002380484,0.019907544,-0.006015583,0.010149191,-0.001048626,1.001148456,-0.000520075,0.001788546,-0.001239669,0.000000000,0.000000000,0.000000000,0.000000000,0.017550616,0.007076163,0.054102885,0.019373082,-0.000052602,-0.001824996,0.007372738,0.000812540,0.000835350,-0.110000673,0.167577289,0.453113862,-0.000954145,-0.001466172,0.003952741,0.999989688,0.000000000,0.000000000,0.000000000,0.000000000,0.000000000,0.000000000,0.453161424,0.000000000,3.964222908
1772422004.572881460,0.017353000,0.007086000,0.054093000,-0.002148050,0.005514150,0.006868810,0.999958900,-0.004220000,0.011058000,0.013715000,0.000345824,-0.000276360,-0.000077040,0.000001517,0.017584548,-0.005313701,0.009367496,-0.002460925,1.001266849,-0.001254114,0.004103558,-0.002475767,0.000000000,0.000000000,0.000000000,0.000000000,0.017539527,0.007074862,0.054101248,0.019385609,-0.000056302,-0.001604257,0.007356585,-0.000388778,0.000677595,-0.110285733,0.166852686,0.452754036,-0.000956662,-0.001459856,0.003949603,0.999989688,0.000000000,0.000000000,0.000000000,0.000000000,0.000000000,0.000000000,0.452845052,0.000000000,3.964222908
1772422004.582881212,0.017361000,0.007072000,0.054101000,-0.002097640,0.005589170,0.006869130,0.999958590,-0.004119000,0.011207000,0.013716000,0.000192094,-0.000283101,0.000167929,0.002176443,0.008554999,-0.004932405,0.007503612,-0.003026258,1.000017216,0.000966885,0.001495359,-0.001336260,0.000000000,0.000000000,0.000000000,0.000000000,0.017522731,0.007067235,0.054105426,0.019297416,-0.000445687,-0.001243423,0.004249828,-0.000944845,0.000311945,-0.110431930,0.173172125,0.454071421,-0.000957703,-0.001515019,0.003961044,0.999989569,0.000000000,0.000000000,0.000000000,0.000000000,0.000000000,0.000000000,0.452768079,0.000000000,3.964222908
1772422004.592880726,0.017388000,0.007052000,0.054134000,-0.002079870,0.004929860,0.006778210,0.999962710,-0.004093000,0.009888000,0.013536000,-0.000037044,0.000043862,0.000345805,0.004134372,-0.008752680,-0.002174743,0.008218055,-0.001636816,0.998727566,0.004062189,-0.001335051,-0.000032159,0.000000000,0.000000000,0.000000000,0.000000000,0.017539186,0.007072008,0.054104388,0.019301535,-0.000534541,-0.001184765,0.005561553,-0.000151229,-0.001082291,-0.109505777,0.173256176,0.452800305,-0.000949634,-0.001515710,0.003949963,0.999989620,0.000000000,0.000000000,0.000000000,0.000000000,0.000000000,0.000000000,0.452793378,0.000000000,3.964222908
1772422004.602880001,0.017362000,0.007081000,0.054111000,-0.002155490,0.005255690,0.006768420,0.999960960,-0.004240000,0.010540000,0.013515000,-0.000260606,0.000252545,0.000352623,0.001304193,-0.024753936,0.000757662,0.010035510,-0.001254711,0.996737009,0.000274580,0.000902609,-0.000810397,0.000000000,0.000000000,0.000000000,0.000000000,0.017542546,0.007073434,0.054104932,0.019280891,-0.000497974,-0.001211252,0.006609928,0.000133113,-0.002479064,-0.107722971,0.173660747,0.452663556,-0.000934064,-0.001519178,0.003948789,0.999989582,0.000000000,0.000000000,0.000000000,0.000000000,0.000000000,0.000000000,0.452818730,0.000000000,3.964222908
1772422004.612879515,0.017366000,0.007080000,0.054119000,-0.002159330,0.005008010,0.006763140,0.999962260,-0.004251000,0.010045000,0.013505000,-0.000273194,0.000302467,0.000093085,0.000404749,-0.034275070,0.002776254,0.011146162,-0.001061409,0.997842608,-0.000823253,0.000049357,-0.002025412,0.000000000,0.000000000,0.000000000,0.000000000,0.017541782,0.007075897,0.054103748,0.019350969,-0.000417619,-0.001380541,0.008346780,0.000950995,-0.002766248,-0.107732217,0.173817413,0.451886997,-0.000934150,-0.001520539,0.003942012,0.999989609,0.000000000,0.000000000,0.000000000,0.000000000,0.000000000,0.000000000,0.452121129,0.000000000,3.964222908
1772422004.622879028,0.017351000,0.007079000,0.054116000,-0.002081920,0.004994720,0.006822360,0.999962090,-0.004096000,0.010018000,0.013625000,-0.000235820,0.000120086,-0.000141434,0.000834457,-0.022088597,0.005381531,0.010045050,-0.000501579,0.999320343,-0.000548072,-0.000666720,-0.001028294,0.000000000,0.000000000,0.000000000,0.000000000,0.017544455,0.007076969,0.054101883,0.019541739,-0.000333816,-0.001555132,0.007738089,0.002152871,-0.000783509,-0.108138297,0.174383693,0.450443491,-0.000937693,-0.001525483,0.003929405,0.999989666,0.000000000,0.000000000,0.000000000,0.000000000,0.000000000,0.000000000,0.450815202,0.000000000,3.964222908
1772422004.632878304,0.017354000,0.007087000,0.054114000,-0.002036870,0.004906430,0.006906040,0.999962040,-0.004006000,0.009841000,0.013793000,-0.000083217,-0.000174184,-0.000226302,0.002062394,-0.000900920,0.006467792,0.009247800,-0.000467451,1.000369670,-0.000456333,-0.000415935,-0.000991908,0.000000000,0.000000000,0.000000000,0.000000000,0.017551010,0.007072254,0.054100784,0.019728732,-0.000189216,-0.001587534,0.005780267,0.001689433,-0.000267149,-0.110088770,0.174113113,0.450673263,-0.000954720,-0.001523190,0.003931386,0.999989688,0.000000000,0.000000000,0.000000000,0.000000000,0.000000000,0.000000000,0.450622234,0.000000000,3.964222908
1772422004.642878294,0.017364000,0.007073000,0.054114000,-0.002114340,0.004688820,0.006883020,0.999963080,-0.004164000,0.009407000,0.013747000,0.000394814,-0.000484538,-0.000068687,0.001433711,0.004350205,0.001944576,0.009212785,-0.000540693,0.999299411,0.001034197,-0.000875355,-0.003746842,0.000000000,0.000000000,0.000000000,0.000000000,0.017555715,0.007069003,0.054100308,0.019783397,-0.000001998,-0.001539403,0.005938747,0.000881690,0.000475468,-0.110605869,0.174208723,0.449421340,-0.000959246,-0.001524032,0.003920454,0.999989688,0.000000000,0.000000000,0.000000000,0.000000000,0.000000000,0.000000000,0.449722587,0.000000000,3.964222908
1772422004.652878284,0.017370000,0.007065000,0.054117000,-0.002108870,0.004684710,0.006872770,0.999963180,-0.004153000,0.009398000,0.013726000,0.000117405,-0.000110023,-0.000471562,-0.001828985,0.024646007,0.000237337,0.008493187,-0.001199320,0.998083028,-0.002049058,0.004019111,-0.000794619,0.000000000,0.000000000,0.000000000,0.000000000,0.017554294,0.007072103,0.054095002,0.019792911,0.000183584,-0.001529160,0.005738735,0.001178217,-0.001982751,-0.111004562,0.173928488,0.448059703,-0.000962753,-0.001521589,0.003908568,0.999989739,0.000000000,0.000000000,0.000000000,0.000000000,0.000000000,0.000000000,0.448091419,0.000000000,3.964222908
1772422004.662878513,0.017364000,0.007069000,0.054112000,-0.002092350,0.005144560,0.006857200,0.999961070,-0.004114000,0.010318000,0.013694000,-0.000161908,0.000262257,-0.000490540,-0.002339793,0.036615735,0.000038985,0.006923592,-0.001099425,0.998869665,0.000757941,0.003147718,0.001730208,0.000000000,0.000000000,0.000000000,0.000000000,0.017554765,0.007076418,0.054088977,0.019764949,0.000326705,-0.001669963,0.004444220,0.000317882,-0.000665077,-0.111853389,0.171099734,0.448072187,-0.000970257,-0.001496932,0.003908690,0.999989748,0.000000000,0.000000000,0.000000000,0.000000000,0.000000000,0.000000000,0.448091692,0.000000000,3.964222908
