t,px,py,pz,qx,qy,qz,qw,roll,pitch,yaw,vx,vy,vz,wx_vicon,wy_vicon,wz_vicon,imu_acc_x,imu_acc_y,imu_acc_z,imu_gyro_x,imu_gyro_y,imu_gyro_z,motor_motor_m1,motor_motor_m2,motor_motor_m3,motor_motor_m4,est_stateEstimate_x,est_stateEstimate_y,est_stateEstimate_z,est_stateEstimate_vx,est_stateEstimate_vy,est_stateEstimate_vz,est_stateEstimate_ax,est_stateEstimate_ay,est_stateEstimate_az,att_stateEstimate_roll,att_stateEstimate_pitch,att_stateEstimate_yaw,att_stateEstimate_qx,att_stateEstimate_qy,att_stateEstimate_qz,att_stateEstimate_qw,sp_ctrltarget_x,sp_ctrltarget_y,sp_ctrltarget_z,sp_ctrltarget_yaw,pid_controller_roll,pid_controller_pitch,pid_controller_yaw,pid_controller_cmd_thrust,pwr_pm_vbat
1772681267.722829819,0.017263000,0.006235000,0.055186000,-0.002393300,0.003306310,-0.011151520,0.999929490,-0.004860000,0.006559000,-0.022320000,0.001965382,-0.001783499,0.002690991,-0.020365168,-0.023382233,-0.013077426,0.013477468,-0.001932759,0.999216048,-0.001489756,-0.000304111,-0.000872031,0.000000000,0.000000000,0.000000000,0.000000000,0.017614903,0.006219898,0.055154878,0.017872545,-0.000065560,-0.001910368,0.006795652,0.000881530,-0.001101881,-0.218119831,0.326451075,-0.849107078,-0.001924501,-0.002834635,-0.007415161,0.999965719,0.000000000,0.000000000,0.000000000,0.000000000,0.000000000,0.000000000,-0.848057056,0.000000000,4.170087814
1772681267.732830763,0.017278000,0.006220000,0.055188000,-0.002449520,0.003295160,-0.011171900,0.999929160,-0.004972000,0.006535000,-0.022361000,0.000780034,-0.000791261,0.000808723,-0.012386463,-0.012370192,-0.008218895,0.012297203,-0.002768023,0.998688672,0.001716049,-0.000515936,0.002267971,0.000000000,0.000000000,0.000000000,0.000000000,0.017617692,0.006217917,0.055157497,0.017976894,-0.000006598,-0.001913462,0.007277657,0.001024320,-0.001409476,-0.218313599,0.326627774,-0.848547683,-0.001926189,-0.002836174,-0.007410288,0.999965693,0.000000000,0.000000000,0.000000000,0.000000000,0.000000000,0.000000000,-0.847844359,0.000000000,4.170087814
1772681267.742831707,0.017283000,0.006222000,0.055202000,-0.002521230,0.003171050,-0.011220200,0.999928840,-0.005113000,0.006285000,-0.022457000,0.000103625,-0.000204939,-0.000231880,-0.007666746,-0.000965885,-0.005328258,0.011116938,-0.003603287,0.998161297,0.004921853,-0.000727761,0.005407973,0.000000000,0.000000000,0.000000000,0.000000000,0.017620528,0.006215920,0.055159979,0.018081308,0.000052058,-0.001917601,0.006347697,0.000989828,-0.001464345,-0.218649422,0.326964492,-0.847990488,-0.001929128,-0.002839100,-0.007405440,0.999965674,0.000000000,0.000000000,0.000000000,0.000000000,0.000000000,0.000000000,-0.847631662,0.000000000,4.170087814
1772681267.752831936,0.017277000,0.006216000,0.055201000,-0.002571520,0.003271350,-0.011241000,0.999928160,-0.005216000,0.006484000,-0.022500000,-0.000189012,0.000071265,-0.000618216,-0.005219226,0.009324545,-0.003934625,0.011244284,-0.001870512,0.999913445,-0.000730899,-0.000984801,0.000691124,0.000000000,0.000000000,0.000000000,0.000000000,0.017620449,0.006214731,0.055165208,0.018108180,0.000126361,-0.001955447,0.005326305,0.001443732,-0.001039821,-0.219146912,0.327782937,-0.846944077,-0.001933496,-0.002846227,-0.007396334,0.999965852,0.000000000,0.000000000,0.000000000,0.000000000,0.000000000,0.000000000,-0.845697628,0.000000000,4.170087814
1772681267.762832880,0.017279000,0.006215000,0.055194000,-0.002550290,0.003259820,-0.011331610,0.999927230,-0.005174000,0.006461000,-0.022681000,-0.000223042,0.000133149,-0.000537685,-0.004061009,0.016993887,-0.003563915,0.013245895,-0.002776088,0.998809683,-0.000199287,-0.001584872,-0.001220282,0.000000000,0.000000000,0.000000000,0.000000000,0.017620141,0.006218158,0.055165220,0.018127786,0.000340036,-0.001953213,0.007244110,0.000934476,-0.001185555,-0.218397060,0.327924907,-0.844952579,-0.001926912,-0.002847548,-0.007378939,0.999965888,0.000000000,0.000000000,0.000000000,0.000000000,0.000000000,0.000000000,-0.844398834,0.000000000,4.170087814
1772681267.772833586,0.017277000,0.006218000,0.055185000,-0.002596170,0.003290700,-0.011251370,0.999927920,-0.005266000,0.006523000,-0.022521000,-0.000123632,0.000076510,-0.000177688,-0.003201474,0.020537089,-0.003742368,0.011659966,-0.004256729,1.000404968,-0.003800741,0.001495981,-0.000547933,0.000000000,0.000000000,0.000000000,0.000000000,0.017624847,0.006226017,0.055157495,0.018343842,0.000468602,-0.002022787,0.006362968,-0.000094617,0.000518337,-0.218316538,0.328535505,-0.844703292,-0.001926242,-0.002852886,-0.007376772,0.999965924,0.000000000,0.000000000,0.000000000,0.000000000,0.000000000,0.000000000,-0.844613970,0.000000000,4.170087814
1772681267.782834768,0.017271000,0.006226000,0.055181000,-0.002589550,0.003614200,-0.011282840,0.999926460,-0.005260000,0.007170000,-0.022585000,-0.000260471,0.000178814,0.000151252,0.000679754,0.012747546,-0.002601617,0.009509281,-0.004119485,1.000356964,-0.000149701,0.002927722,-0.002965232,0.000000000,0.000000000,0.000000000,0.000000000,0.017629599,0.006229183,0.055144685,0.018393792,0.000425922,-0.001905696,0.003723126,0.000046229,0.000861839,-0.219303709,0.327796008,-0.843780455,-0.001934786,-0.002846384,-0.007368731,0.999965995,0.000000000,0.000000000,0.000000000,0.000000000,0.000000000,0.000000000,-0.843086091,0.000000000,4.170087814
1772681267.792834282,0.017284000,0.006217000,0.055187000,-0.002616330,0.003608290,-0.011309530,0.999926110,-0.005314000,0.007157000,-0.022639000,-0.000288169,0.000198082,0.000484348,0.005833592,-0.002135352,-0.004332094,0.010859217,-0.004658785,0.999137584,0.001572083,0.002686087,0.000509864,0.000000000,0.000000000,0.000000000,0.000000000,0.017628748,0.006228885,0.055148072,0.018212758,0.000403110,-0.001742474,0.004206674,-0.000540666,-0.001344319,-0.220644655,0.327218716,-0.843089978,-0.001946434,-0.002841272,-0.007362730,0.999965966,0.000000000,0.000000000,0.000000000,0.000000000,0.000000000,0.000000000,-0.842988478,0.000000000,4.170087814
1772681267.802835464,0.017271000,0.006219000,0.055201000,-0.002553700,0.003513590,-0.011371510,0.999925910,-0.005187000,0.006969000,-0.022762000,-0.000324045,0.000174521,0.000331173,0.009557459,-0.011240889,-0.001965910,0.011066707,-0.003922071,1.000566817,-0.001278400,-0.001818417,0.001907782,0.000000000,0.000000000,0.000000000,0.000000000,0.017686928,0.006230061,0.055149171,0.018311731,0.000316077,-0.001747214,0.007061900,-0.001457061,0.000421767,-0.220672936,0.326384917,-0.842845772,-0.001946621,-0.002833999,-0.007360584,0.999966094,0.000000000,0.000000000,0.000000000,0.000000000,0.000000000,0.000000000,-0.842226919,0.000000000,4.170087814
1772681267.812836409,0.017267000,0.006224000,0.055209000,-0.002542170,0.003436780,-0.011350970,0.999926440,-0.005162000,0.006815000,-0.022720000,-0.000184214,0.000096594,-0.000153175,0.009617373,-0.015425358,-0.001127586,0.009907453,-0.001769370,1.000276269,-0.001254682,0.005652265,-0.000991565,0.000000000,0.000000000,0.000000000,0.000000000,0.017689840,0.006233721,0.055154816,0.018173628,0.000282084,-0.001578485,0.003767079,0.001725521,0.000788985,-0.220378785,0.332456645,-0.845589770,-0.001944513,-0.002886955,-0.007384623,0.999965781,0.000000000,0.000000000,0.000000000,0.000000000,0.000000000,0.000000000,-0.842863623,0.000000000,4.170087814
1772681267.822837114,0.017256000,0.006233000,0.055199000,-0.002399630,0.003202790,-0.011337350,0.999927720,-0.004872000,0.006351000,-0.022691000,-0.000117882,0.000098400,-0.000447463,0.008746561,-0.009080421,0.001734479,0.011463996,-0.002635543,0.999607025,0.000367820,0.001667274,-0.001928442,0.000000000,0.000000000,0.000000000,0.000000000,0.017578754,0.006236329,0.055172519,0.017616807,0.000456870,-0.001370837,0.005053838,0.001588162,-0.000499759,-0.220993074,0.333362219,-0.843659355,-0.001949883,-0.002894850,-0.007367808,0.999965835,0.000000000,0.000000000,0.000000000,0.000000000,0.000000000,0.000000000,-0.843515672,0.000000000,4.170087814
1772681267.832837820,0.017272000,0.006220000,0.055187000,-0.002373770,0.003265970,-0.011379740,0.999927100,-0.004822000,0.006477000,-0.022776000,0.000117591,-0.000005594,-0.000504568,0.004003679,0.003363232,0.001492834,0.011613950,-0.003408442,0.998250740,-0.000650381,0.002264415,0.000419025,0.000000000,0.000000000,0.000000000,0.000000000,0.017596490,0.006235180,0.055166385,0.017743657,0.000554906,-0.001392225,0.006028358,0.000321485,-0.001409015,-0.221413233,0.330269952,-0.843427326,-0.001953345,-0.002867843,-0.007365743,0.999965900,0.000000000,0.000000000,0.000000000,0.000000000,0.000000000,0.000000000,-0.843113355,0.000000000,4.170087814
1772681267.842839003,0.017270000,0.006227000,0.055174000,-0.002431460,0.003400150,-0.011247810,0.999928000,-0.004939000,0.006745000,-0.022513000,0.000347023,-0.000291549,-0.000128934,-0.003168639,0.010077401,0.000549706,0.011788455,-0.002438897,0.997955647,-0.000152513,0.004718592,0.000449234,0.000000000,0.000000000,0.000000000,0.000000000,0.017605671,0.006234886,0.055158054,0.017855027,0.000614516,-0.001524436,0.005645939,0.001570602,-0.001674187,-0.221633350,0.330060128,-0.842869264,-0.001955238,-0.002866007,-0.007360875,0.999965961,0.000000000,0.000000000,0.000000000,0.000000000,0.000000000,0.000000000,-0.842526354,0.000000000,4.170087814
1772681267.852839708,0.017273000,0.006220000,0.055180000,-0.002477540,0.003480220,-0.011349710,0.999926460,-0.005034000,0.006904000,-0.022717000,0.000194664,-0.000408538,0.000429360,-0.004994550,0.009328366,-0.000559393,0.010644039,-0.002143319,1.000760274,-0.003551454,0.002052882,0.001202412,0.000000000,0.000000000,0.000000000,0.000000000,0.017614701,0.006235983,0.055154974,0.017944805,0.000747820,-0.001639932,0.005316282,0.000850784,-0.000219011,-0.222368077,0.327937982,-0.842398166,-0.001961502,-0.002847450,-0.007356747,0.999965968,0.000000000,0.000000000,0.000000000,0.000000000,0.000000000,0.000000000,-0.842572564,0.000000000,4.170087814
1772681267.862840414,0.017270000,0.006221000,0.055201000,-0.002404790,0.003518460,-0.011353660,0.999926460,-0.004889000,0.006982000,-0.022725000,0.000059805,-0.000274864,0.000783259,-0.003123207,0.003827746,-0.001521864,0.010616253,-0.004774579,0.998026697,-0.002226207,-0.001960349,-0.005621897,0.000000000,0.000000000,0.000000000,0.000000000,0.017619176,0.006238806,0.055158761,0.017953992,0.000873227,-0.001549436,0.004785441,-0.000038306,-0.001176802,-0.222166159,0.326697153,-0.842172253,-0.001959655,-0.002836639,-0.007354750,0.999966014,0.000000000,0.000000000,0.000000000,0.000000000,0.000000000,0.000000000,-0.841207303,0.000000000,4.170087814
1772681267.872841120,0.017280000,0.006211000,0.055202000,-0.002539970,0.003398280,-0.011361290,0.999926460,-0.005157000,0.006738000,-0.022741000,-0.000050948,-0.000019171,0.000402322,-0.001782289,-0.009046895,-0.001252077,0.010276733,-0.003700355,0.999476050,-0.000690345,-0.001337584,-0.002550637,0.000000000,0.000000000,0.000000000,0.000000000,0.017616064,0.006248969,0.055163383,0.017910568,0.000833777,-0.001624821,0.004514448,-0.000131318,-0.000905273,-0.222536256,0.327905671,-0.841335663,-0.001962941,-0.002847176,-0.007347479,0.999965982,0.000000000,0.000000000,0.000000000,0.000000000,0.000000000,0.000000000,-0.841731209,0.000000000,4.170087814
1772681267.882843018,0.017269000,0.006212000,0.055209000,-0.002520910,0.003399630,-0.011337730,0.999926770,-0.005119000,0.006742000,-0.022693000,0.000171025,0.000049006,-0.000233200,-0.004445637,-0.016964358,-0.002841657,0.009577504,-0.004677188,1.001019968,-0.000944231,0.001140261,-0.002148246,0.000000000,0.000000000,0.000000000,0.000000000,0.017612528,0.006249578,0.055161216,0.017824889,0.000815687,-0.001625304,0.003890307,-0.000683433,0.001084041,-0.223143776,0.328418130,-0.841609246,-0.001968282,-0.002851604,-0.007349890,0.999966047,0.000000000,0.000000000,0.000000000,0.000000000,0.000000000,0.000000000,-0.841442003,0.000000000,4.170087814
1772681267.892843485,0.017270000,0.006217000,0.055201000,-0.002429350,0.003301190,-0.011338430,0.999927320,-0.004933000,0.006547000,-0.022694000,0.000073441,0.000187438,-0.000668057,-0.008250733,-0.014808908,-0.001060694,0.010930953,-0.005297142,0.999592035,-0.002477155,-0.001485603,0.002230667,0.000000000,0.000000000,0.000000000,0.000000000,0.017609936,0.006246664,0.055156299,0.017655269,0.000701210,-0.001450657,0.004944519,-0.001350351,0.000073708,-0.223475077,0.327626148,-0.841231422,-0.001971113,-0.002844678,-0.007346588,0.999966113,0.000000000,0.000000000,0.000000000,0.000000000,0.000000000,0.000000000,-0.840907753,0.000000000,4.170087814
1772681267.902844429,0.017277000,0.006224000,0.055189000,-0.002490940,0.003263230,-0.011384910,0.999926760,-0.005056000,0.006469000,-0.022787000,-0.000012451,0.000151310,-0.000617827,-0.008774921,-0.004821306,-0.001974262,0.010587349,-0.003727072,0.998425360,0.000360876,0.002596748,0.000843790,0.000000000,0.000000000,0.000000000,0.000000000,0.017604863,0.006240478,0.055155059,0.017618796,0.000519414,-0.001423180,0.004303836,-0.000191705,-0.001509837,-0.223986737,0.326231180,-0.840515305,-0.001975471,-0.002832484,-0.007340328,0.999966217,0.000000000,0.000000000,0.000000000,0.000000000,0.000000000,0.000000000,-0.839539480,0.000000000,4.170087814
1772681267.912846088,0.017279000,0.006223000,0.055170000,-0.002677090,0.003145600,-0.011356090,0.999926990,-0.005425000,0.006230000,-0.022730000,-0.000106422,0.000251070,-0.000154923,-0.004079113,0.003520963,0.000148982,0.010819259,-0.004269866,0.998895786,-0.000073831,0.002727457,0.000376655,0.000000000,0.000000000,0.000000000,0.000000000,0.017607322,0.006233606,0.055157640,0.017573281,0.000474736,-0.001510811,0.005383562,-0.000131610,-0.001356405,-0.224726672,0.324678177,-0.838707402,-0.001981784,-0.002818916,-0.007324543,0.999966342,0.000000000,0.000000000,0.000000000,0.000000000,0.000000000,0.000000000,-0.837897885,0.000000000,4.170087814
1772681267.922846794,0.017278000,0.006220000,0.055183000,-0.002674030,0.003199360,-0.011417730,0.999926120,-0.005421000,0.006337000,-0.022853000,-0.000216049,0.000254722,0.000355783,0.000929728,0.009611801,0.001973942,0.012318225,-0.003025283,0.999331530,-0.001350235,-0.001553162,0.000686933,0.000000000,0.000000000,0.000000000,0.000000000,0.017610331,0.006231740,0.055161386,0.017575001,0.000457239,-0.001563350,0.006449568,-0.000582166,-0.000756212,-0.224885574,0.322962249,-0.837666464,-0.001983036,-0.002803950,-0.007315435,0.999966421,0.000000000,0.000000000,0.000000000,0.000000000,0.000000000,0.000000000,-0.837075006,0.000000000,4.170108625
1772681267.932848215,0.017263000,0.006221000,0.055197000,-0.002601890,0.003403900,-0.011348570,0.999926420,-0.005281000,0.006748000,-0.022716000,-0.000267541,0.000159060,0.000557187,0.009237129,0.011575424,0.004800753,0.013294491,-0.001113622,0.999373219,-0.001105518,-0.002321092,0.000312059,0.000000000,0.000000000,0.000000000,0.000000000,0.017608837,0.006233053,0.055160814,0.017688151,0.000461104,-0.001576925,0.008058110,0.002801805,-0.000416400,-0.225191226,0.322228615,-0.836865018,-0.001985636,-0.002797542,-0.007308436,0.999966471,0.000000000,0.000000000,0.000000000,0.000000000,0.000000000,0.000000000,-0.836265082,0.000000000,4.170668581
1772681267.942849636,0.017268000,0.006226000,0.055200000,-0.002508490,0.003464040,-0.011312560,0.999926860,-0.005095000,0.006871000,-0.022643000,-0.000309166,0.000135227,0.000303864,0.011111857,0.005152284,0.006668487,0.013408487,-0.001702386,0.999469586,-0.001349638,-0.001206230,0.000824463,0.000000000,0.000000000,0.000000000,0.000000000,0.017605594,0.006237928,0.055158931,0.017878607,0.000703514,-0.001581291,0.007654987,0.002341798,0.000383654,-0.225354395,0.322109479,-0.836154329,-0.001987036,-0.002796505,-0.007302236,0.999966521,0.000000000,0.000000000,0.000000000,0.000000000,0.000000000,0.000000000,-0.835753248,0.000000000,4.171228538
1772681267.952849865,0.017267000,0.006236000,0.055202000,-0.002431990,0.003353070,-0.011272530,0.999927880,-0.004939000,0.006651000,-0.022562000,0.000000311,0.000057863,-0.000182019,0.006368191,-0.003120713,0.007154429,0.012193106,-0.002750233,0.998935238,-0.001401609,-0.005902637,-0.001280709,0.000000000,0.000000000,0.000000000,0.000000000,0.017608745,0.006237194,0.055159565,0.018126860,0.000895577,-0.001502141,0.007281508,0.001656282,-0.000945475,-0.225588499,0.321860926,-0.835124994,-0.001989038,-0.002794339,-0.007293255,0.999966537,0.000000000,0.000000000,0.000000000,0.000000000,0.000000000,0.000000000,-0.834546579,0.000000000,4.171788428
1772681267.962850809,0.017263000,0.006230000,0.055199000,-0.002400370,0.003391460,-0.011284500,0.999927700,-0.004877000,0.006728000,-0.022586000,0.000270552,-0.000169763,-0.000561790,-0.002519876,-0.006495125,0.006368930,0.009100271,-0.002743732,0.997326210,-0.001534930,-0.002298090,-0.001498146,0.000000000,0.000000000,0.000000000,0.000000000,0.017619430,0.006244436,0.055158646,0.018302251,0.001032087,-0.001568819,0.003231264,0.000844306,-0.002591745,-0.225578121,0.322271911,-0.834704277,-0.001988963,-0.002797933,-0.007289590,0.999966469,0.000000000,0.000000000,0.000000000,0.000000000,0.000000000,0.000000000,-0.835157266,0.000000000,4.172348357
1772681267.972852230,0.017275000,0.006220000,0.055178000,-0.002471480,0.003249590,-0.011230440,0.999928600,-0.005016000,0.006443000,-0.022478000,0.000318198,-0.000104188,-0.000361999,-0.005685279,-0.010826935,0.001001178,0.010009268,-0.002983240,0.998327787,0.000264953,0.001905291,-0.001954372,0.000000000,0.000000000,0.000000000,0.000000000,0.017617156,0.006244648,0.055157383,0.018101953,0.001111300,-0.001757261,0.003410377,0.001650767,-0.001165963,-0.226559973,0.322548118,-0.835689325,-0.001997572,-0.002800264,-0.007298215,0.999966524,0.000000000,0.000000000,0.000000000,0.000000000,0.000000000,0.000000000,-0.835307603,0.000000000,4.172908314
1772681267.982853174,0.017265000,0.006226000,0.055179000,-0.002632520,0.003200220,-0.011216590,0.999928510,-0.005337000,0.006341000,-0.022451000,0.000093039,0.000042615,-0.000009751,-0.002811462,-0.006892636,-0.001562001,0.011668750,-0.004100938,0.999744675,-0.000044685,0.004073967,-0.002501178,0.000000000,0.000000000,0.000000000,0.000000000,0.017615035,0.006245446,0.055157408,0.017971503,0.001170205,-0.001822834,0.006445287,-0.000939585,-0.001193440,-0.226086125,0.321899558,-0.834587037,-0.001993369,-0.002794654,-0.007288574,0.999966709,0.000000000,0.000000000,0.000000000,0.000000000,0.000000000,0.000000000,-0.833382451,0.000000000,4.173468244
1772681267.992854357,0.017283000,0.006222000,0.055185000,-0.002537390,0.003263070,-0.011219990,0.999928510,-0.005148000,0.006469000,-0.022457000,0.000015131,0.000231219,0.000180679,0.002430927,-0.008700786,-0.004321886,0.010965533,-0.003014547,0.998527163,0.000164824,0.001114434,0.000578917,0.000000000,0.000000000,0.000000000,0.000000000,0.017562581,0.006245596,0.055160903,0.017619739,0.001073945,-0.001767830,0.005847156,0.000369053,-0.000786060,-0.225597974,0.320852557,-0.832713966,-0.001988998,-0.002785581,-0.007272199,0.999966797,0.000000000,0.000000000,0.000000000,0.000000000,0.000000000,0.000000000,-0.834579191,0.000000000,4.174028187
1772681268.002854824,0.017273000,0.006226000,0.055195000,-0.002500520,0.003321960,-0.011281760,0.999927710,-0.005076000,0.006587000,-0.022581000,-0.000223353,0.000386084,0.000199830,0.007548193,-0.005729660,-0.004378665,0.012635490,-0.002865332,0.998921638,-0.002694020,0.003770483,0.001993879,0.000000000,0.000000000,0.000000000,0.000000000,0.017545357,0.006244801,0.055162727,0.017461871,0.001072428,-0.001756363,0.006699312,0.001103332,-0.001567620,-0.225494703,0.325134676,-0.835498191,-0.001988436,-0.002822906,-0.007296565,0.999966577,0.000000000,0.000000000,0.000000000,0.000000000,0.000000000,0.000000000,-0.834349061,0.000000000,4.174588090
1772681268.012855530,0.017266000,0.006244000,0.055198000,-0.002418950,0.003025100,-0.011340910,0.999928190,-0.004906000,0.005995000,-0.022697000,-0.000401273,0.000159546,-0.000005672,0.007043501,-0.006759017,-0.002664683,0.013131847,-0.003202671,0.998566289,-0.003364281,-0.001152543,-0.001148959,0.000000000,0.000000000,0.000000000,0.000000000,0.017586160,0.006245779,0.055160991,0.017891386,0.001152191,-0.001823006,0.007639408,0.000553206,-0.001595294,-0.225607216,0.323967050,-0.833554721,-0.001989296,-0.002812744,-0.007279589,0.999966681,0.000000000,0.000000000,0.000000000,0.000000000,0.000000000,0.000000000,-0.832593960,0.000000000,4.175148007
1772681268.022856236,0.017264000,0.006233000,0.055189000,-0.002388440,0.003159850,-0.011290290,0.999928420,-0.004848000,0.006265000,-0.022596000,-0.000204337,-0.000183903,-0.000239008,0.000568367,-0.008372739,0.002919907,0.011318673,-0.005776600,0.999949320,0.001435072,-0.000793634,0.001603192,0.000000000,0.000000000,0.000000000,0.000000000,0.017609633,0.006247189,0.055161885,0.018243221,0.001135236,-0.001886444,0.006563110,-0.001188283,0.000317967,-0.226620584,0.321832537,-0.832290490,-0.001997973,-0.002794075,-0.007268545,0.999966698,0.000000000,0.000000000,0.000000000,0.000000000,0.000000000,0.000000000,-0.832131636,0.000000000,4.174954821
1772681268.032857180,0.017266000,0.006230000,0.055181000,-0.002445780,0.003010000,-0.011301410,0.999928620,-0.004959000,0.005964000,-0.022618000,-0.000032962,-0.000401118,-0.000200879,-0.007054837,-0.005479463,0.003472804,0.012269365,-0.004074522,0.999549361,-0.000037900,-0.002089239,-0.000008221,0.000000000,0.000000000,0.000000000,0.000000000,0.017618315,0.006245291,0.055162271,0.018375437,0.000932223,-0.001745615,0.006467077,0.000179271,-0.000688484,-0.226658018,0.321471273,-0.831516297,-0.001998258,-0.002790933,-0.007261783,0.999966807,0.000000000,0.000000000,0.000000000,0.000000000,0.000000000,0.000000000,-0.831071712,0.000000000,4.174280029
1772681268.042857409,0.017259000,0.006226000,0.055180000,-0.002481520,0.003210640,-0.011231050,0.999928700,-0.005035000,0.006365000,-0.022479000,0.000184758,-0.000367126,-0.000065458,-0.007420231,-0.002164463,0.003451952,0.012997192,-0.004413151,0.998858532,-0.000443919,-0.002885382,0.000495825,0.000000000,0.000000000,0.000000000,0.000000000,0.017622563,0.006247882,0.055157757,0.018571713,0.000899494,-0.001779997,0.007761158,-0.000200114,-0.000886768,-0.224787548,0.320691479,-0.830670695,-0.001981866,-0.002784262,-0.007254346,0.999966860,0.000000000,0.000000000,0.000000000,0.000000000,0.000000000,0.000000000,-0.829952530,0.000000000,4.173605285
1772681268.052858353,0.017267000,0.006217000,0.055184000,-0.002580680,0.002948360,-0.011212270,0.999929460,-0.005227000,0.005838000,-0.022440000,0.000029000,-0.000274903,0.000158497,-0.005707708,0.003295268,0.001813966,0.012877293,-0.002871051,0.999287183,-0.001350399,0.000657858,-0.002117497,0.000000000,0.000000000,0.000000000,0.000000000,0.017623235,0.006247353,0.055154475,0.018823952,0.000852271,-0.001801249,0.006696657,0.000103425,-0.000638095,-0.224457870,0.321356872,-0.829126594,-0.001978993,-0.002790116,-0.007240875,0.999966979,0.000000000,0.000000000,0.000000000,0.000000000,0.000000000,0.000000000,-0.828450156,0.000000000,4.172930493
1772681268.062858820,0.017276000,0.006220000,0.055195000,-0.002572490,0.003117800,-0.011208210,0.999929020,-0.005215000,0.006178000,-0.022433000,0.000093972,0.000104558,0.000249808,-0.001408618,0.001432723,-0.000139661,0.011891558,-0.004002958,0.998399872,0.003047911,-0.001729705,-0.001106667,0.000000000,0.000000000,0.000000000,0.000000000,0.017631616,0.006246745,0.055156076,0.019015377,0.000856369,-0.001820856,0.007451109,-0.000557723,-0.001541871,-0.224074847,0.321301478,-0.828766498,-0.001975638,-0.002789663,-0.007237723,0.999967046,0.000000000,0.000000000,0.000000000,0.000000000,0.000000000,0.000000000,-0.828386405,0.000000000,4.172255733
1772681268.072860479,0.017269000,0.006223000,0.055191000,-0.002525480,0.003127520,-0.011336630,0.999927660,-0.005122000,0.006197000,-0.022690000,0.000050832,0.000213252,0.000080433,-0.000121456,0.007568769,-0.001051483,0.010798318,-0.002185876,1.000521060,-0.001358559,-0.000543181,-0.000070684,0.000000000,0.000000000,0.000000000,0.000000000,0.017639711,0.006240508,0.055163493,0.019160763,0.000792190,-0.001822370,0.005570823,0.000723924,0.000303227,-0.222107003,0.321730576,-0.827247295,-0.001958456,-0.002793558,-0.007224424,0.999967098,0.000000000,0.000000000,0.000000000,0.000000000,0.000000000,0.000000000,-0.827126614,0.000000000,4.171580893
1772681268.082861662,0.017259000,0.006233000,0.055187000,-0.002501760,0.003089350,-0.011227270,0.999929070,-0.005073000,0.006122000,-0.022471000,0.000010858,0.000154224,-0.000041372,0.000520845,0.012044251,-0.002565984,0.009209780,-0.002505081,1.001064786,-0.000067514,0.002146808,0.002726328,0.000000000,0.000000000,0.000000000,0.000000000,0.017637743,0.006241163,0.055167042,0.019028531,0.000982159,-0.001652846,0.004322761,0.000739613,0.000810997,-0.222164619,0.321380753,-0.826625703,-0.001958922,-0.002790512,-0.007218996,0.999967228,0.000000000,0.000000000,0.000000000,0.000000000,0.000000000,0.000000000,-0.825624954,0.000000000,4.170906084
1772681268.092862606,0.017264000,0.006220000,0.055189000,-0.002531420,0.003263240,-0.011232110,0.999928390,-0.005136000,0.006469000,-0.022482000,-0.000139850,0.000059009,-0.000087581,0.000985136,0.015395914,-0.000720073,0.011330629,-0.006602456,1.000532478,-0.003689823,0.001260081,0.004393342,0.000000000,0.000000000,0.000000000,0.000000000,0.017635067,0.006243650,0.055164154,0.018839365,0.000997391,-0.001468944,0.005411695,-0.002341870,0.000658722,-0.221743824,0.320825571,-0.825388828,-0.001955185,-0.002785715,-0.007208184,0.999967306,0.000000000,0.000000000,0.000000000,0.000000000,0.000000000,0.000000000,-0.824981711,0.000000000,4.170231292
1772681268.102863550,0.017279000,0.006232000,0.055187000,-0.002548990,0.003247130,-0.011256250,0.999928130,-0.005171000,0.006436000,-0.022530000,-0.000000214,-0.000031602,-0.000065885,-0.000741991,0.013801891,0.000226926,0.012982597,-0.005004487,0.999209511,0.001522410,-0.002748729,-0.002914244,0.000000000,0.000000000,0.000000000,0.000000000,0.017630509,0.006243627,0.055162885,0.018832006,0.000775602,-0.001387996,0.006759087,-0.001549504,-0.000698388,-0.221425503,0.319988205,-0.824863955,-0.001952342,-0.002778437,-0.007203581,0.999967395,0.000000000,0.000000000,0.000000000,0.000000000,0.000000000,0.000000000,-0.823665056,0.000000000,4.170087814
1772681268.112864494,0.017263000,0.006225000,0.055186000,-0.002588110,0.003408870,-0.011289100,0.999927120,-0.005253000,0.006759000,-0.022597000,0.000048404,-0.000018239,0.000050540,0.000821524,0.016389625,-0.000327006,0.012477510,-0.004770689,0.999245383,-0.002098225,-0.000814506,0.001194968,0.000000000,0.000000000,0.000000000,0.000000000,0.017631530,0.006240848,0.055165548,0.018944346,0.000635985,-0.001384471,0.006623605,-0.000548250,-0.001349343,-0.222145909,0.319447455,-0.823418310,-0.001958559,-0.002773697,-0.007190974,0.999967343,0.000000000,0.000000000,0.000000000,0.000000000,0.000000000,0.000000000,-0.823543881,0.000000000,4.170087814
1772681268.122865677,0.017266000,0.006220000,0.055193000,-0.002491850,0.003466040,-0.011283160,0.999927230,-0.005062000,0.006875000,-0.022584000,-0.000007439,-0.000003419,0.000062913,0.003988991,0.010736155,-0.000935704,0.010709470,-0.003354592,0.998328912,-0.000169408,0.000589554,0.000621450,0.000000000,0.000000000,0.000000000,0.000000000,0.017636210,0.006234484,0.055170539,0.019027512,0.000535520,-0.001413863,0.005197567,-0.000068690,-0.001172653,-0.221664984,0.320336392,-0.823606028,-0.001954423,-0.002781481,-0.007192615,0.999967391,0.000000000,0.000000000,0.000000000,0.000000000,0.000000000,0.000000000,-0.823196662,0.000000000,4.170087814
1772681268.132866383,0.017264000,0.006229000,0.055189000,-0.002491150,0.003395340,-0.011243260,0.999927920,-0.005058000,0.006734000,-0.022504000,0.000006798,0.000077131,0.000099838,0.004628383,0.001793342,0.001028912,0.012353685,-0.002623745,0.998933002,0.001169104,0.000967932,-0.000133456,0.000000000,0.000000000,0.000000000,0.000000000,0.017638597,0.006230850,0.055172909,0.019029222,0.000495155,-0.001431743,0.005411393,0.001611010,-0.001655379,-0.222036918,0.320211807,-0.822980211,-0.001957646,-0.002780382,-0.007187161,0.999967396,0.000000000,0.000000000,0.000000000,0.000000000,0.000000000,0.000000000,-0.823008555,0.000000000,4.170087814
1772681268.142867565,0.017272000,0.006230000,0.055188000,-0.002501550,0.003573770,-0.011277830,0.999926890,-0.005083000,0.007091000,-0.022574000,0.000126059,-0.000071673,0.000223605,0.004031204,-0.003495660,-0.003041432,0.012555202,-0.002491843,0.999167932,0.001294317,0.001277621,-0.000467999,0.000000000,0.000000000,0.000000000,0.000000000,0.017638502,0.006231049,0.055172841,0.019024604,0.000508271,-0.001443647,0.005598279,0.001530984,-0.001523202,-0.221971147,0.320071295,-0.823031106,-0.001957064,-0.002779159,-0.007187602,0.999967415,0.000000000,0.000000000,0.000000000,0.000000000,0.000000000,0.000000000,-0.823060567,0.000000000,4.170087814
1772681268.152868271,0.017265000,0.006226000,0.055192000,-0.002439330,0.003460450,-0.011281520,0.999927400,-0.004957000,0.006865000,-0.022581000,0.000297337,-0.000033273,0.000196975,0.002714166,-0.008568600,-0.004823954,0.012378073,-0.002406591,0.999268235,0.001339886,0.001605047,-0.000805079,0.000000000,0.000000000,0.000000000,0.000000000,0.017638408,0.006231247,0.055172773,0.019019987,0.000521387,-0.001455550,0.005785155,0.001450963,-0.001391032,-0.221905379,0.319930789,-0.823081999,-0.001956483,-0.002777936,-0.007188042,0.999967435,0.000000000,0.000000000,0.000000000,0.000000000,0.000000000,0.000000000,-0.823112576,0.000000000,4.170087814
1772681268.162869215,0.017274000,0.006224000,0.055195000,-0.002450060,0.003335230,-0.011257170,0.999928070,-0.004975000,0.006615000,-0.022531000,0.000121981,0.000011324,0.000097934,0.000260011,-0.007902121,-0.003677460,0.012200940,-0.002321336,0.999368541,0.001385456,0.001932481,-0.001142168,0.000000000,0.000000000,0.000000000,0.000000000,0.017638314,0.006231446,0.055172705,0.019015370,0.000534503,-0.001467453,0.005972037,0.001370940,-0.001258859,-0.221839609,0.319790280,-0.823132893,-0.001955901,-0.002776713,-0.007188482,0.999967454,0.000000000,0.000000000,0.000000000,0.000000000,0.000000000,0.000000000,-0.823164587,0.000000000,4.170087814
1772681268.172869921,0.017276000,0.006226000,0.055198000,-0.002488670,0.003335420,-0.011360740,0.999926800,-0.005053000,0.006614000,-0.022739000,-0.000082978,0.000004215,-0.000022046,-0.000738197,-0.001763594,-0.000635104,0.012023811,-0.002236083,0.999468844,0.001431025,0.002259908,-0.001479249,0.000000000,0.000000000,0.000000000,0.000000000,0.017638220,0.006231644,0.055172637,0.019010753,0.000547619,-0.001479356,0.006158914,0.001290919,-0.001126689,-0.221773841,0.319649775,-0.823183786,-0.001955320,-0.002775490,-0.007188922,0.999967473,0.000000000,0.000000000,0.000000000,0.000000000,0.000000000,0.000000000,-0.823216596,0.000000000,4.170087814
1772681268.182870626,0.017270000,0.006223000,0.055198000,-0.002443690,0.003359470,-0.011423540,0.999926120,-0.004964000,0.006663000,-0.022864000,-0.000262783,0.000214515,-0.000244583,-0.004291813,0.004021509,0.001830259,0.011846682,-0.002150830,0.999569147,0.001476594,0.002587334,-0.001816329,0.000000000,0.000000000,0.000000000,0.000000000,0.017638126,0.006231843,0.055172569,0.019006136,0.000560734,-0.001491259,0.006345791,0.001210897,-0.000994519,-0.221708072,0.319509269,-0.823234679,-0.001954738,-0.002774267,-0.007189362,0.999967493,0.000000000,0.000000000,0.000000000,0.000000000,0.000000000,0.000000000,-0.823268605,0.000000000,4.170087814
1772681268.192871094,0.017271000,0.006229000,0.055189000,-0.002472250,0.003392480,-0.011255830,0.999927840,-0.005021000,0.006729000,-0.022529000,-0.000097448,0.000167995,-0.000297182,-0.006305498,0.011458827,0.002225379,0.011669557,-0.002065579,0.999669447,0.001522163,0.002914752,-0.002153402,0.000000000,0.000000000,0.000000000,0.000000000,0.017638031,0.006232041,0.055172501,0.019001519,0.000573850,-0.001503162,0.006532663,0.001130878,-0.000862352,-0.221642306,0.319368767,-0.823285570,-0.001954157,-0.002773044,-0.007189802,0.999967512,0.000000000,0.000000000,0.000000000,0.000000000,0.000000000,0.000000000,-0.823320613,0.000000000,4.170087814
1772681268.202871561,0.017265000,0.006236000,0.055187000,-0.002518230,0.003445080,-0.011236270,0.999927770,-0.005114000,0.006833000,-0.022491000,-0.000036264,0.000004215,-0.000052832,-0.001817557,0.008315111,0.002750165,0.011492432,-0.001980329,0.999769748,0.001567731,0.003242171,-0.002490475,0.000000000,0.000000000,0.000000000,0.000000000,0.017637937,0.006232240,0.055172433,0.018996902,0.000586965,-0.001515065,0.006719535,0.001050858,-0.000730185,-0.221576539,0.319228265,-0.823336462,-0.001953575,-0.002771822,-0.007190242,0.999967532,0.000000000,0.000000000,0.000000000,0.000000000,0.000000000,0.000000000,-0.823372621,0.000000000,4.170087814
1772681268.212872744,0.017261000,0.006227000,0.055186000,-0.002545740,0.003579610,-0.011273970,0.999926800,-0.005172000,0.007101000,-0.022567000,0.000105432,-0.000138063,0.000252449,0.002667623,-0.000499709,0.004279270,0.011315295,-0.001895072,0.999870056,0.001613302,0.003569613,-0.002827571,0.000000000,0.000000000,0.000000000,0.000000000,0.017637843,0.006232438,0.055172365,0.018992285,0.000600081,-0.001526968,0.006906421,0.000970833,-0.000598008,-0.221510768,0.319087753,-0.823387357,-0.001952994,-0.002770599,-0.007190682,0.999967551,0.000000000,0.000000000,0.000000000,0.000000000,0.000000000,0.000000000,-0.823424633,0.000000000,4.170087814
1772681268.222873688,0.017271000,0.006232000,0.055190000,-0.002558600,0.003479100,-0.011306730,0.999926750,-0.005196000,0.006900000,-0.022632000,0.000194547,-0.000203035,0.000407858,0.003792480,-0.009545340,0.003975541,0.011138162,-0.001809817,0.999970361,0.001658872,0.003897047,-0.003164660,0.000000000,0.000000000,0.000000000,0.000000000,0.017637447,0.006235136,0.055171306,0.019032993,0.000656080,-0.001541367,0.006830389,0.001087870,-0.000422076,-0.221444998,0.318947244,-0.823438251,-0.001952412,-0.002769376,-0.007191122,0.999967571,0.000000000,0.000000000,0.000000000,0.000000000,0.000000000,0.000000000,-0.822164736,0.000000000,4.170087814
1772681268.232874870,0.017281000,0.006219000,0.055200000,-0.002470090,0.003404720,-0.011277070,0.999927560,-0.005017000,0.006753000,-0.022572000,0.000003652,-0.000180213,0.000270144,0.004069956,-0.016979118,0.002918169,0.011146274,-0.002189365,0.999711776,-0.000529876,0.002499648,-0.000333928,0.000000000,0.000000000,0.000000000,0.000000000,0.017637869,0.006239859,0.055168743,0.019096631,0.000775932,-0.001545779,0.005669518,0.002018022,-0.000065581,-0.221216081,0.318767573,-0.821567693,-0.001950358,-0.002767854,-0.007174791,0.999967616,0.000000000,0.000000000,0.000000000,0.000000000,0.000000000,0.000000000,-0.820845342,0.000000000,4.170087814
1772681268.242875099,0.017269000,0.006223000,0.055207000,-0.002364110,0.003278450,-0.011221440,0.999928870,-0.004802000,0.006503000,-0.022459000,-0.000109297,-0.000010838,0.000005847,0.001957068,-0.018480234,0.005427139,0.010805340,-0.002641757,1.000261257,-0.000989588,0.005901952,0.000818355,0.000000000,0.000000000,0.000000000,0.000000000,0.017640575,0.006241838,0.055165032,0.019083255,0.000929245,-0.001505485,0.005055055,0.001325071,0.000089560,-0.221391559,0.317005352,-0.820671619,-0.001951758,-0.002752481,-0.007166946,0.999967715,0.000000000,0.000000000,0.000000000,0.000000000,0.000000000,0.000000000,-0.819968245,0.000000000,4.170087814
1772681268.252876282,0.017267000,0.006225000,0.055200000,-0.002440210,0.003197130,-0.011154880,0.999929690,-0.004952000,0.006339000,-0.022326000,-0.000144065,-0.000012120,-0.000099527,0.001257181,-0.011111208,0.001273128,0.011328344,-0.001635893,1.001728233,-0.002179902,0.006657569,-0.001124240,0.000000000,0.000000000,0.000000000,0.000000000,0.017639867,0.006239183,0.055163910,0.019022904,0.001018383,-0.001391017,0.004931388,0.001974839,0.001392216,-0.221714068,0.316484745,-0.819376559,-0.001954509,-0.002747940,-0.007155644,0.999967796,0.000000000,0.000000000,0.000000000,0.000000000,0.000000000,0.000000000,-0.819102562,0.000000000,4.170087814
1772681268.262877703,0.017268000,0.006226000,0.055191000,-0.002527370,0.003154640,-0.011168620,0.999929460,-0.005125000,0.006252000,-0.022354000,-0.000114930,-0.000140802,-0.000122583,-0.000305329,-0.004120206,-0.004008966,0.012109829,-0.001346195,0.999568972,-0.002319600,0.002976814,-0.002832361,0.000000000,0.000000000,0.000000000,0.000000000,0.017706720,0.006240746,0.055161010,0.019208394,0.001202505,-0.001219242,0.007074281,0.002855531,-0.000067759,-0.222183148,0.314327211,-0.819092349,-0.001958461,-0.002729088,-0.007153140,0.999967902,0.000000000,0.000000000,0.000000000,0.000000000,0.000000000,0.000000000,-0.818588859,0.000000000,4.170087814
1772681268.272878408,0.017260000,0.006227000,0.055188000,-0.002498130,0.003158120,-0.011252160,0.999928580,-0.005067000,0.006260000,-0.022521000,0.000029427,-0.000054347,-0.000015966,-0.001731366,0.000036857,-0.006872344,0.011748789,-0.003619346,0.998329849,0.002900382,0.001057307,-0.001199885,0.000000000,0.000000000,0.000000000,0.000000000,0.017916471,0.006254969,0.055147643,0.019933356,0.001444403,-0.001283076,0.006636774,0.001082692,-0.002057533,-0.223648460,0.311317979,-0.818124745,-0.001971037,-0.002702753,-0.007144680,0.999967933,0.000000000,0.000000000,0.000000000,0.000000000,0.000000000,0.000000000,-0.817718312,0.000000000,4.170087814
1772681268.282879591,0.017272000,0.006222000,0.055198000,-0.002450050,0.003235610,-0.011268940,0.999928270,-0.004973000,0.006416000,-0.022554000,0.000213077,-0.000003321,0.000121650,0.000332314,0.002886517,-0.005129632,0.011654334,-0.005858211,0.999747305,0.001330578,0.004351508,-0.000994918,0.000000000,0.000000000,0.000000000,0.000000000,0.018128924,0.006270212,0.055133380,0.020593593,0.001457219,-0.001433223,0.005614406,-0.001659512,-0.000366745,-0.223465310,0.311514328,-0.817502341,-0.001969436,-0.002704488,-0.007139248,0.999968030,0.000000000,0.000000000,0.000000000,0.000000000,0.000000000,0.000000000,-0.817021901,0.000000000,4.170087814
1772681268.292880297,0.017276000,0.006213000,0.055204000,-0.002390810,0.003277310,-0.011365890,0.999927180,-0.004856000,0.006500000,-0.022748000,0.000183029,0.000131479,0.000118193,0.000863447,0.003459880,-0.001684800,0.012176914,-0.004770588,0.998584402,0.002521173,-0.002995358,-0.001232671,0.000000000,0.000000000,0.000000000,0.000000000,0.018344779,0.006284358,0.055118346,0.021203093,0.001281443,-0.001476837,0.006750336,-0.001476247,-0.000586010,-0.222385576,0.311113863,-0.816744596,-0.001959972,-0.002701074,-0.007132604,0.999968155,0.000000000,0.000000000,0.000000000,0.000000000,0.000000000,0.000000000,-0.815586965,0.000000000,4.170087814
1772681268.302881718,0.017270000,0.006223000,0.055200000,-0.002479580,0.003135690,-0.011276670,0.999928430,-0.005030000,0.006215000,-0.022570000,0.000070838,0.000099216,-0.000075228,-0.002511743,0.005116666,0.002237617,0.012121705,-0.002657007,0.999182266,0.002464698,0.000324919,0.000195694,0.000000000,0.000000000,0.000000000,0.000000000,0.018582258,0.006297952,0.055101462,0.021934894,0.001197939,-0.001598285,0.006879233,0.000228171,-0.001328048,-0.221852072,0.310007068,-0.814906450,-0.001955204,-0.002691480,-0.007116532,0.999968171,0.000000000,0.000000000,0.000000000,0.000000000,0.000000000,0.000000000,-0.814727796,0.000000000,4.170087814
1772681268.312882662,0.017269000,0.006232000,0.055197000,-0.002497720,0.003260900,-0.011234650,0.999928450,-0.005068000,0.006465000,-0.022486000,-0.000016063,-0.000033972,-0.000233647,-0.003353241,0.011491764,0.003281472,0.009944723,-0.004912734,0.999273914,-0.001726942,0.001080044,0.001344150,0.000000000,0.000000000,0.000000000,0.000000000,0.018832644,0.006311724,0.055082885,0.022628004,0.001256968,-0.001702754,0.005682945,-0.000759297,-0.000655037,-0.220432788,0.310560084,-0.814552940,-0.001942845,-0.002696401,-0.007113423,0.999968237,0.000000000,0.000000000,0.000000000,0.000000000,0.000000000,0.000000000,-0.814278353,0.000000000,4.170087814
1772681268.322883606,0.017275000,0.006230000,0.055191000,-0.002480950,0.003295960,-0.011226690,0.999928470,-0.005036000,0.006536000,-0.022471000,-0.000018394,-0.000171724,-0.000223003,-0.000612962,0.013452754,0.000597836,0.014098676,-0.003534594,0.997628995,0.001439945,-0.002307229,0.002004701,0.000000000,0.000000000,0.000000000,0.000000000,0.019089149,0.006325374,0.055063204,0.023251053,0.001170119,-0.001824845,0.007369127,-0.000515991,-0.001858940,-0.220104957,0.310674491,-0.813714757,-0.001939971,-0.002697433,-0.007106103,0.999968322,0.000000000,0.000000000,0.000000000,0.000000000,0.000000000,0.000000000,-0.812894891,0.000000000,4.170087814
1772681268.332884312,0.017273000,0.006220000,0.055189000,-0.002530440,0.003374530,-0.011276230,0.999927530,-0.005137000,0.006692000,-0.022570000,0.000214165,-0.000288558,-0.000021774,0.002468193,0.009526877,-0.000516930,0.012996220,-0.002598840,0.998216106,0.000160565,-0.000840989,0.002927833,0.000000000,0.000000000,0.000000000,0.000000000,0.018258581,0.006275538,0.055126336,0.016769452,0.000761470,-0.001390792,0.007326630,0.000608759,-0.002214801,-0.218688080,0.327190063,-0.814219231,-0.001928648,-0.002841634,-0.007110737,0.999967990,0.000000000,0.000000000,0.000000000,0.000000000,0.000000000,0.000000000,-0.811983432,0.000000000,4.170087814
1772681268.342884302,0.017269000,0.006212000,0.055193000,-0.002475650,0.003480980,-0.011276100,0.999927300,-0.005030000,0.006906000,-0.022570000,0.000186292,-0.000241747,0.000157118,0.004111457,0.002778582,-0.003560093,0.011904718,-0.002927289,0.998340705,-0.001375613,0.000708563,0.001534789,0.000000000,0.000000000,0.000000000,0.000000000,0.017492783,0.006230139,0.055182149,0.011399157,0.000460494,-0.001059303,0.005722259,0.001128545,-0.002108847,-0.215595634,0.364549999,-0.817239293,-0.001904062,-0.003167793,-0.007137619,0.999966787,0.000000000,0.000000000,0.000000000,0.000000000,0.000000000,0.000000000,-0.813620410,0.000000000,4.170087814
1772681268.352885246,0.017277000,0.006214000,0.055198000,-0.002394160,0.003543790,-0.011294140,0.999927070,-0.004868000,0.007033000,-0.022606000,-0.000001165,0.000086163,0.000158089,0.002510558,-0.005712991,-0.001779106,0.011423738,-0.004040437,0.998314437,-0.002398557,0.001434782,-0.000608213,0.000000000,0.000000000,0.000000000,0.000000000,0.017325816,0.006221355,0.055186066,0.011733866,0.000547810,-0.001223842,0.004779405,0.000054761,-0.001480743,-0.214333167,0.383581376,-0.827373718,-0.001894512,-0.003333778,-0.007226335,0.999965521,0.000000000,0.000000000,0.000000000,0.000000000,0.000000000,0.000000000,-0.820310506,0.000000000,4.170087814
1772681268.362885952,0.017282000,0.006220000,0.055198000,-0.002430630,0.003298930,-0.011302840,0.999927720,-0.004936000,0.006542000,-0.022623000,-0.000109200,0.000359862,0.000073052,0.000145957,-0.008836873,0.001397531,0.012843496,-0.003161416,0.998628463,0.000769302,-0.003071147,0.003091606,0.000000000,0.000000000,0.000000000,0.000000000,0.017409718,0.006231462,0.055176173,0.012467451,0.000556452,-0.001329864,0.006349484,0.000604184,-0.001295875,-0.215466622,0.373708057,-0.841991487,-0.001904199,-0.003247306,-0.007353769,0.999964709,0.000000000,0.000000000,0.000000000,0.000000000,0.000000000,0.000000000,-0.845407015,0.000000000,4.170087814
1772681268.372887135,0.017277000,0.006226000,0.055196000,-0.002471270,0.003228820,-0.011246820,0.999928490,-0.005015000,0.006402000,-0.022510000,-0.000150494,0.000477569,-0.000204570,-0.003638810,-0.008920373,0.002164939,0.011974658,-0.003464031,0.997480053,0.001237074,-0.002848533,0.001798832,0.000000000,0.000000000,0.000000000,0.000000000,0.017470777,0.006237701,0.055164792,0.013099222,0.000613854,-0.001556743,0.004827569,0.000200695,-0.002807841,-0.214973082,0.372098967,-0.844141837,-0.001899851,-0.003233261,-0.007372493,0.999964774,0.000000000,0.000000000,0.000000000,0.000000000,0.000000000,0.000000000,-0.844317571,0.000000000,4.170087814
1772681268.382887840,0.017265000,0.006231000,0.055194000,-0.002484070,0.003319530,-0.011300020,0.999927560,-0.005043000,0.006582000,-0.022617000,-0.000194625,0.000179766,-0.000293142,-0.005801940,-0.003162811,0.000781094,0.012280888,-0.004196502,0.999496014,0.000498155,-0.002773401,0.001759336,0.000000000,0.000000000,0.000000000,0.000000000,0.017507174,0.006233926,0.055160131,0.013536814,0.000606512,-0.001714476,0.005803501,-0.000118001,-0.001139225,-0.214867142,0.371972931,-0.843060581,-0.001898887,-0.003232186,-0.007363053,0.999964848,0.000000000,0.000000000,0.000000000,0.000000000,0.000000000,0.000000000,-0.843494424,0.000000000,4.170087814
1772681268.392888308,0.017269000,0.006229000,0.055190000,-0.002483860,0.003338900,-0.011248430,0.999928070,-0.005043000,0.006621000,-0.022514000,-0.000141715,-0.000203385,-0.000225334,-0.005516874,0.008054111,-0.002681016,0.012871391,-0.004495106,1.001369108,0.000318397,-0.001167119,0.001737618,0.000000000,0.000000000,0.000000000,0.000000000,0.017528400,0.006230690,0.055161371,0.013960881,0.000500748,-0.001608680,0.005417054,-0.001552226,0.001695200,-0.213958783,0.371993230,-0.842259167,-0.001890940,-0.003232434,-0.007356034,0.999964937,0.000000000,0.000000000,0.000000000,0.000000000,0.000000000,0.000000000,-0.842451291,0.000000000,4.170087814
1772681268.402889252,0.017272000,0.006225000,0.055188000,-0.002537230,0.003322970,-0.011245050,0.999928030,-0.005149000,0.006588000,-0.022508000,0.000119048,-0.000324356,-0.000050191,-0.002386704,0.011192997,-0.003715973,0.011794815,-0.004328007,0.999410312,-0.001841518,0.002270610,0.002016278,0.000000000,0.000000000,0.000000000,0.000000000,0.017543964,0.006231143,0.055163601,0.014384478,0.000383166,-0.001432354,0.006168683,-0.000392734,-0.000264821,-0.212936202,0.373359803,-0.841399469,-0.001882079,-0.003244439,-0.007348525,0.999964952,0.000000000,0.000000000,0.000000000,0.000000000,0.000000000,0.000000000,-0.841675626,0.000000000,4.170087814
1772681268.412889957,0.017271000,0.006225000,0.055183000,-0.002564820,0.003400770,-0.011318470,0.999926870,-0.005206000,0.006743000,-0.022655000,0.000143832,-0.000116989,-0.000007206,-0.000360237,0.011302961,-0.000716385,0.011547608,-0.003459056,0.998201354,-0.001579357,-0.001254329,0.006030053,0.000000000,0.000000000,0.000000000,0.000000000,0.017555215,0.006232049,0.055158774,0.014724272,0.000358730,-0.001499406,0.004854277,-0.000208070,-0.001456600,-0.213728152,0.371137590,-0.840523708,-0.001888823,-0.003225011,-0.007340870,0.999965025,0.000000000,0.000000000,0.000000000,0.000000000,0.000000000,0.000000000,-0.841083176,0.000000000,4.170087814
1772681268.422890425,0.017274000,0.006212000,0.055194000,-0.002506750,0.003479660,-0.011322250,0.999926700,-0.005092000,0.006902000,-0.022663000,0.000096905,0.000094477,-0.000017637,-0.001281182,0.005234073,0.004204867,0.009926173,-0.004322390,0.998369258,0.003408903,0.000044151,0.000158513,0.000000000,0.000000000,0.000000000,0.000000000,0.017557189,0.006232306,0.055157702,0.014863689,0.000337198,-0.001591002,0.004484097,-0.000240506,-0.001695878,-0.214986309,0.370706571,-0.838331451,-0.001899713,-0.003221206,-0.007321768,0.999965208,0.000000000,0.000000000,0.000000000,0.000000000,0.000000000,0.000000000,-0.839422316,0.000000000,4.170087814
1772681268.432891130,0.017276000,0.006220000,0.055191000,-0.002554060,0.003534110,-0.011338640,0.999926210,-0.005188000,0.007010000,-0.022696000,-0.000054347,0.000094923,-0.000062583,-0.002262369,-0.000893375,0.007349425,0.010848377,-0.004350928,0.998348653,-0.000535492,-0.001203334,-0.000760306,0.000000000,0.000000000,0.000000000,0.000000000,0.017557834,0.006231954,0.055156524,0.014967571,0.000298190,-0.001668363,0.004433348,-0.000305477,-0.001693037,-0.214924052,0.370063060,-0.837396227,-0.001899103,-0.003215609,-0.007313595,0.999965294,0.000000000,0.000000000,0.000000000,0.000000000,0.000000000,0.000000000,-0.837872488,0.000000000,4.170087814
1772681268.442891836,0.017275000,0.006231000,0.055190000,-0.002510300,0.003387890,-0.011189860,0.999928500,-0.005096000,0.006719000,-0.022397000,0.000012295,0.000069731,0.000054289,0.000098809,-0.006247033,0.008540764,0.011788741,-0.002806721,0.996867196,0.001284064,0.001132771,0.001521881,0.000000000,0.000000000,0.000000000,0.000000000,0.017560346,0.006230878,0.055154367,0.015129623,0.000304717,-0.001793052,0.005148638,0.000389710,-0.002746169,-0.213796540,0.370226746,-0.835933501,-0.001889233,-0.003217134,-0.007300801,0.999965356,0.000000000,0.000000000,0.000000000,0.000000000,0.000000000,0.000000000,-0.836449597,0.000000000,4.170087814
1772681268.452891827,0.017265000,0.006234000,0.055183000,-0.002541920,0.003540030,-0.011132040,0.999928540,-0.005162000,0.007023000,-0.022283000,0.000039838,-0.000042246,0.000108384,0.000820571,-0.014173790,0.005938359,0.012128062,-0.004032669,0.997008157,-0.001409917,-0.001342294,0.001185456,0.000000000,0.000000000,0.000000000,0.000000000,0.017630768,0.006230819,0.055145058,0.015502336,0.000383651,-0.002077930,0.005932275,0.000453829,-0.003368064,-0.213385682,0.368062356,-0.834338251,-0.001885465,-0.003198299,-0.007286834,0.999965517,0.000000000,0.000000000,0.000000000,0.000000000,0.000000000,0.000000000,-0.834864724,0.000000000,4.170087814
1772681268.462892294,0.017277000,0.006220000,0.055187000,-0.002613870,0.003237060,-0.011158580,0.999929090,-0.005300000,0.006415000,-0.022335000,0.000181281,-0.000071265,-0.000006837,0.001210499,-0.009156411,-0.001515976,0.012569845,-0.004966298,1.000134191,0.003313496,-0.001202366,0.000381454,0.000000000,0.000000000,0.000000000,0.000000000,0.017615748,0.006231648,0.055146679,0.015613428,0.000281848,-0.002161226,0.006007940,-0.001580485,-0.001000724,-0.212773297,0.365845671,-0.833530199,-0.001879958,-0.003179008,-0.007279730,0.999965660,0.000000000,0.000000000,0.000000000,0.000000000,0.000000000,0.000000000,-0.833772476,0.000000000,4.170087814
1772681268.472893476,0.017275000,0.006213000,0.055191000,-0.002542080,0.003293850,-0.011189210,0.999928740,-0.005158000,0.006530000,-0.022396000,0.000141385,-0.000183981,0.000073499,0.001742229,0.001857004,-0.009049793,0.010498273,-0.003948549,1.000439632,0.001161001,0.002228067,-0.002797015,0.000000000,0.000000000,0.000000000,0.000000000,0.017551145,0.006233034,0.055154935,0.015614900,0.000193847,-0.002031628,0.005081378,-0.000235792,0.000717435,-0.211844116,0.366559557,-0.832753871,-0.001871874,-0.003185309,-0.007272941,0.999965730,0.000000000,0.000000000,0.000000000,0.000000000,0.000000000,0.000000000,-0.832978302,0.000000000,4.170087814
1772681268.482894421,0.017280000,0.006224000,0.055200000,-0.002449390,0.003338820,-0.011276900,0.999927840,-0.004974000,0.006622000,-0.022571000,0.000074431,-0.000001981,-0.000047938,0.000639497,0.011584810,-0.013059943,0.012300277,-0.004744502,1.000596850,-0.000236140,0.000631709,-0.001544083,0.000000000,0.000000000,0.000000000,0.000000000,0.017567112,0.006229802,0.055153706,0.015836108,0.000139225,-0.001881451,0.005154801,-0.000797976,0.000701322,-0.211168148,0.365174800,-0.832252013,-0.001865874,-0.003173276,-0.007268521,0.999965786,0.000000000,0.000000000,0.000000000,0.000000000,0.000000000,0.000000000,-0.832439784,0.000000000,4.170307372
1772681268.492894411,0.017276000,0.006222000,0.055187000,-0.002530040,0.003298160,-0.011306270,0.999927440,-0.005134000,0.006539000,-0.022630000,-0.000212456,0.000194101,-0.000188293,-0.000302300,0.016138934,-0.011423057,0.010817548,-0.003575285,0.997453643,0.001787317,0.001370672,0.001068805,0.000000000,0.000000000,0.000000000,0.000000000,0.017579913,0.006226209,0.055151739,0.016058425,0.000067753,-0.001874785,0.004788041,-0.000246166,-0.001294645,-0.211273326,0.363163160,-0.831537638,-0.001866644,-0.003155727,-0.007262258,0.999965906,0.000000000,0.000000000,0.000000000,0.000000000,0.000000000,0.000000000,-0.831740321,0.000000000,4.170765162
1772681268.502895117,0.017281000,0.006228000,0.055181000,-0.002542200,0.003636600,-0.011383620,0.999925360,-0.005167000,0.007215000,-0.022787000,-0.000252488,0.000109549,-0.000130041,0.000562705,0.014476062,-0.005021508,0.009533774,-0.003220551,0.998130331,0.000350584,-0.000535001,-0.001479527,0.000000000,0.000000000,0.000000000,0.000000000,0.017583569,0.006221885,0.055151521,0.016116842,0.000114150,-0.001984434,0.003411160,-0.000023999,-0.002579215,-0.211146969,0.362700351,-0.831181987,-0.001865502,-0.003151702,-0.007259144,0.999965924,0.000000000,0.000000000,0.000000000,0.000000000,0.000000000,0.000000000,-0.831278244,0.000000000,4.171222986
1772681268.512895107,0.017265000,0.006224000,0.055189000,-0.002549670,0.003598100,-0.011395200,0.999925350,-0.005181000,0.007138000,-0.022810000,-0.000032651,-0.000087873,-0.000019618,0.000191408,-0.001005387,0.001935478,0.010738717,-0.004520323,0.997540611,0.000742818,0.000339126,0.001048434,0.000000000,0.000000000,0.000000000,0.000000000,0.017587318,0.006215632,0.055149780,0.016062038,0.000035212,-0.002270325,0.004165795,-0.000871573,-0.003142164,-0.211364721,0.361200137,-0.830774288,-0.001867297,-0.003138604,-0.007255568,0.999965995,0.000000000,0.000000000,0.000000000,0.000000000,0.000000000,0.000000000,-0.830936575,0.000000000,4.171680776
1772681268.522895813,0.017271000,0.006226000,0.055183000,-0.002525520,0.003522600,-0.011352780,0.999926160,-0.005131000,0.006987000,-0.022724000,0.000044985,-0.000019832,0.000124583,0.002672702,-0.013119142,0.006924820,0.012892073,-0.003306668,1.001483007,0.000127089,0.000514466,0.001881293,0.000000000,0.000000000,0.000000000,0.000000000,0.017591329,0.006216704,0.055144610,0.016275149,-0.000025752,-0.002289878,0.006379857,0.000403675,0.001115922,-0.211105007,0.361321939,-0.828893247,-0.001864986,-0.003139714,-0.007239149,0.999966114,0.000000000,0.000000000,0.000000000,0.000000000,0.000000000,0.000000000,-0.829624895,0.000000000,4.172138599
1772681268.532896519,0.017267000,0.006220000,0.055189000,-0.002513010,0.003452640,-0.011334630,0.999926640,-0.005104000,0.006848000,-0.022687000,0.000124680,0.000057688,0.000275816,0.004697814,-0.019927856,0.009443542,0.012465109,-0.004597224,1.000364415,-0.001783596,-0.001071952,-0.000553732,0.000000000,0.000000000,0.000000000,0.000000000,0.017593370,0.006222676,0.055142002,0.016556142,0.000015470,-0.002069963,0.005982990,-0.000469008,0.001411323,-0.211398568,0.359367867,-0.828015976,-0.001867401,-0.003122657,-0.007231470,0.999966196,0.000000000,0.000000000,0.000000000,0.000000000,0.000000000,0.000000000,-0.828216222,0.000000000,4.172596422
1772681268.542897701,0.017287000,0.006217000,0.055199000,-0.002416080,0.003230010,-0.011199940,0.999929140,-0.004904000,0.006405000,-0.022416000,0.000237124,0.000074354,0.000072703,0.001872664,-0.022687773,0.009278789,0.011697358,-0.005390608,0.998284438,-0.002775403,0.002150931,0.000621349,0.000000000,0.000000000,0.000000000,0.000000000,0.017593928,0.006225989,0.055142563,0.016690077,-0.000036829,-0.001972683,0.005556514,-0.001800863,-0.000594067,-0.212447802,0.358866308,-0.828251294,-0.001876532,-0.003118210,-0.007233544,0.999966206,0.000000000,0.000000000,0.000000000,0.000000000,0.000000000,0.000000000,-0.828245884,0.000000000,4.173054267
1772681268.552898407,0.017278000,0.006230000,0.055187000,-0.002504400,0.003178390,-0.011211240,0.999928960,-0.005080000,0.006300000,-0.022439000,0.000172968,0.000107724,-0.000078258,-0.000214934,-0.013917800,0.004889327,0.011849092,-0.005593961,0.997632192,-0.002596756,0.002099072,-0.000388441,0.000000000,0.000000000,0.000000000,0.000000000,0.017594444,0.006225826,0.055143732,0.016730777,-0.000078628,-0.001970444,0.005529724,-0.001947590,-0.001140771,-0.212530278,0.358676439,-0.828024108,-0.001877233,-0.003116552,-0.007231561,0.999966237,0.000000000,0.000000000,0.000000000,0.000000000,0.000000000,0.000000000,-0.828095008,0.000000000,4.173512090
1772681268.562898874,0.017273000,0.006234000,0.055190000,-0.002488900,0.003163510,-0.011227040,0.999928870,-0.005049000,0.006271000,-0.022471000,-0.000082492,-0.000111822,-0.000077559,-0.002704882,-0.005830571,-0.000665684,0.012027097,-0.005798268,0.997018149,-0.002382815,0.001919043,-0.001475751,0.000000000,0.000000000,0.000000000,0.000000000,0.017594961,0.006225664,0.055144901,0.016771476,-0.000120426,-0.001968205,0.005502934,-0.002094314,-0.001687462,-0.212612751,0.358486573,-0.827796927,-0.001877935,-0.003114894,-0.007229578,0.999966268,0.000000000,0.000000000,0.000000000,0.000000000,0.000000000,0.000000000,-0.827870926,0.000000000,4.173969903
1772681268.572899103,0.017276000,0.006218000,0.055190000,-0.002506330,0.003211140,-0.011200280,0.999928980,-0.005084000,0.006366000,-0.022417000,-0.000096302,-0.000309846,-0.000129595,-0.003043063,0.002281635,-0.003705665,0.012205098,-0.006002569,0.996404121,-0.002168879,0.001739019,-0.002563035,0.000000000,0.000000000,0.000000000,0.000000000,0.017595477,0.006225502,0.055146070,0.016812174,-0.000162223,-0.001965966,0.005476145,-0.002241034,-0.002234140,-0.212695223,0.358296713,-0.827569752,-0.001878636,-0.003113235,-0.007227595,0.999966299,0.000000000,0.000000000,0.000000000,0.000000000,0.000000000,0.000000000,-0.827646849,0.000000000,4.174427704
1772681268.582899809,0.017282000,0.006222000,0.055184000,-0.002534240,0.003134530,-0.011249280,0.999928600,-0.005139000,0.006212000,-0.022515000,-0.000055280,-0.000450357,-0.000076316,-0.003175727,0.005483171,-0.007838510,0.012269415,-0.005850176,0.996198785,-0.001522030,0.002003967,-0.002861358,0.000000000,0.000000000,0.000000000,0.000000000,0.017601440,0.006221620,0.055148553,0.016973327,-0.000383733,-0.002150409,0.005996115,-0.001755785,-0.003612233,-0.213138140,0.357868993,-0.827031136,-0.001882460,-0.003109484,-0.007222900,0.999966323,0.000000000,0.000000000,0.000000000,0.000000000,0.000000000,0.000000000,-0.827422762,0.000000000,4.174885527
1772681268.592900038,0.017270000,0.006216000,0.055189000,-0.002516930,0.003193740,-0.011296690,0.999927920,-0.005106000,0.006330000,-0.022610000,0.000115143,-0.000270202,-0.000057339,-0.002826321,0.002301985,-0.006609709,0.011937580,-0.003141558,0.999139781,0.001316522,0.003877623,0.001753228,0.000000000,0.000000000,0.000000000,0.000000000,0.017604382,0.006217547,0.055150523,0.017190449,-0.000474923,-0.002386724,0.005493026,0.000755783,-0.002147175,-0.214017521,0.357665465,-0.826309033,-0.001890101,-0.003107664,-0.007216619,0.999966323,0.000000000,0.000000000,0.000000000,0.000000000,0.000000000,0.000000000,-0.826393454,0.000000000,4.175343328
1772681268.602900505,0.017277000,0.006208000,0.055189000,-0.002555730,0.003274510,-0.011327570,0.999927210,-0.005185000,0.006491000,-0.022673000,-0.000040285,0.000139287,-0.000170229,-0.005045982,0.005252929,-0.005063111,0.011428147,-0.002054787,1.000589690,-0.000341108,0.000344689,-0.000133292,0.000000000,0.000000000,0.000000000,0.000000000,0.017607833,0.006213555,0.055144397,0.017344774,-0.000310330,-0.002355920,0.005380208,0.001101530,0.001136980,-0.214294580,0.355960783,-0.825585550,-0.001892392,-0.003092783,-0.007210286,0.999966412,0.000000000,0.000000000,0.000000000,0.000000000,0.000000000,0.000000000,-0.825886177,0.000000000,4.174827979
1772681268.612900496,0.017280000,0.006215000,0.055186000,-0.002548370,0.003265880,-0.011319990,0.999927350,-0.005170000,0.006474000,-0.022657000,-0.000055202,0.000349412,-0.000122486,-0.005183622,0.006574081,-0.004087770,0.010493857,-0.003179491,1.000697457,-0.000842945,-0.001466470,0.000338273,0.000000000,0.000000000,0.000000000,0.000000000,0.017607706,0.006222371,0.055141840,0.017372503,-0.000121698,-0.002159779,0.004194665,0.001135941,0.000716097,-0.213439222,0.354905572,-0.823979387,-0.001884819,-0.003083655,-0.007196229,0.999966542,0.000000000,0.000000000,0.000000000,0.000000000,0.000000000,0.000000000,-0.824530400,0.000000000,4.174261007
1772681268.622900724,0.017278000,0.006223000,0.055182000,-0.002613640,0.003217740,-0.011412380,0.999926280,-0.005300000,0.006375000,-0.022842000,-0.000054561,0.000376120,0.000075752,-0.003710687,0.010728818,-0.002428074,0.010169746,-0.004780240,0.999339200,0.002661716,0.000025737,-0.000708613,0.000000000,0.000000000,0.000000000,0.000000000,0.017606277,0.006229461,0.055142796,0.017311800,-0.000112777,-0.002020082,0.004290187,-0.001250019,0.000038822,-0.215360108,0.353613430,-0.824002277,-0.001901501,-0.003072258,-0.007196460,0.999966562,0.000000000,0.000000000,0.000000000,0.000000000,0.000000000,0.000000000,-0.823971227,0.000000000,4.173694021
