t,px,py,pz,qx,qy,qz,qw,roll,pitch,yaw,vx,vy,vz,wx_vicon,wy_vicon,wz_vicon,imu_acc_x,imu_acc_y,imu_acc_z,imu_gyro_x,imu_gyro_y,imu_gyro_z,motor_motor_m1,motor_motor_m2,motor_motor_m3,motor_motor_m4,est_stateEstimate_x,est_stateEstimate_y,est_stateEstimate_z,est_stateEstimate_vx,est_stateEstimate_vy,est_stateEstimate_vz,est_stateEstimate_ax,est_stateEstimate_ay,est_stateEstimate_az,att_stateEstimate_roll,att_stateEstimate_pitch,att_stateEstimate_yaw,att_stateEstimate_qx,att_stateEstimate_qy,att_stateEstimate_qz,att_stateEstimate_qw,sp_ctrltarget_x,sp_ctrltarget_y,sp_ctrltarget_z,sp_ctrltarget_yaw,pid_controller_roll,pid_controller_pitch,pid_controller_yaw,pid_controller_cmd_thrust,pwr_pm_vbat
1772681685.527483940,0.014107000,0.004357000,0.055329000,0.010896570,0.018734460,0.011896730,0.999694330,0.022249000,0.037207000,0.024214000,-0.004109268,-0.004570493,0.007511323,-0.116657146,0.146745931,-0.037942054,0.002763579,-0.002852992,0.997915221,-0.001949548,0.002674798,-0.001444648,0.000000000,0.000000000,0.000000000,0.000000000,0.014763177,0.004075193,0.055330762,0.033377869,-0.014349250,-0.000166333,0.008354391,-0.004314115,-0.002154492,0.076135348,-0.292173166,0.927579166,0.000643743,0.002554986,0.008092837,0.999962754,0.000000000,0.000000000,0.000000000,0.000000000,0.000000000,0.000000000,0.927510601,0.000000000,4.059237480
1772681685.537483931,0.014118000,0.004352000,0.055326000,0.010911430,0.018590030,0.011928810,0.999696480,0.022277000,0.036917000,0.024275000,-0.002449206,-0.002562662,0.004801776,-0.171990920,0.233683442,-0.072752178,0.003010428,-0.002813573,0.999188340,-0.002079679,-0.001919507,-0.001138918,0.000000000,0.000000000,0.000000000,0.000000000,0.014766068,0.004070166,0.055328814,0.033413316,-0.014510654,-0.000396318,0.008262970,-0.004050197,-0.001245500,0.074874993,-0.293478651,0.926784619,0.000632670,0.002566285,0.008085924,0.999962754,0.000000000,0.000000000,0.000000000,0.000000000,0.000000000,0.000000000,0.927364613,0.000000000,4.059237480
1772681685.547483921,0.014037000,0.004300000,0.055444000,0.009204800,0.020838920,0.011231330,0.999677380,0.018889000,0.041470000,0.022861000,-0.001033771,-0.001012385,0.002371820,-0.165963441,0.226375434,-0.075391124,0.004079328,-0.002834204,0.999829975,-0.000356944,-0.000904100,0.000254575,0.000000000,0.000000000,0.000000000,0.000000000,0.014766473,0.004068301,0.055328500,0.033405979,-0.014575445,-0.000482908,0.009512781,-0.004346182,-0.000100372,0.074945104,-0.293085571,0.925971185,0.000633328,0.002562855,0.008078827,0.999962814,0.000000000,0.000000000,0.000000000,0.000000000,0.000000000,0.000000000,0.926805425,0.000000000,4.059237480
1772681685.557484627,0.014049000,0.004290000,0.055458000,0.008150680,0.022417230,0.010879630,0.999656270,0.016801000,0.044657000,0.022141000,0.000109766,0.000112504,0.000306066,-0.116821915,0.153493448,-0.055189745,0.005091851,-0.002841938,1.000453839,0.001260862,0.000161984,0.001560819,0.000000000,0.000000000,0.000000000,0.000000000,0.014766579,0.004067602,0.055327552,0.033404278,-0.014624344,-0.000524503,0.010249612,-0.004540875,0.000136423,0.075162596,-0.293088380,0.925658473,0.000635233,0.002562893,0.008076093,0.999962875,0.000000000,0.000000000,0.000000000,0.000000000,0.000000000,0.000000000,0.926332273,0.000000000,4.059237480
1772681685.567484379,0.014109000,0.004337000,0.055350000,0.008982070,0.021060420,0.011111250,0.999676110,0.018444000,0.041920000,0.022615000,0.000954132,0.000844172,-0.001310875,-0.042949801,0.043653967,-0.021363965,0.003515847,-0.002360748,1.000504035,-0.001718005,0.000970986,0.000086651,0.000000000,0.000000000,0.000000000,0.000000000,0.014738025,0.004038705,0.055384237,0.033514770,-0.014802468,-0.000235465,0.008986412,-0.003712695,0.000448594,0.075084048,-0.293464850,0.925131875,0.000634533,0.002566169,0.008071497,0.999962926,0.000000000,0.000000000,0.000000000,0.000000000,0.000000000,0.000000000,0.925747658,0.000000000,4.059237480
1772681685.577485085,0.014052000,0.004307000,0.055450000,0.007841400,0.022729970,0.010670660,0.999653940,0.016180000,0.045292000,0.021714000,0.001472056,0.001214784,-0.002394391,0.037467359,-0.074448592,0.016677862,0.002749386,-0.001843470,1.000269016,-0.002007893,-0.002584933,0.002065267,0.000000000,0.000000000,0.000000000,0.000000000,0.014712663,0.004022119,0.055437999,0.033621052,-0.014891186,0.000037087,0.007779531,-0.002976146,-0.000022701,0.074992496,-0.293929183,0.924226418,0.000633721,0.002570210,0.008063595,0.999962946,0.000000000,0.000000000,0.000000000,0.000000000,0.000000000,0.000000000,0.924914255,0.000000000,4.059237480
1772681685.587485552,0.014105000,0.004346000,0.055354000,0.008824830,0.021054810,0.011058760,0.999678210,0.018127000,0.041913000,0.022504000,0.001729678,0.001370332,-0.003012039,0.099960420,-0.161731496,0.046857159,0.005597537,-0.001535054,1.000036059,-0.002672440,-0.000865568,0.000170120,0.000000000,0.000000000,0.000000000,0.000000000,0.014692500,0.004012658,0.055464987,0.033575089,-0.014840504,0.000168490,0.010323591,-0.002797210,0.000060162,0.074800915,-0.293100339,0.923604312,0.000632122,0.002562960,0.008058175,0.999963013,0.000000000,0.000000000,0.000000000,0.000000000,0.000000000,0.000000000,0.924012286,0.000000000,4.059237480
1772681685.597486496,0.014114000,0.004350000,0.055335000,0.009495020,0.019991860,0.011356440,0.999690550,0.019455000,0.039766000,0.023106000,0.000816803,0.000663236,-0.001684381,0.105166548,-0.157845328,0.048216459,0.005607404,-0.003403790,0.999940490,-0.002159169,0.000752030,0.000065707,0.000000000,0.000000000,0.000000000,0.000000000,0.014694260,0.004013908,0.055455403,0.033854184,-0.014683047,0.000099935,0.010602699,-0.004738149,-0.000397213,0.073570718,-0.293068257,0.922873733,0.000621405,0.002562590,0.008051828,0.999963113,0.000000000,0.000000000,0.000000000,0.000000000,0.000000000,0.000000000,0.922823077,0.000000000,4.059237480
1772681685.607486725,0.014127000,0.004353000,0.055323000,0.010022780,0.019247850,0.011627610,0.999696890,0.020504000,0.038260000,0.023654000,0.000867928,0.000540107,-0.001541983,0.114375699,-0.151529346,0.051263076,0.004718643,-0.002523948,1.001050462,0.000292750,-0.001041512,-0.000517125,0.000000000,0.000000000,0.000000000,0.000000000,0.014725818,0.004036735,0.055408146,0.034263607,-0.014659098,-0.000126008,0.010627591,-0.004243184,0.001505115,0.072668842,-0.292895927,0.921432051,0.000613580,0.002561015,0.008039268,0.999963205,0.000000000,0.000000000,0.000000000,0.000000000,0.000000000,0.000000000,0.922595143,0.000000000,4.059237480
1772681685.617487907,0.014119000,0.004352000,0.055328000,0.010385340,0.019106890,0.011713060,0.999694890,0.021229000,0.037968000,0.023835000,0.000581403,0.000175458,-0.000946382,0.102640750,-0.122167699,0.043116143,0.005070925,-0.002244224,1.000824103,-0.000414911,0.001227507,0.000142254,0.000000000,0.000000000,0.000000000,0.000000000,0.014731153,0.004037906,0.055411629,0.034508856,-0.014722856,-0.000038493,0.009516087,-0.002473071,0.000430726,0.072388548,-0.292166873,0.920561365,0.000611204,0.002554629,0.008031681,0.999963315,0.000000000,0.000000000,0.000000000,0.000000000,0.000000000,0.000000000,0.920490464,0.000000000,4.059237480
1772681685.627488852,0.014120000,0.004352000,0.055325000,0.010616120,0.018710480,0.011828500,0.999698610,0.021685000,0.037167000,0.024066000,-0.000906426,-0.000831041,0.001927882,0.015811766,0.010970586,0.006019299,0.004780166,-0.003274795,1.000417842,-0.000530678,0.001960644,0.000162716,0.000000000,0.000000000,0.000000000,0.000000000,0.014749775,0.004040321,0.055397463,0.034725062,-0.014670246,-0.000000096,0.011677112,-0.004458311,0.000322705,0.072085038,-0.293102985,0.919833575,0.000608506,0.002562773,0.008025332,0.999963343,0.000000000,0.000000000,0.000000000,0.000000000,0.000000000,0.000000000,0.919740636,0.000000000,4.059237480
1772681685.637488842,0.014118000,0.004347000,0.055337000,0.010821560,0.018706770,0.011818330,0.999696590,0.022096000,0.037155000,0.024053000,-0.001614824,-0.001138758,0.003134042,-0.066730882,0.118260591,-0.030102516,0.002478719,-0.003234680,1.001937063,-0.000202655,0.001279748,-0.000186244,0.000000000,0.000000000,0.000000000,0.000000000,0.014737911,0.004017871,0.055435682,0.034896357,-0.014763972,0.000181509,0.008095010,-0.003764080,0.001408398,0.072367496,-0.292701296,0.918329002,0.000611033,0.002559279,0.008012198,0.999963434,0.000000000,0.000000000,0.000000000,0.000000000,0.000000000,0.000000000,0.919654590,0.000000000,4.059237480
1772681685.647489548,0.014118000,0.004351000,0.055335000,0.010909760,0.018654050,0.011905200,0.999695590,0.022274000,0.037045000,0.024229000,-0.002742879,-0.001818582,0.004666934,-0.167387789,0.244907053,-0.074194242,0.002981564,-0.002272712,1.001228819,-0.003044330,-0.003050443,-0.001513475,0.000000000,0.000000000,0.000000000,0.000000000,0.014723152,0.004011172,0.055461897,0.034895891,-0.014822306,0.000397567,0.007638715,-0.003497282,0.002048325,0.070726499,-0.292102331,0.917005482,0.000596784,0.002553930,0.008000689,0.999963564,0.000000000,0.000000000,0.000000000,0.000000000,0.000000000,0.000000000,0.918028919,0.000000000,4.059237480
1772681685.657490015,0.014056000,0.004294000,0.055452000,0.009159560,0.021048240,0.011257150,0.999673120,0.018805000,0.041889000,0.022915000,-0.002016631,-0.001234577,0.003146861,-0.195458219,0.264301796,-0.083960279,0.005276556,-0.003322260,1.000605378,-0.002711320,0.001016297,0.001465042,0.000000000,0.000000000,0.000000000,0.000000000,0.014446533,0.004125411,0.055469875,0.033723484,-0.014249760,0.000588980,0.009823730,-0.003532247,0.000224364,0.068715096,-0.290658912,0.915418975,0.000579368,0.002541186,0.007986897,0.999963699,0.000000000,0.000000000,0.000000000,0.000000000,0.000000000,0.000000000,0.917052472,0.000000000,4.059237480
1772681685.667490244,0.014036000,0.004297000,0.055486000,0.007782740,0.022884230,0.010738150,0.999650160,0.016069000,0.045601000,0.021849000,-0.001662121,-0.000770749,0.002113829,-0.192716156,0.253543363,-0.083135828,0.004578841,-0.003481729,0.999383549,-0.002153129,-0.001772317,-0.001674019,0.000000000,0.000000000,0.000000000,0.000000000,0.014525277,0.004093177,0.055474524,0.033780209,-0.014161580,0.000632275,0.010076313,-0.004378978,-0.000050460,0.062900687,-0.282387916,0.916991556,0.000529172,0.002468613,0.008000790,0.999963777,0.000000000,0.000000000,0.000000000,0.000000000,0.000000000,0.000000000,0.917006043,0.000000000,4.059237480
1772681685.677491188,0.014021000,0.004294000,0.055485000,0.006788030,0.024054160,0.010248770,0.999635070,0.014081000,0.047970000,0.020842000,-0.000034148,0.000520838,-0.000697481,-0.108087657,0.130479353,-0.047892657,0.004674442,-0.004169124,0.998636503,0.001466041,0.003094106,0.000490229,0.000000000,0.000000000,0.000000000,0.000000000,0.014651040,0.004039660,0.055481143,0.034427747,-0.014403920,0.000594449,0.009392443,-0.005407000,-0.001459584,0.062268110,-0.281132680,0.916440246,0.000523752,0.002457612,0.007995999,0.999963880,0.000000000,0.000000000,0.000000000,0.000000000,0.000000000,0.000000000,0.916623712,0.000000000,4.059237480
1772681685.687491894,0.014022000,0.004289000,0.055470000,0.006326730,0.024579790,0.010072750,0.999627100,0.013160000,0.049033000,0.020475000,0.001241958,0.000999914,-0.002369645,-0.001670106,-0.006603789,-0.007594485,0.004963229,-0.004449483,0.999416567,0.001721081,-0.001143573,0.000902262,0.000000000,0.000000000,0.000000000,0.000000000,0.014734512,0.004050057,0.055406899,0.034911715,-0.014563114,0.000130364,0.009969426,-0.005532589,-0.000404706,0.062751931,-0.279689260,0.915826762,0.000528088,0.002445048,0.007990642,0.999963910,0.000000000,0.000000000,0.000000000,0.000000000,0.000000000,0.000000000,0.915868872,0.000000000,4.059237480
1772681685.697492361,0.014106000,0.004352000,0.055340000,0.007831270,0.022394160,0.010722270,0.999661050,0.016154000,0.044620000,0.021811000,0.001700717,0.000782228,-0.002397091,0.072901784,-0.097327599,0.025254847,0.004445529,-0.001806544,0.999871881,-0.000336823,0.000340224,0.003395195,0.000000000,0.000000000,0.000000000,0.000000000,0.014770921,0.004050273,0.055379209,0.035145738,-0.014838677,-0.000086026,0.009649944,-0.003109778,-0.000473955,0.062842406,-0.278270067,0.914117464,0.000529013,0.002432662,0.007975732,0.999964085,0.000000000,0.000000000,0.000000000,0.000000000,0.000000000,0.000000000,0.914047544,0.000000000,4.059237480
1772681685.707492352,0.014043000,0.004311000,0.055449000,0.007237720,0.023469520,0.010401180,0.999644240,0.014975000,0.046789000,0.021159000,0.000661954,-0.000206711,-0.000287768,0.064908292,-0.071606686,0.020231780,0.005716269,-0.000725135,0.999968712,-0.000148906,-0.000872774,0.000384801,0.000000000,0.000000000,0.000000000,0.000000000,0.014768951,0.004048095,0.055379524,0.035185100,-0.014815161,-0.000119164,0.010596818,-0.002015694,0.000127128,0.062377637,-0.277394298,0.913945621,0.000525021,0.002424986,0.007974246,0.999964076,0.000000000,0.000000000,0.000000000,0.000000000,0.000000000,0.000000000,0.913793545,0.000000000,4.059237480
1772681685.717492819,0.014112000,0.004349000,0.055351000,0.008674110,0.021584560,0.010885910,0.999670130,0.017830000,0.042979000,0.022161000,-0.000522819,-0.000635848,0.001491131,0.014347498,-0.000082252,-0.001799663,0.005165307,-0.002365309,1.000626465,0.001960222,0.004350395,0.000531945,0.000000000,0.000000000,0.000000000,0.000000000,0.014756023,0.004044565,0.055396120,0.035261655,-0.014640050,-0.000058542,0.010447479,-0.002645319,0.000388086,0.062220490,-0.277983741,0.912754205,0.000523634,0.002430114,0.007963850,0.999964222,0.000000000,0.000000000,0.000000000,0.000000000,0.000000000,0.000000000,0.912732124,0.000000000,4.059237480
1772681685.727493525,0.014057000,0.004283000,0.055457000,0.007820390,0.022874140,0.010502540,0.999652600,0.016133000,0.045584000,0.021379000,-0.001450942,-0.000909437,0.002378424,-0.046905409,0.071393975,-0.027005504,0.005097396,-0.003325934,0.999963531,-0.000962495,-0.000376545,0.003545952,0.000000000,0.000000000,0.000000000,0.000000000,0.014732125,0.004023810,0.055442825,0.035343405,-0.014581135,0.000187875,0.009904343,-0.004168965,-0.000021416,0.062040876,-0.280924370,0.912751802,0.000521863,0.002455762,0.007963818,0.999964118,0.000000000,0.000000000,0.000000000,0.000000000,0.000000000,0.000000000,0.912795448,0.000000000,4.059237480
1772681685.737494230,0.014040000,0.004287000,0.055479000,0.007202160,0.023700650,0.010339010,0.999639690,0.014906000,0.047253000,0.021037000,-0.002142674,-0.001075066,0.002968801,-0.103881404,0.137673752,-0.049009664,0.004870031,-0.002982930,1.000094552,-0.000775912,-0.001561549,0.000285821,0.000000000,0.000000000,0.000000000,0.000000000,0.014714841,0.004018923,0.055472422,0.035405020,-0.014582586,0.000310286,0.010054593,-0.003783863,0.000442045,0.061430262,-0.280076747,0.912378466,0.000516601,0.002448322,0.007960577,0.999964164,0.000000000,0.000000000,0.000000000,0.000000000,0.000000000,0.000000000,0.912967622,0.000000000,4.059237480
1772681685.747494459,0.014021000,0.004299000,0.055476000,0.006728260,0.024297610,0.010019220,0.999631920,0.013955000,0.048461000,0.020383000,-0.000988318,-0.000106405,0.000848756,-0.084647997,0.092941980,-0.035833367,0.003894134,-0.003422440,0.999253545,0.002963344,0.001124897,-0.000809780,0.000000000,0.000000000,0.000000000,0.000000000,0.014764053,0.004040384,0.055411372,0.035655213,-0.014545429,0.000046004,0.008695210,-0.004664395,-0.000853405,0.061595047,-0.278648773,0.911290361,0.000518161,0.002435867,0.007951085,0.999964281,0.000000000,0.000000000,0.000000000,0.000000000,0.000000000,0.000000000,0.912277467,0.000000000,4.059237480
1772681685.757495403,0.014026000,0.004306000,0.055470000,0.006524510,0.024244560,0.010034580,0.999634400,0.013547000,0.048359000,0.020403000,0.000664499,0.000747595,-0.001309360,-0.015898589,-0.001167775,-0.001581429,0.003478518,-0.003627138,0.999482498,0.001247174,0.002867629,0.002041986,0.000000000,0.000000000,0.000000000,0.000000000,0.014799637,0.004054858,0.055372411,0.035772728,-0.014532267,-0.000154747,0.008730447,-0.005008720,-0.000556178,0.062280052,-0.278857045,0.910938860,0.000524132,0.002437730,0.007948003,0.999964330,0.000000000,0.000000000,0.000000000,0.000000000,0.000000000,0.000000000,0.911219485,0.000000000,4.059237480
1772681685.767495632,0.014032000,0.004299000,0.055467000,0.006529190,0.024165770,0.010071690,0.999635910,0.013557000,0.048201000,0.020477000,0.002110177,0.001168419,-0.002989643,0.073826398,-0.115827585,0.040154018,0.004284591,-0.003563288,0.998515561,-0.001119667,0.000097965,0.001068610,0.000000000,0.000000000,0.000000000,0.000000000,0.014806179,0.004061078,0.055344569,0.035670245,-0.014629888,-0.000335655,0.009339213,-0.004272431,-0.001527068,0.062512121,-0.280125612,0.911223500,0.000526063,0.002448817,0.007950475,0.999964256,0.000000000,0.000000000,0.000000000,0.000000000,0.000000000,0.000000000,0.911126123,0.000000000,4.059237480
1772681685.777495861,0.014030000,0.004297000,0.055476000,0.006503240,0.024306560,0.010024640,0.999633140,0.013505000,0.048484000,0.020383000,0.002527349,0.001032935,-0.003344929,0.135058753,-0.190602809,0.067404460,0.004826568,-0.002813880,0.999217254,0.000275077,-0.003028612,-0.002293408,0.000000000,0.000000000,0.000000000,0.000000000,0.014803738,0.004067830,0.055334070,0.035587760,-0.014738144,-0.000506070,0.010006756,-0.004189060,-0.000509472,0.062383347,-0.278897630,0.909578018,0.000525059,0.002438085,0.007936125,0.999964380,0.000000000,0.000000000,0.000000000,0.000000000,0.000000000,0.000000000,0.911056480,0.000000000,4.059237480
1772681685.787496328,0.014116000,0.004342000,0.055344000,0.008219050,0.021806050,0.010807810,0.999670010,0.016921000,0.043434000,0.021989000,0.001973975,0.001039423,-0.002793090,0.157068569,-0.209173848,0.078437008,0.004519996,-0.003179285,0.999656885,-0.000097570,0.000119453,0.001337285,0.000000000,0.000000000,0.000000000,0.000000000,0.014771120,0.004044119,0.055382870,0.035534852,-0.014830655,-0.000387169,0.008663389,-0.003732094,-0.000715766,0.061978075,-0.277487704,0.907956422,0.000521655,0.002425746,0.007921991,0.999964510,0.000000000,0.000000000,0.000000000,0.000000000,0.000000000,0.000000000,0.909007995,0.000000000,4.059237480
1772681685.797497034,0.014146000,0.004354000,0.055321000,0.009524710,0.020373010,0.011413870,0.999681920,0.019526000,0.040527000,0.023230000,0.000560794,0.000421795,-0.001042531,0.121257360,-0.154931124,0.060285149,0.005643302,-0.003731111,1.001079325,-0.000986991,0.001992348,0.002235003,0.000000000,0.000000000,0.000000000,0.000000000,0.014774304,0.004042171,0.055378976,0.035532006,-0.014879646,-0.000446860,0.010190702,-0.004544878,0.000890358,0.061715878,-0.275784907,0.906832650,0.000519508,0.002410864,0.007912197,0.999964620,0.000000000,0.000000000,0.000000000,0.000000000,0.000000000,0.000000000,0.907679262,0.000000000,4.059237480
1772681685.807497501,0.014061000,0.004309000,0.055430000,0.008775970,0.021387020,0.011087870,0.999671260,0.018038000,0.042578000,0.022566000,-0.001614221,-0.000578372,0.001939925,0.017283583,-0.019807635,0.015355213,0.005965720,-0.002705369,1.001661068,0.001596705,0.002344101,-0.000211072,0.000000000,0.000000000,0.000000000,0.000000000,0.014755353,0.004026370,0.055415337,0.035553999,-0.014987589,-0.000221652,0.010810208,-0.003945042,0.001709591,0.061893312,-0.276388922,0.906452678,0.000521023,0.002416145,0.007908876,0.999964654,0.000000000,0.000000000,0.000000000,0.000000000,0.000000000,0.000000000,0.906649892,0.000000000,4.059237480
1772681685.817497492,0.014105000,0.004356000,0.055342000,0.009692320,0.020003990,0.011452120,0.999687330,0.019854000,0.039784000,0.023305000,-0.002604171,-0.001187882,0.003375017,-0.071989875,0.106930070,-0.027588576,0.004810711,-0.000385841,1.000960247,-0.001103757,-0.001261665,0.002261189,0.000000000,0.000000000,0.000000000,0.000000000,0.014760534,0.004027688,0.055411957,0.035739638,-0.014982640,-0.000074976,0.010064948,-0.001986100,0.001360655,0.061985002,-0.277231163,0.904512609,0.000521806,0.002423492,0.007891939,0.999964766,0.000000000,0.000000000,0.000000000,0.000000000,0.000000000,0.000000000,0.906051554,0.000000000,4.059237480
1772681685.827497959,0.014042000,0.004314000,0.055444000,0.008701150,0.021541550,0.011134460,0.999668080,0.017894000,0.042888000,0.022659000,-0.001568924,-0.000878281,0.002575152,-0.106235566,0.157582722,-0.046574136,0.004222180,-0.001912549,0.999815449,-0.001518391,0.002212212,0.000232234,0.000000000,0.000000000,0.000000000,0.000000000,0.014765164,0.004032158,0.055409275,0.035840145,-0.014776760,0.000025925,0.009050738,-0.002452387,-0.000193639,0.061861805,-0.276622404,0.904150318,0.000520781,0.002418170,0.007888785,0.999964829,0.000000000,0.000000000,0.000000000,0.000000000,0.000000000,0.000000000,0.904467471,0.000000000,4.059237480
1772681685.837498665,0.014025000,0.004285000,0.055485000,0.007687930,0.022790980,0.010733460,0.999653070,0.015877000,0.045417000,0.021834000,0.000658400,0.000081096,-0.000485273,-0.049207645,0.077197752,-0.023517028,0.005177535,-0.002253699,0.999953346,0.001512942,0.001156504,0.000062064,0.000000000,0.000000000,0.000000000,0.000000000,0.014754564,0.004024433,0.055435896,0.035817298,-0.014631202,0.000146512,0.009688728,-0.003478027,-0.000462888,0.061201012,-0.277623141,0.902676596,0.000514977,0.002426851,0.007875932,0.999964892,0.000000000,0.000000000,0.000000000,0.000000000,0.000000000,0.000000000,0.903867178,0.000000000,4.059237480
1772681685.847499847,0.014013000,0.004299000,0.055489000,0.006957900,0.023811070,0.010425470,0.999637900,0.014424000,0.047478000,0.021200000,0.002623498,0.001263597,-0.003373716,0.058179284,-0.070547561,0.024028626,0.004838102,-0.003344648,1.002027059,0.000265233,0.002125169,0.000503304,0.000000000,0.000000000,0.000000000,0.000000000,0.014745365,0.004014395,0.055457903,0.035853576,-0.014576142,0.000196991,0.009894295,-0.003455357,0.000912997,0.061682699,-0.277881215,0.901564340,0.000519186,0.002429131,0.007866216,0.999964952,0.000000000,0.000000000,0.000000000,0.000000000,0.000000000,0.000000000,0.902445494,0.000000000,4.059237480
1772681685.857500076,0.014111000,0.004339000,0.055363000,0.008489610,0.022095770,0.010953150,0.999659810,0.017475000,0.044005000,0.022297000,0.001892724,0.001019727,-0.002709333,0.095690271,-0.129687282,0.038269899,0.004596315,-0.004119057,1.002324311,-0.001321135,-0.000545143,-0.000679120,0.000000000,0.000000000,0.000000000,0.000000000,0.014745542,0.004013395,0.055464706,0.035955906,-0.014542225,0.000297640,0.009468373,-0.004527184,0.002344507,0.061717538,-0.278072218,0.900254587,0.000519504,0.002430794,0.007854784,0.999965025,0.000000000,0.000000000,0.000000000,0.000000000,0.000000000,0.000000000,0.901287242,0.000000000,4.059237480
1772681685.867501020,0.014154000,0.004357000,0.055323000,0.009413690,0.020637560,0.011363060,0.999678130,0.019308000,0.041059000,0.023129000,0.001884488,0.001348966,-0.003263814,0.138889772,-0.202342716,0.056444652,0.004561270,-0.003120072,1.000162595,-0.001491930,0.000855775,0.001528939,0.000000000,0.000000000,0.000000000,0.000000000,0.014774173,0.004038326,0.055413502,0.036079581,-0.014517866,0.000273127,0.009574034,-0.004309358,0.000642190,0.061480462,-0.277598060,0.899470838,0.000517485,0.002426637,0.007847953,0.999965131,0.000000000,0.000000000,0.000000000,0.000000000,0.000000000,0.000000000,0.899958732,0.000000000,4.059237480
1772681685.877501965,0.014115000,0.004349000,0.055328000,0.010161580,0.019580810,0.011613090,0.999689190,0.020789000,0.038923000,0.023637000,0.000213859,0.000322945,-0.000863421,0.096176562,-0.147903141,0.041970960,0.004742397,-0.003728314,0.999019909,0.001484575,0.003451067,0.001713236,0.000000000,0.000000000,0.000000000,0.000000000,0.014762381,0.004038796,0.055426808,0.036073205,-0.014565850,0.000418305,0.009247692,-0.004921735,-0.000949132,0.061886063,-0.277992957,0.899512805,0.000520996,0.002430111,0.007848308,0.999965112,0.000000000,0.000000000,0.000000000,0.000000000,0.000000000,0.000000000,0.899574533,0.000000000,4.059237480
1772681685.887502909,0.014119000,0.004365000,0.055324000,0.010575250,0.018855040,0.011824760,0.999696370,0.021607000,0.037457000,0.024060000,-0.001788417,-0.001083322,0.002426305,-0.016661020,0.005419421,-0.007172634,0.003502867,-0.004876004,1.000225923,0.001881538,-0.002538697,-0.001007710,0.000000000,0.000000000,0.000000000,0.000000000,0.014778123,0.004053451,0.055388918,0.036175981,-0.014559422,0.000119255,0.008448435,-0.005329419,0.000263083,0.062716377,-0.278820120,0.898316102,0.000528211,0.002437380,0.007837843,0.999965141,0.000000000,0.000000000,0.000000000,0.000000000,0.000000000,0.000000000,0.898349549,0.000000000,4.059237480
1772681685.897503853,0.014043000,0.004305000,0.055448000,0.009003660,0.020953750,0.011121840,0.999678040,0.018485000,0.041706000,0.022635000,-0.002125250,-0.001261518,0.003018274,-0.088179362,0.113417305,-0.042468731,0.004602956,-0.004182707,0.999441526,0.001020504,-0.002261488,0.000579087,0.000000000,0.000000000,0.000000000,0.000000000,0.014765741,0.004031276,0.055419895,0.036023888,-0.014847316,0.000222738,0.009851628,-0.005199674,-0.000337744,0.063727122,-0.278529776,0.897346195,0.000537071,0.002434911,0.007829360,0.999965250,0.000000000,0.000000000,0.000000000,0.000000000,0.000000000,0.000000000,0.897317509,0.000000000,4.059237480
1772681685.907504082,0.014102000,0.004339000,0.055359000,0.009592890,0.020102300,0.011381720,0.999687120,0.019654000,0.039984000,0.023163000,-0.001017474,-0.000737903,0.001771537,-0.095388375,0.137596354,-0.048476059,0.004008372,-0.004112827,0.999813917,0.000543948,0.000644185,-0.001013863,0.000000000,0.000000000,0.000000000,0.000000000,0.014795977,0.004041517,0.055378086,0.036115870,-0.014943676,0.000010936,0.008365235,-0.005446052,-0.000823823,0.064126832,-0.278157105,0.896702252,0.000540598,0.002431683,0.007823733,0.999965280,0.000000000,0.000000000,0.000000000,0.000000000,0.000000000,0.000000000,0.896595418,0.000000000,4.059237480
1772681685.917504787,0.014054000,0.004305000,0.055442000,0.008403340,0.021810470,0.010947990,0.999666860,0.017296000,0.043436000,0.022278000,-0.000151333,-0.000311815,0.000871055,-0.078894127,0.121327719,-0.042587676,0.005048477,-0.003454945,1.001107236,0.002258633,0.002116658,0.001224293,0.000000000,0.000000000,0.000000000,0.000000000,0.014810647,0.004041959,0.055363495,0.036081786,-0.015109024,-0.000107729,0.010269832,-0.003573700,0.001926469,0.064513768,-0.278367675,0.896430779,0.000543966,0.002433546,0.007821355,0.999965310,0.000000000,0.000000000,0.000000000,0.000000000,0.000000000,0.000000000,0.896444655,0.000000000,4.059237480
1772681685.927505493,0.014043000,0.004300000,0.055463000,0.007614840,0.022956900,0.010468730,0.999652640,0.015722000,0.045754000,0.021304000,-0.000268422,-0.000329064,0.000667976,-0.062153376,0.098758679,-0.034074825,0.005098924,-0.004162107,1.001119666,0.000795211,0.001961299,0.000532002,0.000000000,0.000000000,0.000000000,0.000000000,0.014782558,0.004032085,0.055397534,0.035960907,-0.015190828,0.000098805,0.010040769,-0.005451317,0.001289835,0.065170975,-0.278648994,0.896143384,0.000549688,0.002436044,0.007818832,0.999965310,0.000000000,0.000000000,0.000000000,0.000000000,0.000000000,0.000000000,0.896087214,0.000000000,4.059237480
1772681685.937505960,0.014102000,0.004338000,0.055362000,0.008782990,0.021450700,0.010896690,0.999671940,0.018045000,0.042709000,0.022185000,-0.000578858,-0.000544069,0.001319266,-0.077329139,0.108546518,-0.036017467,0.005757524,-0.003510475,0.999489206,0.002346687,0.001048837,-0.002464867,0.000000000,0.000000000,0.000000000,0.000000000,0.014787480,0.004046019,0.055371550,0.036011664,-0.015241043,0.000128966,0.011029515,-0.004902176,-0.000570429,0.064670191,-0.279111080,0.894773843,0.000545316,0.002440036,0.007806889,0.999965398,0.000000000,0.000000000,0.000000000,0.000000000,0.000000000,0.000000000,0.894406674,0.000000000,4.059237480
1772681685.947506666,0.014053000,0.004314000,0.055444000,0.007886540,0.022583790,0.010628610,0.999657350,0.016265000,0.045000000,0.021630000,-0.000339611,-0.000455418,0.000844716,-0.076157367,0.096146446,-0.028978791,0.006932977,-0.002962798,0.998366683,0.001112941,-0.000424525,-0.001971882,0.000000000,0.000000000,0.000000000,0.000000000,0.014786668,0.004042446,0.055376169,0.036072966,-0.015351986,0.000130116,0.011889013,-0.004047751,-0.001650959,0.065862469,-0.279262953,0.893043744,0.000555746,0.002441434,0.007791766,0.999965524,0.000000000,0.000000000,0.000000000,0.000000000,0.000000000,0.000000000,0.892925791,0.000000000,4.059237480
1772681685.957507133,0.014047000,0.004295000,0.055465000,0.007392610,0.023292620,0.010398310,0.999647280,0.015281000,0.046432000,0.021158000,0.000127286,-0.000017462,-0.000042053,-0.055375442,0.060931383,-0.014261843,0.007084271,-0.002902914,0.998298983,-0.000575721,-0.000506094,-0.000626044,0.000000000,0.000000000,0.000000000,0.000000000,0.014770568,0.004029371,0.055406625,0.036118256,-0.015403342,0.000184444,0.011857535,-0.003975936,-0.001602873,0.065953789,-0.279287359,0.892785993,0.000556547,0.002441652,0.007789515,0.999965554,0.000000000,0.000000000,0.000000000,0.000000000,0.000000000,0.000000000,0.892767471,0.000000000,4.059237480
1772681685.967508078,0.014037000,0.004284000,0.055479000,0.006571140,0.024173250,0.010190720,0.999634240,0.013646000,0.048214000,0.020717000,0.000293188,0.000504910,-0.000861984,-0.019321692,0.014022165,0.000932871,0.006850654,-0.002833234,0.998497341,-0.000915421,-0.000424186,-0.000279712,0.000000000,0.000000000,0.000000000,0.000000000,0.014768879,0.004027497,0.055410918,0.036140884,-0.015406463,0.000183513,0.011826056,-0.003904117,-0.001554785,0.065943880,-0.279308627,0.892629164,0.000556463,0.002441836,0.007788146,0.999965560,0.000000000,0.000000000,0.000000000,0.000000000,0.000000000,0.000000000,0.892609143,0.000000000,4.059237480
1772681685.977509022,0.014053000,0.004299000,0.055459000,0.006381070,0.024308080,0.010150920,0.999632610,0.013267000,0.048488000,0.020630000,0.000092634,0.000501045,-0.000818707,0.011748447,-0.017628554,0.009506681,0.006617036,-0.002763555,0.998695699,-0.001255120,-0.000342278,0.000066621,0.000000000,0.000000000,0.000000000,0.000000000,0.014767191,0.004025622,0.055415212,0.036163511,-0.015409584,0.000182583,0.011794578,-0.003832298,-0.001506697,0.065933970,-0.279329894,0.892472334,0.000556378,0.002442020,0.007786778,0.999965566,0.000000000,0.000000000,0.000000000,0.000000000,0.000000000,0.000000000,0.892450815,0.000000000,4.059237480
1772681685.987509489,0.014111000,0.004352000,0.055341000,0.008020930,0.022213380,0.010862900,0.999662060,0.016536000,0.044252000,0.022098000,0.000695500,0.000866548,-0.001918636,0.071489056,-0.095126158,0.032428327,0.006383430,-0.002693878,0.998894048,-0.001594804,-0.000260373,0.000412937,0.000000000,0.000000000,0.000000000,0.000000000,0.014765502,0.004023748,0.055419505,0.036186137,-0.015412704,0.000181652,0.011763100,-0.003760482,-0.001458611,0.065924062,-0.279351161,0.892315513,0.000556293,0.002442204,0.007785409,0.999965573,0.000000000,0.000000000,0.000000000,0.000000000,0.000000000,0.000000000,0.892292494,0.000000000,4.059237480
1772681685.997510672,0.014044000,0.004316000,0.055444000,0.007431440,0.023111490,0.010515110,0.999649970,0.015361000,0.046067000,0.021391000,0.001281875,0.000871579,-0.002333380,0.113890003,-0.152128598,0.048971569,0.006149807,-0.002624197,0.999092411,-0.001934512,-0.000178463,0.000759277,0.000000000,0.000000000,0.000000000,0.000000000,0.014763813,0.004021873,0.055423799,0.036208765,-0.015415825,0.000180722,0.011731621,-0.003688661,-0.001410522,0.065914152,-0.279372429,0.892158680,0.000556209,0.002442388,0.007784041,0.999965579,0.000000000,0.000000000,0.000000000,0.000000000,0.000000000,0.000000000,0.892134162,0.000000000,4.059237480
1772681686.007511616,0.014093000,0.004350000,0.055349000,0.008868120,0.021232020,0.011048020,0.999674200,0.018217000,0.042267000,0.022487000,0.000921538,-0.000022513,-0.000843084,0.101509847,-0.131151670,0.042721180,0.005916189,-0.002554517,0.999290769,-0.002274211,-0.000096555,0.001105610,0.000000000,0.000000000,0.000000000,0.000000000,0.014762124,0.004019999,0.055428093,0.036231392,-0.015418945,0.000179792,0.011700142,-0.003616842,-0.001362434,0.065904243,-0.279393697,0.892001851,0.000556124,0.002442573,0.007782672,0.999965586,0.000000000,0.000000000,0.000000000,0.000000000,0.000000000,0.000000000,0.891975834,0.000000000,4.059237480
1772681686.017512083,0.014053000,0.004296000,0.055445000,0.008129670,0.022260760,0.010859750,0.999660160,0.016755000,0.044344000,0.022098000,0.000196805,-0.000427311,0.000293615,0.061427745,-0.083032773,0.025924618,0.005682583,-0.002484840,0.999489118,-0.002613895,-0.000014650,0.001451926,0.000000000,0.000000000,0.000000000,0.000000000,0.014760435,0.004018124,0.055432386,0.036254018,-0.015422066,0.000178861,0.011668664,-0.003545026,-0.001314348,0.065894334,-0.279414963,0.891845029,0.000556040,0.002442757,0.007781304,0.999965592,0.000000000,0.000000000,0.000000000,0.000000000,0.000000000,0.000000000,0.891817514,0.000000000,4.059237480
1772681686.027512789,0.014118000,0.004339000,0.055345000,0.009167950,0.020623230,0.011254090,0.999681940,0.018811000,0.041038000,0.022900000,0.000561493,0.000148167,-0.000524296,0.057883877,-0.089079158,0.027643980,0.005448971,-0.002415162,0.999687471,-0.002953587,0.000067256,0.001798250,0.000000000,0.000000000,0.000000000,0.000000000,0.014758746,0.004016250,0.055436680,0.036276644,-0.015425187,0.000177931,0.011637186,-0.003473209,-0.001266261,0.065884425,-0.279436230,0.891688204,0.000555955,0.002442941,0.007779935,0.999965598,0.000000000,0.000000000,0.000000000,0.000000000,0.000000000,0.000000000,0.891659190,0.000000000,4.059237480
1772681686.037513494,0.014142000,0.004343000,0.055326000,0.009950920,0.019702300,0.011544750,0.999689710,0.020368000,0.039173000,0.023495000,0.000589774,0.000698355,-0.001194991,0.067873669,-0.104757074,0.037479415,0.005215359,-0.002345484,0.999885825,-0.003293278,0.000149163,0.002144574,0.000000000,0.000000000,0.000000000,0.000000000,0.014757057,0.004014375,0.055440974,0.036299271,-0.015428307,0.000177000,0.011605708,-0.003401392,-0.001218174,0.065874516,-0.279457497,0.891531378,0.000555871,0.002443125,0.007778567,0.999965605,0.000000000,0.000000000,0.000000000,0.000000000,0.000000000,0.000000000,0.891500865,0.000000000,4.059237480
1772681686.047514200,0.014052000,0.004302000,0.055455000,0.008763350,0.021346450,0.011131480,0.999671760,0.018013000,0.042497000,0.022652000,-0.000835159,0.000172039,0.000580606,0.016888676,-0.033281484,0.014532101,0.004793151,-0.002222963,1.000278350,-0.001425231,0.000004095,0.001075724,0.000000000,0.000000000,0.000000000,0.000000000,0.014756125,0.004011928,0.055446670,0.036329259,-0.015423287,0.000181651,0.009903663,-0.003060373,0.000054239,0.065072793,-0.279311506,0.891519031,0.000548885,0.002441797,0.007778477,0.999965608,0.000000000,0.000000000,0.000000000,0.000000000,0.000000000,0.000000000,0.891470194,0.000000000,4.059237480
1772681686.057515144,0.014082000,0.004353000,0.055358000,0.009574160,0.020034780,0.011407980,0.999688350,0.019616000,0.039849000,0.023213000,-0.001080991,-0.000120701,0.001306971,-0.024285199,0.026068616,-0.007103970,0.004674785,-0.002513138,1.000833908,0.001210634,-0.000328785,-0.001359785,0.000000000,0.000000000,0.000000000,0.000000000,0.014761842,0.004004158,0.055464823,0.036422119,-0.015339703,0.000239478,0.009254351,-0.003114581,0.000957934,0.064739689,-0.278677443,0.890871252,0.000546035,0.002436238,0.007772835,0.999965661,0.000000000,0.000000000,0.000000000,0.000000000,0.000000000,0.000000000,0.891529976,0.000000000,4.059237480
1772681686.067515850,0.014116000,0.004356000,0.055330000,0.010141290,0.019214410,0.011780240,0.999694550,0.020746000,0.038187000,0.023963000,-0.001384240,-0.001136330,0.002830753,-0.094831040,0.133524055,-0.039935170,0.005596048,-0.003467529,1.000276092,-0.000754682,0.000191631,-0.001836945,0.000000000,0.000000000,0.000000000,0.000000000,0.014758167,0.003998030,0.055470225,0.036400086,-0.015212570,0.000322282,0.010528594,-0.003742667,0.000723560,0.064089067,-0.278038060,0.890036138,0.000540418,0.002430610,0.007765564,0.999965756,0.000000000,0.000000000,0.000000000,0.000000000,0.000000000,0.000000000,0.890301628,0.000000000,4.059237480
1772681686.077516317,0.014048000,0.004309000,0.055446000,0.008780070,0.021187370,0.011250380,0.999673660,0.018048000,0.042176000,0.022888000,-0.000757230,-0.001135203,0.002249934,-0.121958474,0.174812842,-0.055829340,0.005367931,-0.003795344,0.998996849,0.001078509,0.001042018,-0.002191080,0.000000000,0.000000000,0.000000000,0.000000000,0.014745572,0.004001299,0.055475687,0.036411783,-0.015170567,0.000419221,0.010818125,-0.005186564,-0.000747492,0.063492622,-0.277971065,0.889758691,0.000535224,0.002429984,0.007763156,0.999965787,0.000000000,0.000000000,0.000000000,0.000000000,0.000000000,0.000000000,0.889743824,0.000000000,4.059237480
1772681686.087516785,0.014038000,0.004295000,0.055477000,0.007633710,0.022681360,0.010669230,0.999656670,0.015763000,0.045200000,0.021701000,-0.001071492,-0.001282360,0.002750085,-0.155975893,0.222888776,-0.077605846,0.004707127,-0.002930770,0.999238131,0.000542136,0.002609293,0.000856815,0.000000000,0.000000000,0.000000000,0.000000000,0.014744374,0.004010297,0.055466162,0.036525560,-0.015143778,0.000281796,0.009603573,-0.005175935,-0.000909322,0.063013496,-0.277696871,0.889118164,0.000531075,0.002427556,0.007757578,0.999965820,0.000000000,0.000000000,0.000000000,0.000000000,0.000000000,0.000000000,0.889008750,0.000000000,4.059237480
1772681686.097517490,0.014062000,0.004294000,0.055478000,0.007128310,0.023443910,0.010393340,0.999645710,0.014756000,0.046740000,0.021138000,-0.001411084,-0.001108515,0.002485121,-0.162489553,0.224717829,-0.082652504,0.005416848,-0.000467964,0.998773380,0.001376308,0.000220582,0.000296593,0.000000000,0.000000000,0.000000000,0.000000000,0.014785716,0.004032929,0.055390842,0.036654617,-0.015114132,-0.000149804,0.010260792,-0.000169801,-0.001399535,0.063295354,-0.279540122,0.888882045,0.000533415,0.002443659,0.007755503,0.999965805,0.000000000,0.000000000,0.000000000,0.000000000,0.000000000,0.000000000,0.888892385,0.000000000,4.059237480
1772681686.107517958,0.014051000,0.004287000,0.055469000,0.006683390,0.024209520,0.010246570,0.999632050,0.013875000,0.048283000,0.020835000,0.000322091,0.000720537,-0.001706214,-0.051874351,0.060665196,-0.033932591,0.006035055,-0.001517396,0.998993166,0.000973140,-0.001898674,-0.001600936,0.000000000,0.000000000,0.000000000,0.000000000,0.014798978,0.004038790,0.055374803,0.036687019,-0.014829826,-0.000341613,0.010919627,-0.002601126,-0.001721563,0.064133043,-0.278897349,0.887615066,0.000540795,0.002438100,0.007744432,0.999965884,0.000000000,0.000000000,0.000000000,0.000000000,0.000000000,0.000000000,0.887544096,0.000000000,4.059237480
1772681686.117518663,0.014026000,0.004298000,0.055474000,0.006347460,0.024394360,0.010053510,0.999631710,0.013197000,0.048662000,0.020435000,0.001717907,0.001484604,-0.003974678,0.066297106,-0.103466443,0.025905421,0.004745002,-0.002515829,0.999685549,0.002200317,0.001391954,0.001485589,0.000000000,0.000000000,0.000000000,0.000000000,0.014983663,0.003952454,0.055396819,0.037239792,-0.014846793,-0.000365747,0.010154408,-0.003538750,-0.000238844,0.064320211,-0.278044515,0.885987582,0.000542521,0.002430663,0.007730230,0.999966008,0.000000000,0.000000000,0.000000000,0.000000000,0.000000000,0.000000000,0.887235412,0.000000000,4.059237480
1772681686.127519131,0.014022000,0.004304000,0.055475000,0.006104560,0.024516550,0.009861590,0.999632140,0.012704000,0.048914000,0.020041000,0.001233936,0.001090878,-0.002784680,0.115489731,-0.164086914,0.051316626,0.003973172,-0.004673976,0.999497082,0.001502373,0.002914769,0.001173624,0.000000000,0.000000000,0.000000000,0.000000000,0.015390647,0.003790578,0.055392509,0.038303687,-0.015205236,-0.000430119,0.009071962,-0.004772784,-0.000432983,0.065054581,-0.277910312,0.886009078,0.000548938,0.002429542,0.007730402,0.999966025,0.000000000,0.000000000,0.000000000,0.000000000,0.000000000,0.000000000,0.885995903,0.000000000,4.059237480
1772681686.137519598,0.014102000,0.004337000,0.055344000,0.007929560,0.022115080,0.010688200,0.999666850,0.016343000,0.044060000,0.021743000,0.000658380,0.000427680,-0.000918955,0.106771098,-0.142214873,0.047983615,0.004603714,-0.003870731,1.000505257,-0.001333875,0.003583589,0.000260238,0.000000000,0.000000000,0.000000000,0.000000000,0.015821349,0.003618886,0.055387516,0.039298227,-0.015744758,-0.000471716,0.009230611,-0.005224357,0.000008979,0.065738705,-0.278733507,0.884570783,0.000554883,0.002436764,0.007717833,0.999966133,0.000000000,0.000000000,0.000000000,0.000000000,0.000000000,0.000000000,0.885619269,0.000000000,4.059237480
1772681686.147520304,0.014123000,0.004358000,0.055311000,0.009280540,0.020490990,0.011224590,0.999683950,0.019032000,0.040772000,0.022843000,0.000037081,-0.000504658,0.001035072,0.055665699,-0.059584062,0.026204107,0.003880480,-0.003325159,1.000335741,0.000862195,0.000835792,-0.001901065,0.000000000,0.000000000,0.000000000,0.000000000,0.016227002,0.003455647,0.055382713,0.040209701,-0.016251314,-0.000467959,0.009125555,-0.004531441,0.000635115,0.065638501,-0.281459194,0.884335494,0.000553830,0.002460542,0.007715768,0.999966035,0.000000000,0.000000000,0.000000000,0.000000000,0.000000000,0.000000000,0.884594754,0.000000000,4.059237480
1772681686.157521248,0.014067000,0.004300000,0.055444000,0.008461220,0.021768250,0.010944900,0.999667320,0.017411000,0.043350000,0.022274000,-0.001594525,-0.001320742,0.003363324,-0.042194740,0.084430396,-0.016391651,0.005328412,-0.003673789,0.999907330,0.001412570,0.000039692,0.001497500,0.000000000,0.000000000,0.000000000,0.000000000,0.016592104,0.003307713,0.055378699,0.041022744,-0.016660999,-0.000428046,0.009515487,-0.004459674,-0.000071289,0.066048400,-0.282655435,0.883286120,0.000557349,0.002471003,0.007706595,0.999966095,0.000000000,0.000000000,0.000000000,0.000000000,0.000000000,0.000000000,0.884269989,0.000000000,4.059237480
1772681686.167521715,0.014029000,0.004293000,0.055497000,0.007691830,0.022806820,0.010553800,0.999654590,0.015877000,0.045451000,0.021475000,-0.002112994,-0.001309671,0.003435329,-0.111724723,0.166019192,-0.048450498,0.005835252,-0.004775324,0.999333400,-0.002142206,-0.000257882,0.003175255,0.000000000,0.000000000,0.000000000,0.000000000,0.017015786,0.003135321,0.055374505,0.041970513,-0.017109037,-0.000392786,0.010838903,-0.005219049,-0.000734414,0.066398275,-0.282248924,0.882535305,0.000560445,0.002467476,0.007700038,0.999966147,0.000000000,0.000000000,0.000000000,0.000000000,0.000000000,0.000000000,0.883274367,0.000000000,4.059237480
1772681686.177521944,0.014032000,0.004288000,0.055490000,0.006963940,0.023859650,0.010309210,0.999637900,0.014432000,0.047576000,0.020969000,-0.000671006,-0.000224892,0.000713117,-0.089457531,0.120349050,-0.041874569,0.004519750,-0.003453859,1.000209792,-0.001813418,0.003401118,0.000798209,0.000000000,0.000000000,0.000000000,0.000000000,0.017459460,0.002953962,0.055370150,0.043042772,-0.017645102,-0.000443773,0.009370006,-0.004920238,-0.000139890,0.066017759,-0.281572177,0.882013739,0.000557181,0.002461542,0.007695498,0.999966204,0.000000000,0.000000000,0.000000000,0.000000000,0.000000000,0.000000000,0.882447377,0.000000000,4.059237480
1772681686.187521935,0.014025000,0.004283000,0.055484000,0.006558690,0.024359240,0.010154370,0.999630180,0.013624000,0.048586000,0.020647000,0.001454458,0.001127434,-0.002823994,0.012407302,-0.022706670,0.004491841,0.003086448,-0.003896881,0.998395072,-0.000781752,-0.007041872,-0.000778492,0.000000000,0.000000000,0.000000000,0.000000000,0.017918347,0.002765391,0.055365350,0.044075028,-0.018155717,-0.000464919,0.007053648,-0.003707049,-0.000764605,0.053205068,-0.251786139,0.882423934,0.000447373,0.002200756,0.007699372,0.999966218,0.000000000,0.000000000,0.000000000,0.000000000,0.000000000,0.000000000,0.883405982,0.000000000,4.059237480
1772681686.197522640,0.014018000,0.004304000,0.055479000,0.006406660,0.024511150,0.010067590,0.999628330,0.013318000,0.048895000,0.020468000,0.001647728,0.001353977,-0.003155253,0.080680024,-0.113127257,0.035273983,0.005939667,-0.003867338,0.999354969,-0.000874453,0.001197154,-0.000073407,0.000000000,0.000000000,0.000000000,0.000000000,0.015431565,0.003790495,0.055359456,0.028351684,-0.012021408,-0.000229813,0.007721483,-0.003551938,-0.001194477,0.010167187,-0.148247972,0.888354456,0.000078683,0.001294361,0.007752139,0.999966323,0.000000000,0.000000000,0.000000000,0.000000000,0.000000000,0.000000000,0.890659500,0.000000000,4.059237480
1772681686.207523108,0.014112000,0.004336000,0.055341000,0.008089420,0.022040850,0.010748250,0.999666560,0.016664000,0.043907000,0.021869000,0.000910699,0.000755948,-0.001549306,0.095017352,-0.125751203,0.042395469,0.005634540,-0.003596690,1.000017288,-0.001566064,-0.001645734,-0.000383626,0.000000000,0.000000000,0.000000000,0.000000000,0.014218742,0.004287256,0.055361576,0.020926897,-0.009117809,-0.000116269,0.009021188,-0.003635772,0.000135613,0.022983950,-0.180632050,0.902386447,0.000188133,0.001577851,0.007874374,0.999966173,0.000000000,0.000000000,0.000000000,0.000000000,0.000000000,0.000000000,0.902877622,0.000000000,4.059237480
1772681686.217524052,0.014129000,0.004358000,0.055328000,0.009379300,0.020595390,0.011227830,0.999680850,0.019232000,0.040978000,0.022856000,0.000980685,0.000787959,-0.001536875,0.112577991,-0.146348400,0.049187401,0.004671049,-0.003517032,1.000383869,0.001231026,-0.004245421,-0.002345063,0.000000000,0.000000000,0.000000000,0.000000000,0.014345612,0.004201052,0.055408765,0.021982136,-0.009573118,-0.000065288,0.008545061,-0.003728423,0.000305674,0.030254646,-0.199147777,0.909873310,0.000250213,0.001739935,0.007939580,0.999966085,0.000000000,0.000000000,0.000000000,0.000000000,0.000000000,0.000000000,0.907663748,0.000000000,4.059237480
1772681686.227524042,0.014058000,0.004321000,0.055436000,0.008715330,0.021637400,0.011017160,0.999667190,0.017919000,0.043082000,0.022427000,0.000486147,0.000360026,-0.000836383,0.093799088,-0.118077012,0.043004937,0.004341853,-0.003278513,0.999481164,-0.003577455,0.000522927,0.000107716,0.000000000,0.000000000,0.000000000,0.000000000,0.014418140,0.004143960,0.055452346,0.022861857,-0.009988426,0.000099316,0.007821687,-0.004111517,0.000436478,0.033079632,-0.204790682,0.910280353,0.000274468,0.001789373,0.007943074,0.999965946,0.000000000,0.000000000,0.000000000,0.000000000,0.000000000,0.000000000,0.908095536,0.000000000,4.059237480
1772681686.237524271,0.014024000,0.004298000,0.055473000,0.008027180,0.022456780,0.010727810,0.999658030,0.016548000,0.044741000,0.021832000,-0.000431254,-0.000387084,0.000699618,0.035228750,-0.046465568,0.016617601,0.004575271,-0.003382233,0.998636277,-0.002887245,0.003566770,-0.000893807,0.000000000,0.000000000,0.000000000,0.000000000,0.014456120,0.004117266,0.055470024,0.023548423,-0.010305721,0.000131952,0.007948764,-0.003636310,-0.001999392,0.032786283,-0.205962631,0.909684045,0.000271836,0.001799579,0.007937872,0.999965890,0.000000000,0.000000000,0.000000000,0.000000000,0.000000000,0.000000000,0.909585287,0.000000000,4.059237480
1772681686.247524738,0.014098000,0.004343000,0.055360000,0.009138470,0.020985110,0.011166400,0.999675660,0.018757000,0.041765000,0.022731000,-0.000998205,-0.000807091,0.001706059,-0.029120344,0.032580919,-0.012907903,0.004884603,-0.002821594,1.000722860,-0.000994392,0.000657725,0.000738706,0.000000000,0.000000000,0.000000000,0.000000000,0.014477756,0.004105607,0.055475513,0.024147372,-0.010534954,0.000000918,0.009055274,-0.003304652,-0.000093959,0.031364199,-0.207391227,0.908744172,0.000259343,0.001811944,0.007929689,0.999965956,0.000000000,0.000000000,0.000000000,0.000000000,0.000000000,0.000000000,0.908546143,0.000000000,4.059237480
1772681686.257525444,0.014129000,0.004354000,0.055316000,0.009966940,0.019795840,0.011509260,0.999688110,0.020401000,0.039360000,0.023426000,-0.000638140,-0.000719974,0.001300269,-0.062582149,0.069440326,-0.029084151,0.004218086,-0.002642236,1.001766704,-0.001991326,0.001078278,0.002228501,0.000000000,0.000000000,0.000000000,0.000000000,0.014493601,0.004096238,0.055473442,0.024752766,-0.010698861,0.000025138,0.008082074,-0.003406771,0.001026232,0.030545903,-0.208349315,0.906903517,0.000252165,0.001820244,0.007913637,0.999966085,0.000000000,0.000000000,0.000000000,0.000000000,0.000000000,0.000000000,0.906767735,0.000000000,4.059237480
1772681686.267525911,0.014042000,0.004304000,0.055454000,0.008659340,0.021481780,0.010993920,0.999671290,0.017803000,0.042772000,0.022375000,-0.000761134,-0.000606479,0.001651788,-0.093452444,0.114418137,-0.044013124,0.005250920,-0.003880121,0.999792011,0.001134985,0.002020403,-0.002619951,0.000000000,0.000000000,0.000000000,0.000000000,0.014508694,0.004088835,0.055470972,0.025243599,-0.010820494,0.000146720,0.008732864,-0.004000736,-0.000289025,0.030588651,-0.208191859,0.905994199,0.000252563,0.001818871,0.007905703,0.999966053,0.000000000,0.000000000,0.000000000,0.000000000,0.000000000,0.000000000,0.905994294,0.000000000,4.059237480
1772681686.277527094,0.014035000,0.004288000,0.055490000,0.007523730,0.022815710,0.010469820,0.999656550,0.015537000,0.045474000,0.021299000,-0.001708059,-0.000884496,0.002778716,-0.138139488,0.182347790,-0.063686013,0.006116313,-0.004198669,0.999357846,0.000997877,0.001562684,-0.002857958,0.000000000,0.000000000,0.000000000,0.000000000,0.014556679,0.004104335,0.055418080,0.025841530,-0.010997459,-0.000086814,0.009583374,-0.004472103,-0.000419137,0.030682355,-0.208585760,0.905427300,0.000253363,0.001822314,0.007900752,0.999966204,0.000000000,0.000000000,0.000000000,0.000000000,0.000000000,0.000000000,0.905218409,0.000000000,4.059237480
1772681686.287528515,0.014031000,0.004292000,0.055480000,0.006970370,0.023686830,0.010277900,0.999642290,0.014439000,0.047231000,0.020903000,-0.002208016,-0.001119295,0.003058618,-0.167152406,0.224471160,-0.075867585,0.004941502,-0.003827350,1.000386743,-0.000539828,0.003159682,-0.000993851,0.000000000,0.000000000,0.000000000,0.000000000,0.014562544,0.004102315,0.055425368,0.026348571,-0.011235643,-0.000101649,0.008875500,-0.004008764,0.000341531,0.030983278,-0.209712527,0.903917725,0.000255935,0.001832164,0.007887572,0.999966218,0.000000000,0.000000000,0.000000000,0.000000000,0.000000000,0.000000000,0.903828096,0.000000000,4.059237480
1772681686.297529697,0.014020000,0.004302000,0.055485000,0.006391850,0.024398520,0.010023830,0.999631620,0.013284000,0.048670000,0.020378000,-0.000045083,0.000083407,-0.000411500,-0.084644591,0.112525987,-0.036308469,0.005049672,-0.003423800,1.000383790,0.000493582,0.001207326,-0.000649535,0.000000000,0.000000000,0.000000000,0.000000000,0.014554842,0.004087979,0.055453441,0.026755342,-0.011468533,0.000062930,0.008324169,-0.004113474,0.000647819,0.030609831,-0.210794016,0.903023441,0.000252616,0.001841573,0.007879772,0.999966264,0.000000000,0.000000000,0.000000000,0.000000000,0.000000000,0.000000000,0.902832657,0.000000000,4.059237480
1772681686.307529926,0.014030000,0.004298000,0.055471000,0.006236820,0.024575130,0.009984000,0.999628670,0.012976000,0.049027000,0.020293000,0.001427944,0.000908271,-0.002603822,0.015352947,-0.022690397,0.011157918,0.005052976,-0.003014653,1.000264986,-0.003728676,-0.002157800,-0.002790214,0.000000000,0.000000000,0.000000000,0.000000000,0.014559687,0.004085566,0.055460588,0.027121462,-0.011615167,0.000146663,0.008837761,-0.003298163,-0.000015318,0.030084508,-0.211427580,0.902304485,0.000248000,0.001847065,0.007873505,0.999966301,0.000000000,0.000000000,0.000000000,0.000000000,0.000000000,0.000000000,0.902270338,0.000000000,4.059237480
1772681686.317531109,0.014020000,0.004296000,0.055473000,0.006209730,0.024668730,0.009969830,0.999626680,0.012923000,0.049215000,0.020265000,0.001039093,0.000590435,-0.001777151,0.057712402,-0.075688371,0.031333089,0.005187051,-0.002282862,0.999837753,-0.001458359,-0.000675280,0.000829057,0.000000000,0.000000000,0.000000000,0.000000000,0.014566322,0.004081887,0.055469071,0.027558023,-0.011725454,0.000196977,0.008405951,-0.002306396,0.000251227,0.029458285,-0.211034590,0.901354485,0.000242578,0.001843590,0.007865226,0.999966408,0.000000000,0.000000000,0.000000000,0.000000000,0.000000000,0.000000000,0.901153341,0.000000000,4.059237480
1772681686.327532053,0.014033000,0.004292000,0.055465000,0.006265210,0.024506160,0.010054880,0.999629480,0.013035000,0.048888000,0.020435000,0.000769972,0.000333590,-0.000957997,0.067020267,-0.087060588,0.032986223,0.005857694,-0.002324639,0.998665621,-0.000628189,0.000612056,-0.001132989,0.000000000,0.000000000,0.000000000,0.000000000,0.014572708,0.004070346,0.055475084,0.027973428,-0.011747417,0.000203359,0.009145546,-0.003025009,-0.001182099,0.029080035,-0.210526235,0.900290076,0.000239329,0.001839126,0.007855945,0.999966473,0.000000000,0.000000000,0.000000000,0.000000000,0.000000000,0.000000000,0.900223058,0.000000000,4.059237480
1772681686.337532043,0.014111000,0.004341000,0.055353000,0.008059190,0.022144500,0.010808350,0.999663870,0.016609000,0.044114000,0.021990000,0.000355345,0.000338523,-0.000266790,0.056731492,-0.066117728,0.024509323,0.006149963,-0.003185956,0.998881832,0.000932831,-0.001243284,0.000877326,0.000000000,0.000000000,0.000000000,0.000000000,0.014614759,0.004088832,0.055419997,0.028494358,-0.011724429,-0.000168126,0.009962606,-0.003303857,-0.001265059,0.028849109,-0.210741255,0.899079699,0.000237319,0.001840984,0.007845386,0.999966537,0.000000000,0.000000000,0.000000000,0.000000000,0.000000000,0.000000000,0.898890483,0.000000000,4.059237480
1772681686.347532749,0.014046000,0.004314000,0.055449000,0.007529200,0.023034120,0.010561110,0.999650540,0.015557000,0.045909000,0.021486000,-0.000865966,-0.000287147,0.001591301,-0.003661885,0.016638596,-0.007204047,0.004521621,-0.003653437,0.997902665,-0.000660558,0.000134220,0.000408372,0.000000000,0.000000000,0.000000000,0.000000000,0.014623862,0.004091586,0.055412272,0.028955750,-0.011809989,-0.000328853,0.008999340,-0.004399202,-0.000882006,0.029457735,-0.210315436,0.898093606,0.000242675,0.001837308,0.007836772,0.999966644,0.000000000,0.000000000,0.000000000,0.000000000,0.000000000,0.000000000,0.897991898,0.000000000,4.059237480
1772681686.357533693,0.014026000,0.004296000,0.055478000,0.007087220,0.023706620,0.010345860,0.999640300,0.014677000,0.047267000,0.021045000,-0.000511223,-0.000283495,0.001077048,-0.019735946,0.039452439,-0.016074033,0.004091951,-0.002715585,0.999425908,-0.003515004,-0.001315466,-0.001170143,0.000000000,0.000000000,0.000000000,0.000000000,0.014640373,0.004097269,0.055391571,0.029287268,-0.011978313,-0.000564511,0.007664730,-0.003441025,-0.002397659,0.029532550,-0.210530397,0.896538353,0.000243338,0.001839185,0.007823199,0.999966729,0.000000000,0.000000000,0.000000000,0.000000000,0.000000000,0.000000000,0.896438217,0.000000000,4.059237480
1772681686.367533922,0.014037000,0.004309000,0.055465000,0.006965070,0.023809810,0.010235140,0.999639850,0.014429000,0.047478000,0.020820000,-0.000614249,-0.000504774,0.001070929,-0.033716863,0.060147625,-0.020770217,0.004514071,-0.002640434,1.000964157,-0.003993064,-0.001589252,-0.001793710,0.000000000,0.000000000,0.000000000,0.000000000,0.014630908,0.004085946,0.055409671,0.029364362,-0.012074951,-0.000599852,0.007751181,-0.003366401,-0.001699582,0.029563680,-0.210582616,0.896353914,0.000243609,0.001839643,0.007821589,0.999966757,0.000000000,0.000000000,0.000000000,0.000000000,0.000000000,0.000000000,0.896342889,0.000000000,4.059237480
1772681686.377535582,0.014036000,0.004308000,0.055472000,0.006850470,0.024062490,0.010152480,0.999635430,0.014201000,0.047987000,0.020652000,0.000708572,0.000231769,-0.001015590,0.011739484,-0.009260783,0.005122759,0.004800390,-0.002773829,1.001335886,-0.002769830,-0.001071296,-0.000915447,0.000000000,0.000000000,0.000000000,0.000000000,0.014628149,0.004083686,0.055414403,0.029389431,-0.012088264,-0.000561788,0.007837645,-0.003291766,-0.001001404,0.029603927,-0.210612994,0.896259754,0.000243959,0.001839910,0.007820767,0.999966777,0.000000000,0.000000000,0.000000000,0.000000000,0.000000000,0.000000000,0.896247547,0.000000000,4.059237480
1772681686.387536287,0.014021000,0.004281000,0.055495000,0.006455450,0.024569980,0.010030310,0.999626950,0.013415000,0.049012000,0.020396000,0.001953211,0.001008442,-0.003002268,0.086906962,-0.113839732,0.044330707,0.005086682,-0.002907211,1.001707579,-0.001546714,-0.000553389,-0.000037268,0.000000000,0.000000000,0.000000000,0.000000000,0.014625389,0.004081426,0.055419135,0.029414498,-0.012101576,-0.000523728,0.007924101,-0.003217138,-0.000303294,0.029644169,-0.210643369,0.896165603,0.000244310,0.001840178,0.007819944,0.999966797,0.000000000,0.000000000,0.000000000,0.000000000,0.000000000,0.000000000,0.896152214,0.000000000,4.059237480
1772681686.397537470,0.014111000,0.004340000,0.055357000,0.008300150,0.022263550,0.010838910,0.999658920,0.017095000,0.044347000,0.022063000,0.001113604,0.000660245,-0.001956591,0.092130860,-0.115527110,0.049742933,0.005372988,-0.003040600,1.002079290,-0.000323538,-0.000035458,0.000840952,0.000000000,0.000000000,0.000000000,0.000000000,0.014622629,0.004079165,0.055423868,0.029439566,-0.012114888,-0.000485665,0.008010560,-0.003142506,0.000394851,0.029684414,-0.210673746,0.896071447,0.000244661,0.001840445,0.007819122,0.999966817,0.000000000,0.000000000,0.000000000,0.000000000,0.000000000,0.000000000,0.896056877,0.000000000,4.059237480
1772681686.407537937,0.014051000,0.004310000,0.055441000,0.007800080,0.022936140,0.010685390,0.999649400,0.016102000,0.045705000,0.021746000,0.000065770,0.000271976,-0.000657934,0.064989102,-0.076262349,0.037386707,0.005659273,-0.003173980,1.002450974,0.000899549,0.000482436,0.001719110,0.000000000,0.000000000,0.000000000,0.000000000,0.014619870,0.004076906,0.055428600,0.029464633,-0.012128200,-0.000447606,0.008097014,-0.003067880,0.001092945,0.029724656,-0.210704121,0.895977298,0.000245011,0.001840713,0.007818300,0.999966837,0.000000000,0.000000000,0.000000000,0.000000000,0.000000000,0.000000000,0.895961547,0.000000000,4.059237480
1772681686.417538881,0.014111000,0.004355000,0.055344000,0.009094510,0.021125500,0.011237790,0.999672300,0.018675000,0.042045000,0.022875000,-0.000882010,-0.000309951,0.000956210,0.008740166,-0.003402740,0.008510648,0.005945571,-0.003307365,1.002822676,0.002122695,0.001000355,0.002597310,0.000000000,0.000000000,0.000000000,0.000000000,0.014617110,0.004074645,0.055433332,0.029489700,-0.012141512,-0.000409545,0.008574783,-0.003339923,0.001724187,0.029764899,-0.210734497,0.895883145,0.000245362,0.001840981,0.007817477,0.999966856,0.000000000,0.000000000,0.000000000,0.000000000,0.000000000,0.000000000,0.895685018,0.000000000,4.059237480
1772681686.427539110,0.014047000,0.004305000,0.055443000,0.008265520,0.022451570,0.010911070,0.999654220,0.017033000,0.044722000,0.022210000,-0.001899484,-0.001164437,0.003063649,-0.075205768,0.109581745,-0.033521787,0.006061255,-0.004103377,1.002029777,0.002436571,0.002457583,0.001674885,0.000000000,0.000000000,0.000000000,0.000000000,0.014613831,0.004071597,0.055442008,0.029619621,-0.012187693,-0.000265987,0.009735750,-0.004339715,0.001881796,0.028878541,-0.210366586,0.894538789,0.000237674,0.001837707,0.007805760,0.999966860,0.000000000,0.000000000,0.000000000,0.000000000,0.000000000,0.000000000,0.894325831,0.000000000,4.059237480
1772681686.437540293,0.014025000,0.004297000,0.055471000,0.007525340,0.023471370,0.010609440,0.999639890,0.015561000,0.046783000,0.021590000,-0.001577393,-0.001364680,0.002980882,-0.117824359,0.158798302,-0.053217387,0.006467807,-0.004097891,1.000305868,0.001142734,0.000069466,0.001174657,0.000000000,0.000000000,0.000000000,0.000000000,0.014611518,0.004064198,0.055458674,0.029919678,-0.012316305,0.000005054,0.009510119,-0.004715798,0.000353707,0.028707169,-0.210732126,0.892819901,0.000236181,0.001840882,0.007790763,0.999966935,0.000000000,0.000000000,0.000000000,0.000000000,0.000000000,0.000000000,0.894173731,0.000000000,4.059237480
