t,px,py,pz,qx,qy,qz,qw,roll,pitch,yaw,vx,vy,vz,wx_vicon,wy_vicon,wz_vicon,imu_acc_x,imu_acc_y,imu_acc_z,imu_gyro_x,imu_gyro_y,imu_gyro_z,motor_motor_m1,motor_motor_m2,motor_motor_m3,motor_motor_m4,est_stateEstimate_x,est_stateEstimate_y,est_stateEstimate_z,est_stateEstimate_vx,est_stateEstimate_vy,est_stateEstimate_vz,est_stateEstimate_ax,est_stateEstimate_ay,est_stateEstimate_az,att_stateEstimate_roll,att_stateEstimate_pitch,att_stateEstimate_yaw,att_stateEstimate_qx,att_stateEstimate_qy,att_stateEstimate_qz,att_stateEstimate_qw,sp_ctrltarget_x,sp_ctrltarget_y,sp_ctrltarget_z,sp_ctrltarget_yaw,pid_controller_roll,pid_controller_pitch,pid_controller_yaw,pid_controller_cmd_thrust,pwr_pm_vbat
1772421798.750959635,0.013795000,0.007790000,0.053736000,-0.003625150,0.002401090,-0.000011010,0.999990550,-0.007250000,0.004802000,-0.000039000,-0.004991186,0.002251964,-0.000974865,-0.009575110,0.043366526,0.031615660,0.009750476,-0.001538843,0.999384583,-0.002288630,-0.000454256,-0.002259016,0.000000000,0.000000000,0.000000000,0.000000000,0.014113789,0.007843596,0.053728764,0.017045487,0.003021587,-0.000393600,0.006837825,0.002431523,-0.001003916,-0.184030022,0.181871095,0.019200819,-0.001605695,-0.001587393,0.000165009,0.999996472,0.000000000,0.000000000,0.000000000,0.000000000,0.000000000,0.000000000,0.019283010,0.000000000,4.077205095
1772421798.760959625,0.013779000,0.007789000,0.053739000,-0.003623780,0.002209750,0.000050340,0.999990990,-0.007247000,0.004420000,0.000085000,-0.001278362,0.000585879,-0.000269503,-0.007234641,-0.011027684,0.014271830,0.009372847,0.000197018,0.999462545,-0.003097957,0.003389783,0.000297548,0.000000000,0.000000000,0.000000000,0.000000000,0.014122612,0.007844701,0.053729526,0.017198976,0.003221915,-0.000477121,0.006352790,0.003538516,-0.000347594,-0.184048067,0.181201654,0.018587433,-0.001605862,-0.001581542,0.000159666,0.999996483,0.000000000,0.000000000,0.000000000,0.000000000,0.000000000,0.000000000,0.018652223,0.000000000,4.077715205
1772421798.770959854,0.013763000,0.007803000,0.053730000,-0.003672120,0.002321590,0.000192020,0.999990540,-0.007343000,0.004645000,0.000367000,0.000675253,-0.000265404,0.000035392,-0.003798487,-0.028276952,0.004206681,0.009832500,-0.000787355,1.001556964,-0.002197447,0.001221367,-0.002647146,0.000000000,0.000000000,0.000000000,0.000000000,0.014116457,0.007848764,0.053730012,0.017209456,0.003437438,-0.000404782,0.006803731,0.002223682,0.001053501,-0.184673869,0.179817114,0.018423966,-0.001611327,-0.001569458,0.000158250,0.999996483,0.000000000,0.000000000,0.000000000,0.000000000,0.000000000,0.000000000,0.018420247,0.000000000,4.078225328
1772421798.780960321,0.013773000,0.007802000,0.053729000,-0.003707200,0.002108120,0.000103550,0.999990900,-0.007414000,0.004217000,0.000191000,0.001290638,-0.000502584,0.000057304,0.000000474,-0.019428262,-0.000180698,0.011067133,-0.002361416,1.001496048,0.000150669,0.000748086,-0.002220047,0.000000000,0.000000000,0.000000000,0.000000000,0.014106358,0.007858757,0.053727263,0.017291956,0.003540957,-0.000272122,0.007507580,0.001189677,0.001074301,-0.184924261,0.179422783,0.018440058,-0.001613512,-0.001566018,0.000158393,0.999996483,0.000000000,0.000000000,0.000000000,0.000000000,0.000000000,0.000000000,0.018439447,0.000000000,4.078735463
1772421798.790961266,0.013792000,0.007791000,0.053729000,-0.003703730,0.002334230,0.000167310,0.999990400,-0.007407000,0.004670000,0.000317000,0.000988773,-0.000326360,-0.000086286,0.003398526,0.004472366,-0.000496522,0.010615742,-0.002483443,0.999583697,0.001654750,0.000855638,-0.002013413,0.000000000,0.000000000,0.000000000,0.000000000,0.014105305,0.007864887,0.053726017,0.017449185,0.003566681,-0.000209552,0.006677379,0.000320689,0.000042778,-0.184572681,0.179098604,0.018765691,-0.001610440,-0.001563193,0.000161244,0.999996483,0.000000000,0.000000000,0.000000000,0.000000000,0.000000000,0.000000000,0.018672369,0.000000000,4.079245623
1772421798.800961256,0.013798000,0.007787000,0.053737000,-0.003676110,0.002161550,0.000083920,0.999990900,-0.007352000,0.004324000,0.000152000,0.000190637,0.000062568,-0.000277895,0.005642460,0.032378837,0.001648753,0.008021302,-0.002449305,1.000098816,-0.001124968,0.005800878,-0.000325743,0.000000000,0.000000000,0.000000000,0.000000000,0.014113420,0.007863456,0.053725756,0.017490081,0.003519647,-0.000208081,0.005321787,0.000645497,-0.000627727,-0.184441669,0.177359023,0.018771021,-0.001609299,-0.001548012,0.000161316,0.999996483,0.000000000,0.000000000,0.000000000,0.000000000,0.000000000,0.000000000,0.018898081,0.000000000,4.079755733
1772421798.810961962,0.013791000,0.007798000,0.053727000,-0.003578630,0.002295020,0.000228990,0.999990940,-0.007156000,0.004592000,0.000442000,-0.000095396,0.000107809,-0.000045474,0.004535738,0.033506463,0.002951492,0.008777855,-0.002094161,1.000686105,0.000108357,0.005192547,0.000896405,0.000000000,0.000000000,0.000000000,0.000000000,0.014121975,0.007860177,0.053727700,0.017441388,0.003525884,-0.000270377,0.005004650,0.001563298,-0.000439263,-0.184994184,0.175675775,0.017727285,-0.001614137,-0.001533309,0.000152224,0.999996483,0.000000000,0.000000000,0.000000000,0.000000000,0.000000000,0.000000000,0.017980247,0.000000000,4.080265881
1772421798.820962667,0.013787000,0.007795000,0.053721000,-0.003585500,0.002622570,0.000166730,0.999990120,-0.007170000,0.005246000,0.000315000,-0.000614861,0.000372747,-0.000056352,0.001162222,0.031411991,0.006445861,0.009534407,-0.001739017,1.001273395,0.001341681,0.004584216,0.002118553,0.000000000,0.000000000,0.000000000,0.000000000,0.014125102,0.007861371,0.053726770,0.017399850,0.003598184,-0.000279199,0.006075945,0.001751964,0.000251079,-0.184798241,0.174552833,0.016784917,-0.001612442,-0.001523496,0.000144019,0.999996523,0.000000000,0.000000000,0.000000000,0.000000000,0.000000000,0.000000000,0.016601060,0.000000000,4.080351830
1772421798.830962658,0.013777000,0.007793000,0.053724000,-0.003620250,0.002912690,0.000173150,0.999989190,-0.007240000,0.005827000,0.000325000,-0.000795786,0.000417541,-0.000028166,-0.004738191,0.013463771,0.003933524,0.009436763,-0.001969204,1.001125926,0.000483135,0.000926838,0.001349916,0.000000000,0.000000000,0.000000000,0.000000000,0.014123933,0.007864466,0.053722026,0.017447638,0.003674465,-0.000219185,0.006244971,0.001364938,0.000642320,-0.183667839,0.173597512,0.017442255,-0.001602570,-0.001515167,0.000149784,0.999996543,0.000000000,0.000000000,0.000000000,0.000000000,0.000000000,0.000000000,0.016801921,0.000000000,4.080351830
1772421798.840962648,0.013759000,0.007824000,0.053722000,-0.003646770,0.003119590,0.000290050,0.999988440,-0.007292000,0.006241000,0.000557000,-0.000378167,0.000274748,-0.000055672,-0.006740254,-0.000693452,0.004334334,0.009119086,-0.002391832,1.000832669,-0.000953118,-0.003183762,0.000072329,0.000000000,0.000000000,0.000000000,0.000000000,0.014118657,0.007864810,0.053720740,0.017444056,0.003702612,-0.000141044,0.005956588,0.000605111,0.001082445,-0.183477847,0.173630742,0.017081829,-0.001600916,-0.001515452,0.000146641,0.999996597,0.000000000,0.000000000,0.000000000,0.000000000,0.000000000,0.000000000,0.017035607,0.000000000,4.080351830
1772421798.850962400,0.013790000,0.007791000,0.053741000,-0.003712410,0.002386190,0.000227030,0.999990240,-0.007424000,0.004774000,0.000436000,0.000195785,-0.000107537,0.000182265,-0.009637908,-0.022230156,-0.000956231,0.008953273,-0.002848284,1.001648486,-0.001639775,0.000536554,0.000312235,0.000000000,0.000000000,0.000000000,0.000000000,0.014106021,0.007879485,0.053721225,0.017426135,0.003673493,0.000028246,0.006077449,0.000465685,0.001364019,-0.182936921,0.175227844,0.017096102,-0.001596193,-0.001529389,0.000146750,0.999996543,0.000000000,0.000000000,0.000000000,0.000000000,0.000000000,0.000000000,0.017140212,0.000000000,4.080351830
1772421798.860962868,0.013761000,0.007809000,0.053721000,-0.003715820,0.002615670,0.000264820,0.999989640,-0.007430000,0.005233000,0.000510000,0.000512394,-0.000244989,0.000162626,-0.008685264,-0.026240205,-0.002142026,0.007924252,-0.001668482,1.000608403,-0.002392339,0.000003626,-0.001965986,0.000000000,0.000000000,0.000000000,0.000000000,0.014112648,0.007871785,0.053732405,0.017343337,0.003637851,0.000225063,0.004101616,0.001602622,0.000941507,-0.183352729,0.176518812,0.016446219,-0.001599829,-0.001540646,0.000141055,0.999996543,0.000000000,0.000000000,0.000000000,0.000000000,0.000000000,0.000000000,0.016524167,0.000000000,4.080351830
1772421798.870963097,0.013774000,0.007803000,0.053725000,-0.003788550,0.002429760,0.000203360,0.999989850,-0.007576000,0.004861000,0.000388000,0.000608528,-0.000353108,0.000118104,-0.005895314,-0.016945280,-0.004863493,0.008894576,-0.001804171,0.999941837,-0.001691227,0.000721088,-0.003184697,0.000000000,0.000000000,0.000000000,0.000000000,0.014103574,0.007875661,0.053729384,0.017233394,0.003753006,0.000264981,0.005900723,0.002275492,-0.000156520,-0.184766864,0.175392401,0.015509556,-0.001612184,-0.001530805,0.000132878,0.999996543,0.000000000,0.000000000,0.000000000,0.000000000,0.000000000,0.000000000,0.015522707,0.000000000,4.080351830
1772421798.880963564,0.013797000,0.007798000,0.053726000,-0.003739750,0.002493970,0.000243570,0.999989870,-0.007478000,0.004990000,0.000468000,0.000284732,-0.000292211,-0.000034110,-0.000390872,0.008504209,-0.002913329,0.007929972,-0.002341976,0.999823262,-0.000114749,-0.000283035,0.000702431,0.000000000,0.000000000,0.000000000,0.000000000,0.014113382,0.007874142,0.053730251,0.017186163,0.003858076,0.000288680,0.005915628,0.000590362,0.000525527,-0.182273547,0.176745586,0.015978920,-0.001590418,-0.001542617,0.000136989,0.999996543,0.000000000,0.000000000,0.000000000,0.000000000,0.000000000,0.000000000,0.016013125,0.000000000,4.080351830
1772421798.890964031,0.013795000,0.007785000,0.053741000,-0.003870660,0.002426200,0.000122040,0.999989560,-0.007741000,0.004853000,0.000225000,-0.000049281,-0.000002331,-0.000029934,0.004704157,0.026471799,0.003753002,0.008242272,-0.002588924,1.000129103,-0.000588954,0.000622300,-0.000139376,0.000000000,0.000000000,0.000000000,0.000000000,0.014120921,0.007865735,0.053739085,0.017232202,0.003710761,0.000351851,0.005221899,0.000588066,-0.000563458,-0.182137618,0.175998666,0.015737181,-0.001589236,-0.001536095,0.000134891,0.999996550,0.000000000,0.000000000,0.000000000,0.000000000,0.000000000,0.000000000,0.015755306,0.000000000,4.080351830
1772421798.900963545,0.013783000,0.007800000,0.053729000,-0.003759460,0.002662960,0.000214120,0.999989360,-0.007518000,0.005327000,0.000408000,-0.000171484,-0.000077273,0.000150078,0.008690541,0.023042194,0.007261213,0.008554542,-0.002835849,1.000434914,-0.001063114,0.001527548,-0.000981104,0.000000000,0.000000000,0.000000000,0.000000000,0.014115427,0.007868964,0.053736435,0.017089868,0.003679151,0.000271692,0.004439251,0.001351176,0.000330268,-0.181932194,0.175176761,0.015244306,-0.001587451,-0.001528916,0.000130604,0.999996603,0.000000000,0.000000000,0.000000000,0.000000000,0.000000000,0.000000000,0.015317898,0.000000000,4.080351830
1772421798.910963535,0.013779000,0.007799000,0.053728000,-0.003679120,0.002718190,0.000256980,0.999989500,-0.007357000,0.005438000,0.000494000,-0.000598893,0.000315230,-0.000114627,0.006827276,0.015210379,0.007498770,0.007744138,-0.002038908,1.001588242,-0.001853580,0.000797890,0.002491678,0.000000000,0.000000000,0.000000000,0.000000000,0.014107994,0.007869514,0.053733583,0.016971565,0.003670939,0.000321505,0.005042340,0.001187298,0.000527586,-0.182116535,0.172705346,0.015346047,-0.001589061,-0.001507350,0.000131524,0.999996603,0.000000000,0.000000000,0.000000000,0.000000000,0.000000000,0.000000000,0.015357342,0.000000000,4.080351830
1772421798.920964003,0.013771000,0.007798000,0.053722000,-0.003625440,0.003024780,0.000327780,0.999988800,-0.007249000,0.006052000,0.000634000,-0.000564550,0.000365307,-0.000028535,0.001751380,-0.012361354,0.001894090,0.007511870,-0.002284373,0.999827737,-0.000517458,0.000465364,-0.002110649,0.000000000,0.000000000,0.000000000,0.000000000,0.014102914,0.007869650,0.053735197,0.016817894,0.003688468,0.000393556,0.004839792,0.000806755,-0.000124763,-0.181486369,0.172852566,0.015132630,-0.001583564,-0.001508631,0.000129668,0.999996603,0.000000000,0.000000000,0.000000000,0.000000000,0.000000000,0.000000000,0.015094475,0.000000000,4.080351830
1772421798.930964470,0.013778000,0.007799000,0.053736000,-0.003660160,0.002755590,0.000350600,0.999989440,-0.007318000,0.005514000,0.000681000,-0.000271620,0.000336616,-0.000011772,-0.000576672,-0.028130324,-0.003283506,0.011435356,-0.003478361,0.998667675,-0.000674383,-0.004173263,-0.003506332,0.000000000,0.000000000,0.000000000,0.000000000,0.014099052,0.007872385,0.053738121,0.016821230,0.003643831,0.000316895,0.007877839,-0.000655477,-0.001328944,-0.181708826,0.173188127,0.015114886,-0.001585505,-0.001511560,0.000129505,0.999996603,0.000000000,0.000000000,0.000000000,0.000000000,0.000000000,0.000000000,0.015289298,0.000000000,4.080351830
1772421798.940964699,0.013768000,0.007808000,0.053732000,-0.003675380,0.002584880,0.000271410,0.999989870,-0.007349000,0.005172000,0.000524000,0.000090113,-0.000001690,0.000130478,-0.005517716,-0.033064857,-0.009942400,0.012013787,-0.003361908,0.998512859,-0.000508383,-0.004913389,-0.002592579,0.000000000,0.000000000,0.000000000,0.000000000,0.014079673,0.007868168,0.053737377,0.016731902,0.003458349,0.000334345,0.008590576,-0.000638776,-0.000295228,-0.180434947,0.176049417,0.014107153,-0.001574399,-0.001536514,0.000120689,0.999996571,0.000000000,0.000000000,0.000000000,0.000000000,0.000000000,0.000000000,0.014260564,0.000000000,4.080351830
1772421798.950965166,0.013774000,0.007810000,0.053726000,-0.003811330,0.002132410,0.000155340,0.999990450,-0.007622000,0.004266000,0.000294000,0.000449126,-0.000120474,0.000103128,-0.003184325,-0.023541230,-0.008578820,0.011243329,-0.002802301,0.998541821,-0.000064168,-0.004032464,-0.001480643,0.000000000,0.000000000,0.000000000,0.000000000,0.014068326,0.007857319,0.053737643,0.016568238,0.003276414,0.000504788,0.006307091,0.001180053,0.000528490,-0.179382451,0.182808210,0.012836785,-0.001565224,-0.001595477,0.000109524,0.999996515,0.000000000,0.000000000,0.000000000,0.000000000,0.000000000,0.000000000,0.013026808,0.000000000,4.080351830
1772421798.960965633,0.013772000,0.007801000,0.053737000,-0.003726010,0.002087200,0.000125500,0.999990870,-0.007452000,0.004175000,0.000235000,0.000794348,-0.000441453,0.000141745,0.002228019,-0.004078183,-0.004459887,0.010472870,-0.002242693,0.998570782,0.000380046,-0.003151539,-0.000368707,0.000000000,0.000000000,0.000000000,0.000000000,0.014098992,0.007854208,0.053742719,0.016767145,0.003263300,0.000612198,0.005698647,-0.000093565,0.002198126,-0.178866560,0.182217191,0.013726841,-0.001560711,-0.001590331,0.000117307,0.999996500,0.000000000,0.000000000,0.000000000,0.000000000,0.000000000,0.000000000,0.013586964,0.000000000,4.080351830
1772421798.970966101,0.013783000,0.007801000,0.053727000,-0.003661300,0.002476080,0.000169230,0.999990220,-0.007322000,0.004953000,0.000320000,0.000610645,-0.000438481,-0.000029643,0.005982735,0.022283253,0.000740622,0.009702411,-0.001683085,0.998599744,0.000824261,-0.002270614,0.000743229,0.000000000,0.000000000,0.000000000,0.000000000,0.014112121,0.007852619,0.053746546,0.016918924,0.003193706,0.000774220,0.006703744,0.001278498,0.001033456,-0.179564863,0.182138689,0.014016358,-0.001566801,-0.001589650,0.000119825,0.999996536,0.000000000,0.000000000,0.000000000,0.000000000,0.000000000,0.000000000,0.013907611,0.000000000,4.080351830
1772421798.980966806,0.013801000,0.007786000,0.053735000,-0.003696800,0.002520250,0.000179380,0.999989970,-0.007393000,0.005042000,0.000340000,0.000377662,-0.000252390,0.000057867,0.006149301,0.019696441,0.004299476,0.008931935,-0.001123464,0.998628706,0.001268487,-0.001389669,0.001855192,0.000000000,0.000000000,0.000000000,0.000000000,0.014106074,0.007860068,0.053743794,0.016985935,0.003343348,0.000849978,0.004632193,0.002457322,0.001093799,-0.178783825,0.183089362,0.014941249,-0.001559971,-0.001597959,0.000127894,0.999996483,0.000000000,0.000000000,0.000000000,0.000000000,0.000000000,0.000000000,0.014844623,0.000000000,4.080351830
1772421798.990967274,0.013802000,0.007791000,0.053738000,-0.003620580,0.002510320,0.000241970,0.999990270,-0.007240000,0.005022000,0.000466000,-0.000050796,-0.000035159,0.000065462,0.003774671,-0.001142839,0.004188517,0.008264757,-0.000680162,0.998295913,0.000462243,-0.001724511,0.001509323,0.000000000,0.000000000,0.000000000,0.000000000,0.014105724,0.007861950,0.053748897,0.016869294,0.003527475,0.000813103,0.005885988,0.002870985,-0.001967442,-0.178857999,0.182774170,0.015379844,-0.001560612,-0.001595214,0.000131724,0.999996483,0.000000000,0.000000000,0.000000000,0.000000000,0.000000000,0.000000000,0.015356974,0.000000000,4.080351830
1772421799.000967503,0.013794000,0.007788000,0.053734000,-0.003606030,0.002627520,0.000215960,0.999990020,-0.007211000,0.005257000,0.000413000,-0.000428847,0.000143376,-0.000050447,-0.001099166,-0.017647255,0.003032040,0.008452727,-0.001164725,0.998402654,0.000851034,-0.002713824,-0.000397113,0.000000000,0.000000000,0.000000000,0.000000000,0.014103059,0.007862466,0.053747751,0.016822154,0.003698065,0.000564720,0.004578236,0.002054892,-0.000659249,-0.178728141,0.182717060,0.013644160,-0.001559503,-0.001594692,0.000116580,0.999996493,0.000000000,0.000000000,0.000000000,0.000000000,0.000000000,0.000000000,0.013888795,0.000000000,4.080351830
1772421799.010967493,0.013772000,0.007805000,0.053725000,-0.003668200,0.002475960,0.000195910,0.999990190,-0.007336000,0.004953000,0.000374000,-0.000694892,0.000154351,0.000023543,-0.002394487,-0.024418403,0.001151984,0.008630278,-0.001739430,1.000683349,0.001559452,-0.000753735,-0.000232248,0.000000000,0.000000000,0.000000000,0.000000000,0.014100548,0.007866332,0.053743076,0.016758509,0.003778212,0.000465087,0.006247973,0.000803695,0.000781220,-0.177784820,0.183506250,0.013710309,-0.001551270,-0.001601579,0.000117160,0.999996525,0.000000000,0.000000000,0.000000000,0.000000000,0.000000000,0.000000000,0.013651295,0.000000000,4.080351830
1772421799.020967960,0.013782000,0.007797000,0.053738000,-0.003674840,0.001975060,0.000220990,0.999991270,-0.007349000,0.003952000,0.000427000,-0.000609946,0.000273330,-0.000204895,-0.004845005,-0.011721615,-0.000612924,0.009672417,-0.002442926,1.001943487,0.001307413,0.001266787,-0.000933902,0.000000000,0.000000000,0.000000000,0.000000000,0.014103764,0.007868493,0.053742142,0.016792615,0.003778034,0.000559546,0.005677307,0.001143200,0.001626093,-0.177028420,0.183134979,0.012514360,-0.001544686,-0.001598322,0.000106739,0.999996543,0.000000000,0.000000000,0.000000000,0.000000000,0.000000000,0.000000000,0.012654026,0.000000000,4.080351830
1772421799.030968428,0.013779000,0.007791000,0.053736000,-0.003692700,0.002015520,0.000235260,0.999991120,-0.007385000,0.004033000,0.000456000,0.000085295,-0.000087743,-0.000044503,-0.008640800,-0.003205152,-0.003611885,0.009500974,-0.002507423,1.000774067,0.002841983,0.003254783,-0.001997696,0.000000000,0.000000000,0.000000000,0.000000000,0.014117053,0.007863258,0.053747788,0.016921069,0.003718099,0.000734241,0.006355476,0.000658528,0.000699592,-0.176192843,0.182838340,0.012998860,-0.001537388,-0.001595739,0.000110983,0.999996543,0.000000000,0.000000000,0.000000000,0.000000000,0.000000000,0.000000000,0.013004990,0.000000000,4.080351830
1772421799.040967941,0.013774000,0.007797000,0.053728000,-0.003715180,0.002473780,0.000240980,0.999990010,-0.007429000,0.004949000,0.000464000,0.000748388,-0.000354526,0.000300350,-0.009118491,0.003465236,-0.006821119,0.009097081,-0.002758286,0.999644407,0.000867585,0.001494705,0.001147802,0.000000000,0.000000000,0.000000000,0.000000000,0.014124599,0.007859380,0.053756897,0.016969531,0.003656308,0.000774427,0.006048062,0.000221483,-0.000234030,-0.175276510,0.181417897,0.012969306,-0.001529393,-0.001583342,0.000110757,0.999996567,0.000000000,0.000000000,0.000000000,0.000000000,0.000000000,0.000000000,0.012964093,0.000000000,4.080351830
1772421799.050967932,0.013781000,0.007796000,0.053734000,-0.003773270,0.002259730,0.000144070,0.999990320,-0.007546000,0.004521000,0.000271000,0.000672475,-0.000276282,0.000271271,-0.008214079,0.011160423,-0.008161279,0.009928815,-0.002562264,0.999387436,0.000429544,0.000664509,0.000444857,0.000000000,0.000000000,0.000000000,0.000000000,0.014113204,0.007867099,0.053749275,0.016966195,0.003590166,0.000688958,0.006847270,0.000082064,0.000181518,-0.175410200,0.180298909,0.013403160,-0.001530555,-0.001573583,0.000114556,0.999996599,0.000000000,0.000000000,0.000000000,0.000000000,0.000000000,0.000000000,0.013279236,0.000000000,4.080351830
1772421799.060967922,0.013791000,0.007798000,0.053728000,-0.003852360,0.002414150,0.000096760,0.999989660,-0.007704000,0.004829000,0.000175000,0.000314142,0.000075408,0.000065812,-0.006141567,0.009277252,-0.009774320,0.010787131,-0.002352691,0.999150008,0.000039868,-0.000128175,-0.000364647,0.000000000,0.000000000,0.000000000,0.000000000,0.014110629,0.007868712,0.053743559,0.017033206,0.003493171,0.000644146,0.007551253,-0.000449171,-0.000127327,-0.174710096,0.179160103,0.014261996,-0.001524435,-0.001563656,0.000122075,0.999996603,0.000000000,0.000000000,0.000000000,0.000000000,0.000000000,0.000000000,0.014157477,0.000000000,4.080351830
1772421799.070968390,0.013814000,0.007776000,0.053749000,-0.003876120,0.002221640,0.000043500,0.999990020,-0.007752000,0.004444000,0.000070000,0.000224592,0.000055594,0.000049883,-0.004595960,-0.005050178,-0.010361819,0.011645488,-0.002143107,0.998912569,-0.000349827,-0.000920896,-0.001174190,0.000000000,0.000000000,0.000000000,0.000000000,0.014111219,0.007864599,0.053741405,0.017197885,0.003350719,0.000567984,0.008002266,-0.000030152,-0.001446145,-0.174595869,0.177894774,0.015059983,-0.001523429,-0.001552624,0.000129057,0.999996653,0.000000000,0.000000000,0.000000000,0.000000000,0.000000000,0.000000000,0.014899669,0.000000000,4.079964897
1772421799.080968618,0.013800000,0.007789000,0.053748000,-0.003858090,0.002264810,0.000013690,0.999989990,-0.007716000,0.004530000,0.000010000,-0.000318415,0.000149612,-0.000249223,-0.001813165,-0.003602079,-0.006717246,0.010629730,-0.003070502,0.999435177,0.001082539,-0.001276452,0.002403859,0.000000000,0.000000000,0.000000000,0.000000000,0.014109571,0.007863372,0.053740054,0.017286947,0.003298962,0.000501361,0.007871091,0.000406684,-0.001856618,-0.174843837,0.177834204,0.015678532,-0.001525584,-0.001552104,0.000134453,0.999996662,0.000000000,0.000000000,0.000000000,0.000000000,0.000000000,0.000000000,0.015697484,0.000000000,4.079555960
1772421799.090968609,0.013771000,0.007808000,0.053724000,-0.003829570,0.002386080,0.000059620,0.999989820,-0.007659000,0.004773000,0.000101000,-0.000916687,0.000367094,-0.000407460,0.003388201,0.015269909,0.001456964,0.010366966,-0.003450036,0.999564120,0.000211421,-0.000388947,0.002902315,0.000000000,0.000000000,0.000000000,0.000000000,0.014106964,0.007864149,0.053738618,0.017326234,0.003295572,0.000448301,0.007575871,-0.000131841,-0.001131480,-0.175014649,0.178104331,0.015523633,-0.001527077,-0.001554460,0.000133095,0.999996662,0.000000000,0.000000000,0.000000000,0.000000000,0.000000000,0.000000000,0.015543045,0.000000000,4.079147033
1772421799.100968361,0.013785000,0.007800000,0.053726000,-0.003825540,0.002385210,-0.000046780,0.999989840,-0.007651000,0.004770000,-0.000112000,-0.000792833,0.000288773,-0.000337024,0.007200162,0.013916913,0.003631219,0.010202136,-0.003759428,0.999642947,-0.000939980,0.000642805,0.003016402,0.000000000,0.000000000,0.000000000,0.000000000,0.014104357,0.007864925,0.053737182,0.017365519,0.003292182,0.000395241,0.007280658,-0.000670354,-0.000406360,-0.175185457,0.178374452,0.015368738,-0.001528569,-0.001556815,0.000131737,0.999996662,0.000000000,0.000000000,0.000000000,0.000000000,0.000000000,0.000000000,0.015388609,0.000000000,4.078738115
1772421799.110969305,0.013783000,0.007792000,0.053729000,-0.003870650,0.002354380,-0.000017870,0.999989740,-0.007741000,0.004709000,-0.000054000,-0.000344581,0.000092405,-0.000177117,0.008448421,0.019428034,0.005801822,0.010037285,-0.004068857,0.999721782,-0.002091518,0.001674679,0.003130502,0.000000000,0.000000000,0.000000000,0.000000000,0.014101750,0.007865702,0.053735746,0.017404810,0.003288792,0.000342176,0.006985410,-0.001208931,0.000318846,-0.175356285,0.178644604,0.015213824,-0.001530061,-0.001559171,0.000130380,0.999996662,0.000000000,0.000000000,0.000000000,0.000000000,0.000000000,0.000000000,0.015234154,0.000000000,4.078329149
1772421799.120969534,0.013759000,0.007805000,0.053722000,-0.003748700,0.002651340,0.000125550,0.999989450,-0.007497000,0.005304000,0.000231000,0.000417250,-0.000403400,0.000284499,0.009561366,0.010910528,0.006336066,0.009872446,-0.004378264,0.999800613,-0.003242975,0.002706480,0.003244595,0.000000000,0.000000000,0.000000000,0.000000000,0.014102581,0.007864858,0.053737859,0.017484210,0.003146925,0.000347687,0.006135955,-0.001129588,-0.000385162,-0.175417994,0.178406141,0.015219747,-0.001530600,-0.001557090,0.000130434,0.999996615,0.000000000,0.000000000,0.000000000,0.000000000,0.000000000,0.000000000,0.015171036,0.000000000,4.077920212
1772421799.130970001,0.013770000,0.007801000,0.053736000,-0.003650470,0.002782380,0.000184990,0.999989450,-0.007300000,0.005566000,0.000350000,0.000566842,-0.000316881,0.000512491,0.009081070,0.002160399,0.006476950,0.008904623,-0.003008004,0.998153802,-0.001816663,0.001686067,-0.000204889,0.000000000,0.000000000,0.000000000,0.000000000,0.014113020,0.007858957,0.053738978,0.017532858,0.002982211,0.000266331,0.006080637,-0.000422445,-0.001603070,-0.175019968,0.177156554,0.015530366,-0.001527124,-0.001546189,0.000133166,0.999996646,0.000000000,0.000000000,0.000000000,0.000000000,0.000000000,0.000000000,0.015494324,0.000000000,4.077511265
1772421799.140969992,0.013797000,0.007789000,0.053734000,-0.003660650,0.002437310,0.000050280,0.999990330,-0.007321000,0.004875000,0.000083000,0.000221698,0.000048932,0.000099165,0.006018972,0.003938559,0.006056903,0.010691502,-0.002254793,0.998811431,0.002051947,0.000636962,0.002539271,0.000000000,0.000000000,0.000000000,0.000000000,0.014121059,0.007853586,0.053738633,0.017611383,0.002882232,0.000092367,0.007481706,0.000905695,-0.000921022,-0.174213458,0.176242386,0.015820498,-0.001520083,-0.001538214,0.000135721,0.999996662,0.000000000,0.000000000,0.000000000,0.000000000,0.000000000,0.000000000,0.015759119,0.000000000,4.077102338
1772421799.150970459,0.013788000,0.007793000,0.053736000,-0.003660930,0.002698390,0.000155010,0.999989650,-0.007321000,0.005398000,0.000290000,0.000024009,0.000382226,-0.000189530,-0.000814885,-0.006783253,0.001458323,0.010375384,-0.001714940,0.999951751,0.002300760,-0.002836784,0.002079335,0.000000000,0.000000000,0.000000000,0.000000000,0.014125332,0.007851092,0.053738076,0.017755114,0.002900718,0.000024502,0.007562980,0.001220374,-0.000556616,-0.174038455,0.175454699,0.015992374,-0.001518554,-0.001531342,0.000137234,0.999996662,0.000000000,0.000000000,0.000000000,0.000000000,0.000000000,0.000000000,0.016114645,0.000000000,4.076693391
1772421799.160970688,0.013792000,0.007792000,0.053737000,-0.003641310,0.002445490,0.000161530,0.999990370,-0.007282000,0.004892000,0.000305000,-0.000485140,0.000668377,-0.000469503,-0.006619493,-0.012038577,0.000369437,0.009775923,-0.002279337,0.999195090,-0.002478214,0.000902614,-0.000910264,0.000000000,0.000000000,0.000000000,0.000000000,0.014123167,0.007856256,0.053735409,0.017852041,0.002946949,-0.000049357,0.006124620,0.001190372,-0.000618398,-0.173315577,0.174352480,0.015409377,-0.001512255,-0.001521715,0.000132170,0.999996705,0.000000000,0.000000000,0.000000000,0.000000000,0.000000000,0.000000000,0.015321089,0.000000000,4.076284454
1772421799.170971155,0.013772000,0.007812000,0.053731000,-0.003692590,0.002523930,0.000182490,0.999989980,-0.007384000,0.005049000,0.000346000,-0.000851827,0.000766570,-0.000524437,-0.005078223,-0.006474722,0.000750967,0.009345431,0.000127109,0.999599131,0.001583128,-0.006263097,-0.000428855,0.000000000,0.000000000,0.000000000,0.000000000,0.014114351,0.007866880,0.053723934,0.017817529,0.003072915,-0.000165195,0.005931244,0.002236250,-0.000090718,-0.173486059,0.175469880,0.015809587,-0.001513736,-0.001531472,0.000135646,0.999996674,0.000000000,0.000000000,0.000000000,0.000000000,0.000000000,0.000000000,0.015856634,0.000000000,4.075875507
1772421799.180971622,0.013762000,0.007819000,0.053710000,-0.003739300,0.002684880,0.000166230,0.999989390,-0.007478000,0.005371000,0.000312000,-0.000492464,0.000339200,-0.000155439,-0.000844589,-0.006134146,0.000535620,0.008494873,-0.001305421,1.001533978,0.001175511,0.000220896,0.001469322,0.000000000,0.000000000,0.000000000,0.000000000,0.014108947,0.007875919,0.053718256,0.017770282,0.003256448,-0.000165566,0.006152395,0.001525999,0.001214291,-0.172343235,0.176132724,0.015872399,-0.001503762,-0.001537255,0.000136201,0.999996662,0.000000000,0.000000000,0.000000000,0.000000000,0.000000000,0.000000000,0.015776318,0.000000000,4.075466560
1772421799.190971851,0.013764000,0.007824000,0.053720000,-0.003777230,0.002212560,0.000137240,0.999990410,-0.007554000,0.004426000,0.000258000,0.000379332,-0.000277428,0.000123582,0.000709704,-0.007945523,-0.002761061,0.009874730,-0.002095797,1.001597213,0.001644386,-0.003039508,-0.003837259,0.000000000,0.000000000,0.000000000,0.000000000,0.014107544,0.007877595,0.053719314,0.017762695,0.003305117,-0.000031818,0.006020916,0.000730659,0.001515374,-0.170865139,0.176629617,0.015974061,-0.001490861,-0.001541591,0.000137101,0.999996707,0.000000000,0.000000000,0.000000000,0.000000000,0.000000000,0.000000000,0.016094993,0.000000000,4.075091999
1772421799.200972080,0.013766000,0.007812000,0.053723000,-0.003699370,0.002461990,0.000155500,0.999990110,-0.007398000,0.004925000,0.000293000,0.000931508,-0.000892095,0.000506178,0.001665787,-0.005394148,-0.002875240,0.009186199,-0.001440970,1.001247524,-0.000399715,-0.000225925,0.001113838,0.000000000,0.000000000,0.000000000,0.000000000,0.014113925,0.007871264,0.053726037,0.017789173,0.003282531,0.000135100,0.005810964,0.001373408,0.000814482,-0.170377368,0.176874186,0.015201907,-0.001486615,-0.001543715,0.000130366,0.999996722,0.000000000,0.000000000,0.000000000,0.000000000,0.000000000,0.000000000,0.015119426,0.000000000,4.075583087
1772421799.210972071,0.013788000,0.007794000,0.053737000,-0.003642500,0.002434170,0.000111480,0.999990400,-0.007285000,0.004869000,0.000205000,0.000959441,-0.000987472,0.000609635,0.002031118,-0.002832559,-0.003883864,0.007779265,-0.001955790,0.998886857,0.001113169,0.002239210,-0.000082270,0.000000000,0.000000000,0.000000000,0.000000000,0.014124980,0.007861775,0.053734589,0.017770267,0.003299277,0.000215688,0.005242981,0.001181323,-0.000448249,-0.169396161,0.177190368,0.015750995,-0.001478044,-0.001546480,0.000135167,0.999996722,0.000000000,0.000000000,0.000000000,0.000000000,0.000000000,0.000000000,0.015731386,0.000000000,4.076074163
1772421799.220972061,0.013798000,0.007786000,0.053740000,-0.003665790,0.002330850,0.000147360,0.999990550,-0.007331000,0.004663000,0.000278000,0.000295902,-0.000464122,0.000359985,0.001173491,0.001996901,-0.002514775,0.009300870,-0.002927199,0.999036283,0.000899997,0.005174320,-0.003789107,0.000000000,0.000000000,0.000000000,0.000000000,0.014133401,0.007856038,0.053737967,0.017714626,0.003267657,0.000140999,0.006282255,0.000407963,-0.000717076,-0.168411326,0.177073343,0.015886192,-0.001469448,-0.001545460,0.000136362,0.999996722,0.000000000,0.000000000,0.000000000,0.000000000,0.000000000,0.000000000,0.015867919,0.000000000,4.076565239
1772421799.230971813,0.013804000,0.007787000,0.053736000,-0.003731430,0.002456090,0.000100060,0.999990020,-0.007462000,0.004913000,0.000182000,-0.000213520,-0.000055633,-0.000070202,0.001348065,0.002102405,-0.000226256,0.010767973,-0.001105197,1.000713562,0.000241940,0.003349518,-0.002536825,0.000000000,0.000000000,0.000000000,0.000000000,0.014135254,0.007852584,0.053739443,0.017759707,0.003246190,0.000114907,0.007806127,0.001338129,0.000560343,-0.167778866,0.176080138,0.016018916,-0.001463928,-0.001536793,0.000137541,0.999996722,0.000000000,0.000000000,0.000000000,0.000000000,0.000000000,0.000000000,0.016000547,0.000000000,4.077056304
1772421799.240972042,0.013789000,0.007783000,0.053741000,-0.003710230,0.002308750,0.000076110,0.999990450,-0.007420000,0.004618000,0.000135000,-0.000608004,0.000443279,-0.000254332,-0.000026872,-0.010119570,0.003100113,0.010254536,-0.001624441,1.000274074,0.001162936,-0.000411620,0.001216356,0.000000000,0.000000000,0.000000000,0.000000000,0.014128645,0.007854489,0.053739331,0.017879393,0.003322645,0.000175613,0.007200427,0.001451961,0.000212135,-0.168557636,0.174360997,0.016096126,-0.001470725,-0.001521793,0.000138227,0.999996752,0.000000000,0.000000000,0.000000000,0.000000000,0.000000000,0.000000000,0.016087623,0.000000000,4.077547392
1772421799.250972271,0.013766000,0.007808000,0.053729000,-0.003683550,0.002532850,0.000113400,0.999990000,-0.007367000,0.005067000,0.000208000,-0.000628070,0.000550739,-0.000264355,0.000658490,0.003592983,0.007501314,0.009825897,-0.002970726,0.999877647,-0.001699912,0.001329589,0.000589845,0.000000000,0.000000000,0.000000000,0.000000000,0.014118169,0.007864832,0.053734949,0.017949052,0.003363218,0.000152122,0.007244149,-0.000495632,0.000056682,-0.167812527,0.174601682,0.016418514,-0.001464219,-0.001523896,0.000141047,0.999996781,0.000000000,0.000000000,0.000000000,0.000000000,0.000000000,0.000000000,0.016566844,0.000000000,4.078038480
1772421799.260972738,0.013768000,0.007806000,0.053729000,-0.003644460,0.002310380,0.000196410,0.999990670,-0.007288000,0.004622000,0.000376000,-0.000215463,0.000371115,0.000077739,0.000717388,0.012089385,0.011967962,0.010627530,-0.003974700,1.001671151,-0.000864629,0.001168182,-0.002287995,0.000000000,0.000000000,0.000000000,0.000000000,0.014121997,0.007863581,0.053734703,0.018085827,0.003189308,0.000191405,0.008021592,-0.001628573,0.001150579,-0.167089983,0.173114519,0.015556134,-0.001457926,-0.001510907,0.000133550,0.999996781,0.000000000,0.000000000,0.000000000,0.000000000,0.000000000,0.000000000,0.015579448,0.000000000,4.078529580
1772421799.270972729,0.013785000,0.007795000,0.053733000,-0.003639630,0.002319040,0.000242040,0.999990660,-0.007278000,0.004640000,0.000467000,0.000131469,0.000196543,0.000214530,-0.002349249,0.016052594,0.011258737,0.010454709,-0.004754884,0.999620644,0.001884704,-0.002359071,-0.000486449,0.000000000,0.000000000,0.000000000,0.000000000,0.014125395,0.007864517,0.053736247,0.018268764,0.002940299,0.000268254,0.006748349,-0.000559191,0.001074909,-0.167051772,0.172948159,0.015423686,-0.001457595,-0.001509453,0.000132396,0.999996781,0.000000000,0.000000000,0.000000000,0.000000000,0.000000000,0.000000000,0.015419066,0.000000000,4.079020656
1772421799.280972719,0.013777000,0.007810000,0.053733000,-0.003735350,0.002483700,0.000294770,0.999989900,-0.007469000,0.004970000,0.000571000,0.000352059,0.000048835,0.000136636,-0.004571523,0.017445886,0.006997798,0.008277814,-0.001710040,1.001734391,0.001170276,-0.000143678,-0.003721811,0.000000000,0.000000000,0.000000000,0.000000000,0.014129544,0.007862920,0.053739991,0.018310187,0.002848691,0.000347741,0.005387790,0.000174409,0.000705346,-0.166594882,0.172681140,0.015399190,-0.001453608,-0.001507122,0.000132192,0.999996781,0.000000000,0.000000000,0.000000000,0.000000000,0.000000000,0.000000000,0.015419880,0.000000000,4.079511732
1772421799.290973186,0.013786000,0.007802000,0.053741000,-0.003722770,0.002938350,0.000331440,0.999988700,-0.007444000,0.005879000,0.000641000,0.000078069,-0.000034732,-0.000028302,-0.002991785,0.018746535,0.000879478,0.008067951,-0.001786051,1.001696190,-0.001581491,-0.001388484,-0.000883317,0.000000000,0.000000000,0.000000000,0.000000000,0.014132170,0.007860972,0.053743735,0.018274105,0.002820328,0.000418617,0.004614760,0.000116280,0.000443003,-0.165992437,0.173699142,0.015225641,-0.001448352,-0.001516003,0.000130673,0.999996781,0.000000000,0.000000000,0.000000000,0.000000000,0.000000000,0.000000000,0.015250414,0.000000000,4.080002832
1772421799.300973654,0.013782000,0.007804000,0.053743000,-0.003740670,0.002688310,0.000346890,0.999989330,-0.007480000,0.005379000,0.000674000,-0.000153866,0.000019716,-0.000516123,-0.002378742,0.019176538,-0.007052955,0.008341589,-0.002245491,1.001470020,-0.003412518,-0.002633614,0.002113241,0.000000000,0.000000000,0.000000000,0.000000000,0.014132200,0.007860224,0.053746774,0.018198380,0.002807857,0.000476315,0.005422602,0.000659329,0.001824985,-0.166200082,0.174212559,0.014663583,-0.001450171,-0.001520476,0.000125759,0.999996781,0.000000000,0.000000000,0.000000000,0.000000000,0.000000000,0.000000000,0.014757440,0.000000000,4.080549015
1772421799.310973883,0.013776000,0.007807000,0.053726000,-0.003763030,0.002681050,0.000187960,0.999989310,-0.007525000,0.005363000,0.000356000,-0.000086772,-0.000214025,-0.000477662,-0.000991502,-0.000259399,-0.011763960,0.009972718,-0.001822536,1.002000306,0.003467864,0.000747596,-0.000920457,0.000000000,0.000000000,0.000000000,0.000000000,0.014128638,0.007860826,0.053741877,0.018162206,0.002832066,0.000639142,0.006757153,0.000913855,0.002398789,-0.166861976,0.173983146,0.014878605,-0.001455945,-0.001518478,0.000127629,0.999996781,0.000000000,0.000000000,0.000000000,0.000000000,0.000000000,0.000000000,0.014760898,0.000000000,4.081230462
1772421799.320974350,0.013778000,0.007803000,0.053721000,-0.003706520,0.002694530,0.000214870,0.999989480,-0.007412000,0.005391000,0.000410000,0.000242269,-0.000388501,-0.000125427,-0.001642693,-0.022629495,-0.015298699,0.008748233,-0.001276827,1.001222570,0.001596309,0.000717096,0.000117061,0.000000000,0.000000000,0.000000000,0.000000000,0.014127566,0.007859373,0.053737347,0.018232116,0.002898821,0.000797770,0.006190668,0.001596311,0.001133075,-0.166762308,0.172789264,0.016022907,-0.001455061,-0.001508074,0.000137631,0.999996799,0.000000000,0.000000000,0.000000000,0.000000000,0.000000000,0.000000000,0.015899993,0.000000000,4.081911926
1772421799.330974102,0.013775000,0.007800000,0.053719000,-0.003720900,0.002842710,0.000112990,0.999989030,-0.007441000,0.005686000,0.000205000,0.000262937,-0.000177739,0.000176243,-0.003414225,-0.033430020,-0.015017547,0.008707765,-0.002774962,1.001210103,0.001065020,0.001939840,-0.001148865,0.000000000,0.000000000,0.000000000,0.000000000,0.014129483,0.007855711,0.053736198,0.018191560,0.002946254,0.000906872,0.005573451,0.000482155,0.001751137,-0.166531043,0.171688109,0.017113355,-0.001453030,-0.001498478,0.000147164,0.999996841,0.000000000,0.000000000,0.000000000,0.000000000,0.000000000,0.000000000,0.017067096,0.000000000,4.082593341
1772421799.340974808,0.013792000,0.007790000,0.053720000,-0.003812030,0.002493860,-0.000001030,0.999989620,-0.007624000,0.004988000,-0.000021000,0.000274709,-0.000209596,0.000547203,-0.000849679,-0.031759983,-0.009258179,0.010720089,-0.003735540,1.001520103,-0.000054639,-0.000598723,0.002337940,0.000000000,0.000000000,0.000000000,0.000000000,0.014135995,0.007850384,0.053747577,0.018254535,0.002839619,0.001075948,0.007140864,-0.000353206,0.002137791,-0.166404640,0.170118160,0.015536810,-0.001451950,-0.001484757,0.000133428,0.999996841,0.000000000,0.000000000,0.000000000,0.000000000,0.000000000,0.000000000,0.015621233,0.000000000,4.083274821
1772421799.350975513,0.013790000,0.007791000,0.053749000,-0.003776980,0.002097930,0.000026270,0.999990670,-0.007554000,0.004196000,0.000037000,0.000127933,-0.000044075,0.000527973,0.002439724,-0.028934901,-0.001723785,0.008690830,-0.003827604,1.002809785,0.003468642,0.000319244,0.000730510,0.000000000,0.000000000,0.000000000,0.000000000,0.014140073,0.007850603,0.053759827,0.018366548,0.002700052,0.001330124,0.005560177,-0.001045443,0.002045169,-0.166178977,0.169082471,0.015422483,-0.001449983,-0.001475718,0.000132446,0.999996841,0.000000000,0.000000000,0.000000000,0.000000000,0.000000000,0.000000000,0.015301174,0.000000000,4.083956302
1772421799.360975504,0.013792000,0.007799000,0.053745000,-0.003790440,0.001983560,-0.000027100,0.999990850,-0.007581000,0.003967000,-0.000069000,-0.000048485,0.000081410,0.000221601,0.004247966,-0.023192660,0.002973726,0.009563648,-0.003652327,1.000090335,0.001920886,0.000280580,-0.000873845,0.000000000,0.000000000,0.000000000,0.000000000,0.014087556,0.007841611,0.053757286,0.017611571,0.002498485,0.001486387,0.004936572,-0.000261471,0.000901727,-0.165612617,0.168309824,0.015717699,-0.001445038,-0.001468978,0.000135040,0.999996841,0.000000000,0.000000000,0.000000000,0.000000000,0.000000000,0.000000000,0.015780179,0.000000000,4.084637733
1772421799.370976210,0.013781000,0.007801000,0.053735000,-0.003723770,0.002118520,0.000033160,0.999990820,-0.007447000,0.004237000,0.000051000,-0.000073893,0.000011538,-0.000116919,0.003418203,-0.009599961,0.006206392,0.009804683,-0.003314638,0.999904895,0.000294008,0.000378175,-0.000366030,0.000000000,0.000000000,0.000000000,0.000000000,0.014039007,0.007832421,0.053753949,0.016843070,0.002329907,0.001583738,0.005246582,0.001204605,0.000082434,-0.165073984,0.181211622,0.015229454,-0.001440328,-0.001581561,0.000130624,0.999996731,0.000000000,0.000000000,0.000000000,0.000000000,0.000000000,0.000000000,0.015136626,0.000000000,4.085319213
1772421799.380976200,0.013782000,0.007791000,0.053738000,-0.003655810,0.002127910,0.000132110,0.999991040,-0.007311000,0.004257000,0.000249000,-0.000113462,-0.000022067,-0.000205614,0.000737823,0.006309257,0.007587574,0.010045700,-0.002976973,0.999719469,-0.001332753,0.000475764,0.000141748,0.000000000,0.000000000,0.000000000,0.000000000,0.014083962,0.007836750,0.053760360,0.017197823,0.002385082,0.001507812,0.007312147,0.000327991,-0.000953835,-0.164342441,0.185594006,0.014870037,-0.001433945,-0.001619799,0.000127442,0.999996662,0.000000000,0.000000000,0.000000000,0.000000000,0.000000000,0.000000000,0.014887126,0.000000000,4.085348399
1772421799.390975952,0.013786000,0.007799000,0.053728000,-0.003691140,0.002192700,0.000138950,0.999990770,-0.007382000,0.004386000,0.000262000,-0.000059596,-0.000001049,-0.000129021,-0.002675707,0.004808923,0.007448890,0.009627885,-0.000723163,1.000045770,-0.003215112,0.002522275,-0.000995637,0.000000000,0.000000000,0.000000000,0.000000000,0.014103564,0.007842203,0.053763742,0.017517240,0.002442051,0.001397830,0.006638366,0.002020782,0.000339318,-0.163755695,0.185495125,0.014581205,-0.001428828,-0.001618931,0.000124931,0.999996662,0.000000000,0.000000000,0.000000000,0.000000000,0.000000000,0.000000000,0.014539530,0.000000000,4.084829337
1772421799.400975943,0.013787000,0.007793000,0.053736000,-0.003772880,0.001970340,0.000131490,0.999990930,-0.007545000,0.003942000,0.000248000,-0.000208217,0.000194250,0.000017269,-0.004289250,0.010122995,0.007559154,0.008383547,-0.001097951,1.001399762,-0.001913192,-0.001088440,0.004013239,0.000000000,0.000000000,0.000000000,0.000000000,0.014108395,0.007850172,0.053763114,0.017626756,0.002630464,0.001393169,0.005233737,0.001535472,0.001657888,-0.163688117,0.182917250,0.015020829,-0.001428235,-0.001596441,0.000128801,0.999996702,0.000000000,0.000000000,0.000000000,0.000000000,0.000000000,0.000000000,0.014944140,0.000000000,4.084310263
1772421799.410975218,0.013787000,0.007793000,0.053735000,-0.003825780,0.002214350,0.000120350,0.999990220,-0.007651000,0.004430000,0.000224000,-0.000190851,0.000288170,-0.000099223,-0.004330220,0.018624994,0.005798072,0.009456140,-0.003459870,1.000821255,-0.001510185,-0.003624189,0.002452390,0.000000000,0.000000000,0.000000000,0.000000000,0.014109867,0.007855814,0.053756985,0.017645225,0.002698421,0.001449767,0.005966284,-0.000926041,0.001452284,-0.164017392,0.183678304,0.015592680,-0.001431100,-0.001603090,0.000133777,0.999996722,0.000000000,0.000000000,0.000000000,0.000000000,0.000000000,0.000000000,0.015507141,0.000000000,4.083791225
1772421799.420975447,0.013777000,0.007805000,0.053743000,-0.003757550,0.002273360,0.000268150,0.999990320,-0.007514000,0.004549000,0.000519000,-0.000341512,0.000363268,-0.000259091,-0.003560992,0.027594015,0.006469692,0.010494403,-0.003813219,0.998837574,-0.001224139,-0.000358672,-0.001956121,0.000000000,0.000000000,0.000000000,0.000000000,0.014113528,0.007855968,0.053752709,0.017761852,0.002561935,0.001430645,0.007682872,-0.001356238,-0.000827119,-0.164156987,0.183921388,0.016276622,-0.001432308,-0.001605220,0.000139741,0.999996722,0.000000000,0.000000000,0.000000000,0.000000000,0.000000000,0.000000000,0.016237636,0.000000000,4.083272138
1772421799.430975437,0.013771000,0.007810000,0.053730000,-0.003757030,0.002340380,0.000265010,0.999990170,-0.007513000,0.004683000,0.000512000,-0.000416512,0.000256702,-0.000314705,0.000518730,0.035865554,0.008296332,0.009834410,-0.003186453,1.000569178,0.001016990,0.002329963,-0.001504199,0.000000000,0.000000000,0.000000000,0.000000000,0.014117728,0.007854062,0.053752714,0.017938549,0.002422191,0.001314787,0.006333209,0.000111392,0.000416172,-0.165226968,0.182483755,0.016105369,-0.001441650,-0.001592673,0.000138249,0.999996692,0.000000000,0.000000000,0.000000000,0.000000000,0.000000000,0.000000000,0.016126708,0.000000000,4.082753064
1772421799.440975189,0.013772000,0.007808000,0.053718000,-0.003792470,0.002835650,0.000264000,0.999988750,-0.007584000,0.005673000,0.000506000,0.000068124,-0.000004118,-0.000205653,0.002854017,0.032444907,0.004567031,0.009853712,-0.002364583,1.002543657,0.001540151,0.001128074,0.000318472,0.000000000,0.000000000,0.000000000,0.000000000,0.014119759,0.007853757,0.053753525,0.018037454,0.002392458,0.001362168,0.006977380,0.000701833,0.002320181,-0.164809862,0.181026730,0.016069287,-0.001438012,-0.001579957,0.000137958,0.999996691,0.000000000,0.000000000,0.000000000,0.000000000,0.000000000,0.000000000,0.016072558,0.000000000,4.082234002
1772421799.450975180,0.013781000,0.007800000,0.053726000,-0.003774530,0.002720700,0.000286420,0.999989130,-0.007548000,0.005444000,0.000552000,0.000423174,-0.000232440,0.000064433,0.003298846,0.014499297,-0.001346265,0.010802050,-0.002107706,1.001623657,-0.000401617,-0.001467051,0.000673615,0.000000000,0.000000000,0.000000000,0.000000000,0.014128641,0.007849004,0.053757431,0.018205814,0.002395615,0.001527610,0.007468001,0.000921267,0.001282507,-0.163385384,0.179491655,0.015339836,-0.001425593,-0.001566550,0.000131632,0.999996748,0.000000000,0.000000000,0.000000000,0.000000000,0.000000000,0.000000000,0.015429205,0.000000000,4.081714927
1772421799.460974693,0.013772000,0.007809000,0.053728000,-0.003807260,0.002775480,0.000309000,0.999988850,-0.007613000,0.005553000,0.000597000,0.000446077,-0.000191395,0.000176593,0.002489125,0.002571792,-0.005322398,0.010396687,-0.002523223,1.000434173,0.001077882,-0.003276471,0.000611187,0.000000000,0.000000000,0.000000000,0.000000000,0.014140584,0.007845471,0.053762782,0.018409638,0.002408852,0.001582600,0.006959645,0.000434882,0.000649183,-0.163606158,0.179616138,0.016967312,-0.001427497,-0.001567657,0.000145829,0.999996781,0.000000000,0.000000000,0.000000000,0.000000000,0.000000000,0.000000000,0.016778489,0.000000000,4.081195878
1772421799.470974445,0.013780000,0.007800000,0.053731000,-0.003680180,0.002895100,0.000286040,0.999989000,-0.007359000,0.005792000,0.000551000,0.000291589,-0.000065443,0.000367056,0.004456730,-0.021676194,-0.004663064,0.009513180,-0.002203258,1.000247071,0.002116187,-0.002845448,0.000264391,0.000000000,0.000000000,0.000000000,0.000000000,0.014138554,0.007849847,0.053762363,0.018492251,0.002412457,0.001573554,0.005461406,0.001225699,0.001915471,-0.162371461,0.180923408,0.016789345,-0.001416723,-0.001579062,0.000144277,0.999996761,0.000000000,0.000000000,0.000000000,0.000000000,0.000000000,0.000000000,0.016869496,0.000000000,4.080676816
1772421799.480974674,0.013806000,0.007791000,0.053741000,-0.003699920,0.002567900,0.000165240,0.999989840,-0.007399000,0.005137000,0.000311000,0.000096465,-0.000076787,0.000239472,0.003683662,-0.039277437,-0.006192387,0.009422769,-0.000938526,1.000344266,-0.001125269,-0.000799383,-0.000227996,0.000000000,0.000000000,0.000000000,0.000000000,0.014135568,0.007851117,0.053761639,0.018464036,0.002456077,0.001658190,0.005089417,0.001556246,0.001061532,-0.161399870,0.182116325,0.017773164,-0.001408229,-0.001589483,0.000152861,0.999996722,0.000000000,0.000000000,0.000000000,0.000000000,0.000000000,0.000000000,0.017545875,0.000000000,4.080351830
1772421799.490974665,0.013782000,0.007807000,0.053732000,-0.003707300,0.002417350,0.000174870,0.999990190,-0.007414000,0.004836000,0.000332000,-0.000161480,-0.000096329,0.000007731,0.001630426,-0.035960452,-0.004116407,0.009355638,-0.000613134,1.000199344,-0.002831422,0.000973186,-0.000487194,0.000000000,0.000000000,0.000000000,0.000000000,0.014137712,0.007846207,0.053766123,0.018424802,0.002549696,0.001698644,0.006488798,0.002104058,0.000174325,-0.161298155,0.182637434,0.017941425,-0.001407339,-0.001594032,0.000154325,0.999996722,0.000000000,0.000000000,0.000000000,0.000000000,0.000000000,0.000000000,0.018028472,0.000000000,4.080351830
1772421799.500974655,0.013776000,0.007806000,0.053730000,-0.003722680,0.002318640,0.000203060,0.999990360,-0.007445000,0.004639000,0.000389000,-0.000054487,-0.000261985,-0.000073465,0.000471306,-0.032296169,-0.003217369,0.009333938,-0.002120951,0.999581898,-0.001541343,0.002212079,-0.000291309,0.000000000,0.000000000,0.000000000,0.000000000,0.014137800,0.007845300,0.053765769,0.018441636,0.002577907,0.001667984,0.006712059,0.001203748,-0.000268793,-0.161503642,0.182760506,0.017654717,-0.001409136,-0.001595103,0.000151818,0.999996722,0.000000000,0.000000000,0.000000000,0.000000000,0.000000000,0.000000000,0.017579898,0.000000000,4.080351830
1772421799.510973930,0.013785000,0.007793000,0.053739000,-0.003667380,0.001899380,0.000188840,0.999991450,-0.007334000,0.003800000,0.000364000,-0.000011636,-0.000241686,-0.000017619,0.000501944,-0.014790656,0.000575766,0.009350419,-0.003082994,0.999233628,-0.000913344,0.002247309,-0.000571102,0.000000000,0.000000000,0.000000000,0.000000000,0.014137889,0.007844392,0.053765416,0.018458469,0.002606117,0.001637327,0.006780765,0.000134612,-0.000660449,-0.161389528,0.182700194,0.018107904,-0.001408134,-0.001594582,0.000155775,0.999996722,0.000000000,0.000000000,0.000000000,0.000000000,0.000000000,0.000000000,0.018038227,0.000000000,4.080351830
1772421799.520973921,0.013783000,0.007790000,0.053733000,-0.003709060,0.002072080,0.000150910,0.999990960,-0.007418000,0.004145000,0.000286000,0.000021678,-0.000137471,-0.000091239,0.001273707,0.014093116,0.000425640,0.009413394,-0.003380635,0.999213059,-0.001091419,0.000816917,-0.001430146,0.000000000,0.000000000,0.000000000,0.000000000,0.014137978,0.007843485,0.053765062,0.018475304,0.002634328,0.001606667,0.006849476,-0.000934601,-0.001052133,-0.161275405,0.182639877,0.018561123,-0.001407132,-0.001594061,0.000159733,0.999996722,0.000000000,0.000000000,0.000000000,0.000000000,0.000000000,0.000000000,0.018496588,0.000000000,4.080351830
1772421799.530973911,0.013781000,0.007795000,0.053731000,-0.003685470,0.002270140,0.000213470,0.999990610,-0.007370000,0.004542000,0.000410000,0.000169173,-0.000028749,0.000040365,-0.000982791,0.026828191,-0.001871377,0.009476369,-0.003678276,0.999192491,-0.001269495,-0.000613474,-0.002289189,0.000000000,0.000000000,0.000000000,0.000000000,0.014137908,0.007843535,0.053764527,0.018490268,0.002604935,0.001570118,0.006746540,-0.001219657,-0.001113001,-0.161163687,0.182581483,0.019005645,-0.001406151,-0.001593557,0.000163614,0.999996722,0.000000000,0.000000000,0.000000000,0.000000000,0.000000000,0.000000000,0.018954950,0.000000000,4.080351830
1772421799.540973902,0.013798000,0.007789000,0.053733000,-0.003671620,0.002317970,0.000128590,0.999990560,-0.007343000,0.004637000,0.000240000,-0.000526496,0.000602409,-0.000130361,0.000580819,0.039780933,0.003658626,0.009539344,-0.003975917,0.999171922,-0.001447570,-0.002043866,-0.003148233,0.000000000,0.000000000,0.000000000,0.000000000,0.014137818,0.007843711,0.053763969,0.018504988,0.002568004,0.001532797,0.006550050,-0.001077323,-0.000993564,-0.161232948,0.182667734,0.018795552,-0.001406758,-0.001594307,0.000161779,0.999996722,0.000000000,0.000000000,0.000000000,0.000000000,0.000000000,0.000000000,0.018822999,0.000000000,4.080351830
1772421799.550974369,0.013782000,0.007801000,0.053737000,-0.003667280,0.002593690,0.000236510,0.999989880,-0.007333000,0.005189000,0.000454000,-0.000568532,0.000678439,-0.000176904,0.001114966,0.030444015,0.006405590,0.009547686,-0.004138788,0.999151737,-0.001561591,-0.002858147,-0.003642011,0.000000000,0.000000000,0.000000000,0.000000000,0.014137728,0.007843886,0.053763411,0.018519709,0.002531071,0.001495475,0.006353551,-0.000934982,-0.000874121,-0.161302213,0.182753990,0.018585449,-0.001407365,-0.001595057,0.000159943,0.999996722,0.000000000,0.000000000,0.000000000,0.000000000,0.000000000,0.000000000,0.018613114,0.000000000,4.080351830
1772421799.560974360,0.013767000,0.007812000,0.053724000,-0.003737790,0.002815630,0.000154760,0.999989040,-0.007475000,0.005632000,0.000288000,-0.000108936,0.000186558,-0.000051729,0.001432744,0.002439490,0.005630130,0.009362386,-0.003823942,0.999132913,-0.001448554,-0.001488498,-0.002841028,0.000000000,0.000000000,0.000000000,0.000000000,0.014137639,0.007844061,0.053762852,0.018534429,0.002494140,0.001458154,0.006157061,-0.000792648,-0.000754684,-0.161371474,0.182840241,0.018375357,-0.001407972,-0.001595807,0.000158108,0.999996722,0.000000000,0.000000000,0.000000000,0.000000000,0.000000000,0.000000000,0.018403239,0.000000000,4.080351830
1772421799.570974827,0.013771000,0.007807000,0.053736000,-0.003687740,0.002605950,0.000252710,0.999989770,-0.007374000,0.005214000,0.000486000,0.000397553,-0.000455614,0.000124534,0.001288638,-0.012045010,0.000775369,0.009177077,-0.003509082,0.999114088,-0.001335511,-0.000118784,-0.002040006,0.000000000,0.000000000,0.000000000,0.000000000,0.014138686,0.007843677,0.053762217,0.018549267,0.002452601,0.001414363,0.005960562,-0.000650307,-0.000635241,-0.161440739,0.182926497,0.018165254,-0.001408580,-0.001596558,0.000156272,0.999996722,0.000000000,0.000000000,0.000000000,0.000000000,0.000000000,0.000000000,0.018193354,0.000000000,4.080351830
1772421799.580975294,0.013760000,0.007819000,0.053724000,-0.003585260,0.002739570,0.000382630,0.999989750,-0.007169000,0.005482000,0.000746000,0.000676982,-0.000618124,0.000162568,0.000423348,-0.016485863,-0.000672548,0.008991768,-0.003194222,0.999095263,-0.001222468,0.001250931,-0.001238985,0.000000000,0.000000000,0.000000000,0.000000000,0.014142545,0.007841907,0.053761392,0.018564397,0.002399680,0.001354584,0.005566440,-0.000193155,-0.000625296,-0.161510004,0.183012753,0.017955151,-0.001409187,-0.001597308,0.000154437,0.999996722,0.000000000,0.000000000,0.000000000,0.000000000,0.000000000,0.000000000,0.017983470,0.000000000,4.080351830
1772421799.590975523,0.013806000,0.007784000,0.053734000,-0.003689080,0.002234440,0.000192040,0.999990680,-0.007377000,0.004470000,0.000368000,0.000701030,-0.000578555,0.000253400,0.000755632,-0.015101693,-0.005664897,0.008389034,-0.002912148,0.999197269,-0.000059291,0.003237103,-0.000380247,0.000000000,0.000000000,0.000000000,0.000000000,0.014146404,0.007840138,0.053760568,0.018579527,0.002346760,0.001294807,0.005109127,0.000364665,-0.000650368,-0.160920927,0.183656151,0.017398302,-0.001404053,-0.001602915,0.000149578,0.999996722,0.000000000,0.000000000,0.000000000,0.000000000,0.000000000,0.000000000,0.017484979,0.000000000,4.080351830
1772421799.600975275,0.013806000,0.007775000,0.053739000,-0.003689970,0.002270640,0.000168960,0.999990600,-0.007379000,0.004543000,0.000321000,0.000052622,-0.000096057,0.000122397,-0.001255391,0.000948343,-0.005330654,0.006672876,-0.002829871,0.999696588,0.003938066,0.006344841,0.000485302,0.000000000,0.000000000,0.000000000,0.000000000,0.014143298,0.007842891,0.053760604,0.018475945,0.002338189,0.001197862,0.003478251,-0.000067972,0.000403083,-0.160625499,0.183290739,0.017489610,-0.001401474,-0.001599727,0.000150383,0.999996722,0.000000000,0.000000000,0.000000000,0.000000000,0.000000000,0.000000000,0.017380865,0.000000000,4.080351830
1772421799.610975504,0.013796000,0.007783000,0.053743000,-0.003654720,0.002538510,0.000128520,0.999990090,-0.007309000,0.005078000,0.000238000,-0.000398116,0.000228652,-0.000155264,-0.002510450,0.009427425,-0.005681115,0.007671982,-0.003892999,1.000292878,0.001698552,-0.000763204,-0.000743951,0.000000000,0.000000000,0.000000000,0.000000000,0.014133178,0.007848978,0.053754639,0.018230358,0.002289479,0.001158791,0.005454648,-0.000625067,0.000039751,-0.160888539,0.181631783,0.018379582,-0.001403760,-0.001585261,0.000158166,0.999996775,0.000000000,0.000000000,0.000000000,0.000000000,0.000000000,0.000000000,0.018187801,0.000000000,4.080351830
1772421799.620974302,0.013777000,0.007810000,0.053729000,-0.003708520,0.002606940,0.000219470,0.999989700,-0.007416000,0.005215000,0.000420000,-0.000559674,0.000389045,-0.000297125,-0.000636972,0.010850101,-0.000275994,0.010824933,-0.002547296,0.998231402,-0.000413366,0.002226921,0.001498992,0.000000000,0.000000000,0.000000000,0.000000000,0.014126521,0.007850698,0.053754929,0.018230611,0.002191458,0.001061939,0.007822934,0.000397239,-0.001253918,-0.160484534,0.179806630,0.018974266,-0.001400228,-0.001569340,0.000163384,0.999996781,0.000000000,0.000000000,0.000000000,0.000000000,0.000000000,0.000000000,0.018718478,0.000000000,4.080351830
1772421799.630974293,0.013769000,0.007805000,0.053733000,-0.003657210,0.002589820,0.000127710,0.999989950,-0.007314000,0.005181000,0.000236000,-0.000560781,0.000535432,-0.000479993,0.000274470,0.011112941,0.002134606,0.010483882,-0.002166782,0.999399577,0.001372857,0.000026797,-0.003464587,0.000000000,0.000000000,0.000000000,0.000000000,0.014120991,0.007855153,0.053749745,0.018385799,0.002225483,0.000892089,0.006647836,-0.000100451,-0.000891264,-0.159991550,0.178943040,0.018945334,-0.001395928,-0.001561803,0.000163148,0.999996781,0.000000000,0.000000000,0.000000000,0.000000000,0.000000000,0.000000000,0.019007092,0.000000000,4.080351830
1772421799.640974283,0.013770000,0.007805000,0.053721000,-0.003721790,0.002665840,0.000199080,0.999989500,-0.007443000,0.005333000,0.000378000,-0.000013928,0.000101787,-0.000261927,-0.002642994,-0.002031604,0.000113636,0.008618134,-0.002399455,0.999396474,-0.002384990,-0.002879355,0.001040079,0.000000000,0.000000000,0.000000000,0.000000000,0.014133966,0.007846125,0.053748437,0.018486877,0.002165146,0.000789396,0.005825326,0.000489174,-0.000786167,-0.160064484,0.179529776,0.018855154,-0.001396565,-0.001566922,0.000162353,0.999996781,0.000000000,0.000000000,0.000000000,0.000000000,0.000000000,0.000000000,0.018802016,0.000000000,4.080351830
1772421799.650974751,0.013791000,0.007791000,0.053725000,-0.003661460,0.002416270,0.000179460,0.999990360,-0.007322000,0.004834000,0.000341000,-0.000136480,0.000140501,0.000008838,-0.002530448,0.001836678,0.001093172,0.007978347,-0.001291855,0.999652177,-0.001512270,-0.003248984,0.002005477,0.000000000,0.000000000,0.000000000,0.000000000,0.014147355,0.007834162,0.053749809,0.018510431,0.002161950,0.000700112,0.005039788,0.001327798,0.000052227,-0.159697970,0.179375709,0.019176887,-0.001393362,-0.001565581,0.000165168,0.999996821,0.000000000,0.000000000,0.000000000,0.000000000,0.000000000,0.000000000,0.019164982,0.000000000,4.080351830
1772421799.660974741,0.013782000,0.007802000,0.053723000,-0.003702280,0.002619610,0.000189300,0.999989700,-0.007404000,0.005241000,0.000359000,0.000025952,-0.000014685,0.000375467,-0.000755254,0.000525241,0.001101003,0.007792756,-0.002572154,1.000860168,0.001591306,-0.002241954,0.001923162,0.000000000,0.000000000,0.000000000,0.000000000,0.014151879,0.007828145,0.053752253,0.018430360,0.002208655,0.000706969,0.004809543,0.000770063,0.000760348,-0.160291084,0.179181962,0.019269844,-0.001398537,-0.001563892,0.000165973,0.999996804,0.000000000,0.000000000,0.000000000,0.000000000,0.000000000,0.000000000,0.019234953,0.000000000,4.079921041
