t,px,py,pz,qx,qy,qz,qw,roll,pitch,yaw,vx,vy,vz,wx_vicon,wy_vicon,wz_vicon,imu_acc_x,imu_acc_y,imu_acc_z,imu_gyro_x,imu_gyro_y,imu_gyro_z,motor_motor_m1,motor_motor_m2,motor_motor_m3,motor_motor_m4,est_stateEstimate_x,est_stateEstimate_y,est_stateEstimate_z,est_stateEstimate_vx,est_stateEstimate_vy,est_stateEstimate_vz,est_stateEstimate_ax,est_stateEstimate_ay,est_stateEstimate_az,att_stateEstimate_roll,att_stateEstimate_pitch,att_stateEstimate_yaw,att_stateEstimate_qx,att_stateEstimate_qy,att_stateEstimate_qz,att_stateEstimate_qw,sp_ctrltarget_x,sp_ctrltarget_y,sp_ctrltarget_z,sp_ctrltarget_yaw,pid_controller_roll,pid_controller_pitch,pid_controller_yaw,pid_controller_cmd_thrust,pwr_pm_vbat
1772681429.423183918,0.013688000,0.010463000,0.054993000,-0.003015640,0.002613170,0.015998440,0.999864050,-0.005947000,0.005322000,0.031983000,-0.000227748,0.000638179,-0.001847330,0.027531355,0.543413612,0.239287671,0.009647226,-0.005640801,1.000184512,-0.001648329,-0.002101425,0.002673770,0.000000000,0.000000000,0.000000000,0.000000000,0.013983819,0.010374056,0.055027177,0.010276087,0.000273489,-0.000684120,0.004421871,-0.001523573,0.000308826,-0.245500406,0.341072496,1.292989578,-0.002108662,-0.003000395,0.011276760,0.999928624,0.000000000,0.000000000,0.000000000,0.000000000,0.000000000,0.000000000,1.293813173,0.000000000,4.001173019
1772681429.433184862,0.013660000,0.010496000,0.054971000,-0.003006680,0.004206620,0.016768340,0.999846030,-0.005872000,0.008513000,0.033514000,0.002835512,-0.002467387,0.000953238,0.008218062,0.140128019,0.070109378,0.008159884,-0.007734492,1.000094065,0.001467697,0.001229138,0.000681274,0.000000000,0.000000000,0.000000000,0.000000000,0.013972422,0.010385720,0.055012945,0.010442942,0.000097022,-0.000651136,0.002809497,-0.002577620,0.000818691,-0.246403964,0.342181681,1.290512880,-0.002116502,-0.003010117,0.011255104,0.999928892,0.000000000,0.000000000,0.000000000,0.000000000,0.000000000,0.000000000,1.290844086,0.000000000,4.001173019
1772681429.443185091,0.013662000,0.010495000,0.054968000,-0.002940820,0.005219860,0.017196150,0.999834180,-0.005701000,0.010539000,0.034365000,0.003983594,-0.003735160,0.002140479,-0.002958255,-0.089182716,-0.029511102,0.009470397,-0.006685131,1.000556469,-0.002227248,-0.003039931,-0.002156729,0.000000000,0.000000000,0.000000000,0.000000000,0.014006293,0.010349239,0.055024615,0.010568023,-0.000308047,-0.000522498,0.003659220,-0.002029319,0.000565818,-0.246145280,0.341281781,1.289800729,-0.002114352,-0.003002225,0.011248914,0.999928929,0.000000000,0.000000000,0.000000000,0.000000000,0.000000000,0.000000000,1.290091591,0.000000000,4.001173019
1772681429.453186035,0.013805000,0.010351000,0.055045000,-0.002967540,0.003441430,0.016498780,0.999853560,-0.005821000,0.006980000,0.032979000,0.003738850,-0.003652529,0.002151434,-0.007711508,-0.183811096,-0.074755792,0.011597367,-0.004046026,0.998940859,0.001056932,-0.002283365,0.000166873,0.000000000,0.000000000,0.000000000,0.000000000,0.014032359,0.010322060,0.055039261,0.010861988,-0.000543803,-0.000393448,0.004675511,-0.000262347,-0.001067822,-0.244715229,0.340682417,1.288821805,-0.002101958,-0.002996837,0.011240419,0.999929097,0.000000000,0.000000000,0.000000000,0.000000000,0.000000000,0.000000000,1.289094546,0.000000000,4.001173019
1772681429.463186741,0.013845000,0.010320000,0.055059000,-0.003003450,0.002102820,0.015888390,0.999867050,-0.005939000,0.004301000,0.031766000,0.002623634,-0.002706886,0.001423146,-0.007826420,-0.183029802,-0.080839650,0.009199713,-0.003250020,0.998066948,0.000659426,0.001203251,-0.002717938,0.000000000,0.000000000,0.000000000,0.000000000,0.014042723,0.010312933,0.055052209,0.011047355,-0.000514823,-0.000534994,0.001836593,0.000648827,-0.001980581,-0.243727453,0.340727630,1.286569224,-0.002093393,-0.002997093,0.011220790,0.999929312,0.000000000,0.000000000,0.000000000,0.000000000,0.000000000,0.000000000,1.287275745,0.000000000,4.001173019
1772681429.473187447,0.013842000,0.010319000,0.055068000,-0.003012100,0.001160330,0.015482620,0.999874930,-0.005988000,0.002414000,0.030959000,0.001160299,-0.001385619,0.000392658,-0.005094417,-0.126117901,-0.062965418,0.012162555,-0.002740774,0.999128007,0.000726295,0.001211369,-0.001965508,0.000000000,0.000000000,0.000000000,0.000000000,0.014055918,0.010295830,0.055043405,0.011278901,-0.000356164,-0.000728203,0.006125308,0.001736302,-0.000994503,-0.243589631,0.339871078,1.285079778,-0.002092313,-0.002989578,0.011207812,0.999929495,0.000000000,0.000000000,0.000000000,0.000000000,0.000000000,0.000000000,1.285443019,0.000000000,4.001173019
1772681429.483187914,0.013695000,0.010456000,0.054991000,-0.003055860,0.002723510,0.016166370,0.999860940,-0.006023000,0.005545000,0.032318000,0.000061769,-0.000295868,-0.000180838,-0.002770913,-0.080397916,-0.047005982,0.011521703,-0.003385742,0.999108320,0.001990308,0.002333384,-0.001235292,0.000000000,0.000000000,0.000000000,0.000000000,0.014060873,0.010297565,0.055036081,0.011677021,-0.000156938,-0.000826891,0.004968391,0.000315081,-0.000409298,-0.242216433,0.338616438,1.284149996,-0.002080478,-0.002978479,0.011199758,0.999929664,0.000000000,0.000000000,0.000000000,0.000000000,0.000000000,0.000000000,1.284437891,0.000000000,4.001173019
1772681429.493187904,0.013810000,0.010342000,0.055034000,-0.003036620,0.001754640,0.015609630,0.999872010,-0.006018000,0.003604000,0.031210000,-0.000249678,0.000180159,0.000088710,0.000196889,-0.066460966,-0.029078655,0.010303707,-0.003944166,0.999940519,-0.003604729,-0.000565459,0.001594186,0.000000000,0.000000000,0.000000000,0.000000000,0.013986368,0.010381596,0.054997772,0.011753615,0.000156377,-0.000980801,0.004281469,0.000669861,0.000270836,-0.241427492,0.336924558,1.281983630,-0.002073815,-0.002963599,0.011180907,0.999929912,0.000000000,0.000000000,0.000000000,0.000000000,0.000000000,0.000000000,1.282733845,0.000000000,4.001173019
1772681429.503187895,0.013837000,0.010312000,0.055049000,-0.003019740,0.000986510,0.015187830,0.999879610,-0.006009000,0.002065000,0.030371000,0.001386318,-0.001585493,0.000732114,0.000190036,-0.068509969,-0.041591070,0.009792630,-0.003785059,1.000354186,-0.000304601,-0.003690076,-0.002054473,0.000000000,0.000000000,0.000000000,0.000000000,0.014001217,0.010374208,0.055012314,0.011935397,0.000184772,-0.000870375,0.004245527,-0.000030395,0.000762711,-0.243769167,0.335224675,1.279921486,-0.002094467,-0.002948957,0.011162883,0.999930113,0.000000000,0.000000000,0.000000000,0.000000000,0.000000000,0.000000000,1.280440085,0.000000000,4.001173019
1772681429.513188362,0.013840000,0.010314000,0.055057000,-0.002984070,0.000601040,0.015010050,0.999882710,-0.005949000,0.001292000,0.030018000,0.002824363,-0.002961789,0.001279680,-0.001902162,-0.084773671,-0.062261498,0.009726386,-0.003125646,1.000377505,0.000973515,-0.000526667,-0.000993089,0.000000000,0.000000000,0.000000000,0.000000000,0.014006694,0.010369981,0.055016079,0.011972485,0.000175481,-0.000839141,0.004183989,0.000214635,0.000801647,-0.243869970,0.335523531,1.279495366,-0.002095329,-0.002951567,0.011159157,0.999930169,0.000000000,0.000000000,0.000000000,0.000000000,0.000000000,0.000000000,1.279621789,0.000000000,4.001173019
1772681429.523188829,0.013836000,0.010317000,0.055068000,-0.003025100,0.000199870,0.014865870,0.999884900,-0.006044000,0.000490000,0.029731000,0.000739243,-0.000914992,0.000177109,-0.002121730,-0.019752530,-0.042688124,0.009754313,-0.003172934,1.000317765,0.000724274,-0.000034198,-0.000446086,0.000000000,0.000000000,0.000000000,0.000000000,0.014012171,0.010365753,0.055019843,0.012009572,0.000166190,-0.000807906,0.004122450,0.000459665,0.000840582,-0.243942827,0.335841047,1.279082107,-0.002095945,-0.002954337,0.011155543,0.999930201,0.000000000,0.000000000,0.000000000,0.000000000,0.000000000,0.000000000,1.279213596,0.000000000,4.001173019
1772681429.533189535,0.013837000,0.010316000,0.055071000,-0.003032920,-0.000121540,0.014806430,0.999885770,-0.006069000,-0.000153000,0.029615000,-0.002384621,0.002145665,-0.001384900,0.000461114,0.082351275,0.009002211,0.009782241,-0.003220223,1.000258024,0.000475027,0.000458282,0.000100930,0.000000000,0.000000000,0.000000000,0.000000000,0.014017648,0.010361526,0.055023608,0.012046661,0.000156899,-0.000776671,0.004060911,0.000704701,0.000879518,-0.244015686,0.336158570,1.278668838,-0.002096560,-0.002957107,0.011151930,0.999930232,0.000000000,0.000000000,0.000000000,0.000000000,0.000000000,0.000000000,1.278805393,0.000000000,4.001173019
1772681429.543190479,0.013857000,0.010274000,0.055033000,-0.003062210,0.001411220,0.014444160,0.999889990,-0.006083000,0.002911000,0.028881000,-0.002449225,0.002365604,-0.001046416,0.001320127,0.089797451,0.036665580,0.009810169,-0.003267513,1.000198281,0.000225774,0.000950775,0.000647960,0.000000000,0.000000000,0.000000000,0.000000000,0.014023125,0.010357298,0.055027373,0.012083750,0.000147607,-0.000745435,0.003999370,0.000949743,0.000918455,-0.244088547,0.336476100,1.278255558,-0.002097176,-0.002959877,0.011148316,0.999930264,0.000000000,0.000000000,0.000000000,0.000000000,0.000000000,0.000000000,1.278397181,0.000000000,4.001173019
1772681429.553191423,0.013836000,0.010312000,0.055051000,-0.003060690,0.001009210,0.014662770,0.999887300,-0.006091000,0.002108000,0.029320000,-0.001579297,0.001504300,-0.000827215,0.001373969,0.090307929,0.038296709,0.009838098,-0.003314803,1.000138538,-0.000023479,0.001443267,0.001194989,0.000000000,0.000000000,0.000000000,0.000000000,0.014028602,0.010353070,0.055031138,0.012120840,0.000138316,-0.000714200,0.003937828,0.001194784,0.000957393,-0.244161408,0.336793631,1.277842279,-0.002097791,-0.002962648,0.011144702,0.999930296,0.000000000,0.000000000,0.000000000,0.000000000,0.000000000,0.000000000,1.277988969,0.000000000,4.001173019
1772681429.563191891,0.013686000,0.010460000,0.054978000,-0.003004170,0.002997170,0.015686270,0.999867960,-0.005914000,0.006088000,0.031356000,-0.000297441,0.000333998,-0.000156150,0.002810004,0.061656026,0.024850013,0.009866025,-0.003362091,1.000078798,-0.000272719,0.001935736,0.001741992,0.000000000,0.000000000,0.000000000,0.000000000,0.014060672,0.010321397,0.055026848,0.012307625,0.000150549,-0.000638075,0.003206937,0.000836842,0.000063535,-0.244461552,0.337208545,1.276550677,-0.002100403,-0.002966274,0.011133415,0.999930358,0.000000000,0.000000000,0.000000000,0.000000000,0.000000000,0.000000000,1.277453589,0.000000000,4.001173019
1772681429.573191881,0.013783000,0.010365000,0.055042000,-0.002965960,0.001814210,0.015542430,0.999873160,-0.005875000,0.003720000,0.031075000,0.001062227,-0.000827292,0.000574565,0.000278610,0.005558160,0.002116329,0.007775808,-0.004304197,1.000890439,0.004482510,-0.001451055,0.001256592,0.000000000,0.000000000,0.000000000,0.000000000,0.014078657,0.010309990,0.055037470,0.012365558,0.000209800,-0.000562080,0.002461786,-0.000671918,0.000682178,-0.244282823,0.336702719,1.274589855,-0.002098944,-0.002961807,0.011116318,0.999930557,0.000000000,0.000000000,0.000000000,0.000000000,0.000000000,0.000000000,1.275077212,0.000000000,4.001173019
1772681429.583192348,0.013824000,0.010327000,0.055066000,-0.003058970,0.001158830,0.015235350,0.999878580,-0.006082000,0.002411000,0.030465000,0.002125445,-0.001843989,0.001034858,0.000440437,-0.049679984,-0.021069280,0.008334153,-0.006195644,0.999702622,0.000297410,0.000651867,0.002410868,0.000000000,0.000000000,0.000000000,0.000000000,0.014081952,0.010313098,0.055042804,0.012278804,0.000145165,-0.000416798,0.002728834,-0.001399732,0.000079264,-0.243140696,0.336012219,1.273442082,-0.002089074,-0.002955650,0.011106345,0.999930721,0.000000000,0.000000000,0.000000000,0.000000000,0.000000000,0.000000000,1.273747145,0.000000000,4.001173019
1772681429.593193531,0.013864000,0.010277000,0.055033000,-0.003041670,0.002165280,0.014712150,0.999884800,-0.006019000,0.004420000,0.029412000,0.002399169,-0.002365313,0.000859789,0.001096376,-0.065385906,-0.040140516,0.010077308,-0.005087148,0.996927529,0.003436613,-0.005712108,0.001717785,0.000000000,0.000000000,0.000000000,0.000000000,0.014076403,0.010314811,0.055048362,0.012231170,-0.000007126,-0.000449302,0.004652402,0.000028275,-0.003309799,-0.241705992,0.336211724,1.272997137,-0.002076547,-0.002957243,0.011102496,0.999930827,0.000000000,0.000000000,0.000000000,0.000000000,0.000000000,0.000000000,1.273056649,0.000000000,4.001173019
1772681429.603193998,0.013851000,0.010301000,0.055061000,-0.002974300,0.001270740,0.014748910,0.999886000,-0.005910000,0.002629000,0.029491000,0.001295180,-0.001271483,0.000679397,0.003571379,-0.083245207,-0.032623781,0.010456347,-0.004172896,0.998524933,-0.000112500,-0.001725635,0.001189191,0.000000000,0.000000000,0.000000000,0.000000000,0.014069495,0.010317401,0.055048450,0.012369239,0.000010153,-0.000763162,0.004283646,0.000410284,-0.001136621,-0.240960075,0.337102666,1.271930631,-0.002069979,-0.002964926,0.011093192,0.999930892,0.000000000,0.000000000,0.000000000,0.000000000,0.000000000,0.000000000,1.272401926,0.000000000,4.001173019
1772681429.613195181,0.013846000,0.010313000,0.055056000,-0.003015350,0.000777020,0.014807210,0.999885520,-0.006007000,0.001643000,0.029611000,-0.000989017,0.000939680,-0.000132570,0.006276968,-0.053562107,-0.000142460,0.008812032,-0.004885360,0.999509528,0.001783596,-0.003130063,0.003142277,0.000000000,0.000000000,0.000000000,0.000000000,0.014070482,0.010317789,0.055046769,0.012445301,0.000039653,-0.000838477,0.002372015,-0.000332573,-0.000593993,-0.241334500,0.338618549,1.271242528,-0.002073118,-0.002978178,0.011087150,0.999930952,0.000000000,0.000000000,0.000000000,0.000000000,0.000000000,0.000000000,1.271433817,0.000000000,4.001173019
1772681429.623195648,0.013835000,0.010314000,0.055061000,-0.002890980,0.000478090,0.014864800,0.999885220,-0.005767000,0.001042000,0.029728000,-0.001147810,0.001169584,0.000350586,0.005820362,-0.075498382,0.017909424,0.008658685,-0.004310108,0.999146361,-0.001259846,-0.000478703,-0.000441510,0.000000000,0.000000000,0.000000000,0.000000000,0.014070903,0.010320953,0.055045131,0.012356047,0.000020327,-0.000865846,0.002429137,-0.000296572,-0.001404549,-0.240855888,0.338535430,1.271275856,-0.002068948,-0.002977407,0.011087453,0.999930941,0.000000000,0.000000000,0.000000000,0.000000000,0.000000000,0.000000000,1.271212886,0.000000000,4.001173019
1772681429.633197069,0.013825000,0.010320000,0.055060000,-0.002909960,0.000271160,0.014878530,0.999885040,-0.005811000,0.000629000,0.029756000,-0.000387530,0.000383510,0.000012839,0.001460351,-0.040700365,0.012608996,0.010138729,-0.003895328,0.999788791,-0.000040336,0.000799440,0.001041251,0.000000000,0.000000000,0.000000000,0.000000000,0.014078047,0.010315696,0.055035792,0.012346438,0.000023124,-0.000959309,0.005690188,0.001258547,0.000038036,-0.240878244,0.337390737,1.269468535,-0.002069301,-0.002967388,0.011071704,0.999931083,0.000000000,0.000000000,0.000000000,0.000000000,0.000000000,0.000000000,1.270130812,0.000000000,4.001173019
1772681429.643198013,0.013831000,0.010316000,0.055060000,-0.002882190,0.000210980,0.014913170,0.999884620,-0.005757000,0.000508000,0.029826000,0.000509048,-0.000509358,-0.000639733,-0.003424816,0.028739476,-0.004214619,0.011479532,-0.004606683,1.000527060,0.000700575,-0.000275027,-0.000088666,0.000000000,0.000000000,0.000000000,0.000000000,0.014094171,0.010301869,0.055023214,0.012598955,0.000049745,-0.000947555,0.005192778,-0.000281389,0.000515454,-0.240749193,0.336569297,1.267039736,-0.002068317,-0.002960163,0.011050529,0.999931347,0.000000000,0.000000000,0.000000000,0.000000000,0.000000000,0.000000000,1.267764223,0.000000000,4.001173019
1772681429.653198719,0.013831000,0.010323000,0.055061000,-0.002942400,0.000177040,0.014978370,0.999883470,-0.005879000,0.000442000,0.029957000,0.000416336,-0.000139698,-0.000324849,-0.006723673,0.037364370,-0.006520041,0.010756766,-0.003946508,0.998371076,0.002779674,0.002597383,-0.000137590,0.000000000,0.000000000,0.000000000,0.000000000,0.014087901,0.010313759,0.055030532,0.012780952,0.000091492,-0.000865739,0.004719560,0.000607670,-0.001354536,-0.239538821,0.337209997,1.266667878,-0.002057703,-0.002965631,0.011047305,0.999931446,0.000000000,0.000000000,0.000000000,0.000000000,0.000000000,0.000000000,1.266872232,0.000000000,4.001173019
1772681429.663199663,0.013834000,0.010323000,0.055054000,-0.002971120,0.000341380,0.014954260,0.999883710,-0.005931000,0.000772000,0.029907000,0.000650300,-0.000421542,-0.000545973,-0.008811435,0.061642114,-0.015257939,0.008592377,-0.003433501,0.998548393,-0.000781425,-0.002296093,0.001137607,0.000000000,0.000000000,0.000000000,0.000000000,0.014094388,0.010306171,0.055026598,0.012884928,0.000133553,-0.001018536,0.002595042,0.000611952,-0.002270716,-0.239719912,0.336752266,1.265544933,-0.002059357,-0.002961634,0.011037509,0.999931568,0.000000000,0.000000000,0.000000000,0.000000000,0.000000000,0.000000000,1.265751263,0.000000000,4.001173019
1772681429.673200607,0.013877000,0.010274000,0.055022000,-0.003041780,0.001676770,0.014529780,0.999888400,-0.006034000,0.003442000,0.029050000,0.000545196,-0.000510446,-0.000400409,-0.006317160,0.072764614,-0.020441603,0.007316019,-0.004659087,0.998509212,-0.002312729,-0.001048264,-0.001152520,0.000000000,0.000000000,0.000000000,0.000000000,0.014097918,0.010302608,0.055025154,0.012791052,0.000176352,-0.001147636,0.001457033,-0.000012879,-0.001264200,-0.238647535,0.335607666,1.265036904,-0.002050122,-0.002951534,0.011033124,0.999931630,0.000000000,0.000000000,0.000000000,0.000000000,0.000000000,0.000000000,1.265490044,0.000000000,4.001173019
1772681429.683201551,0.013844000,0.010316000,0.055048000,-0.003099990,0.001249350,0.014663550,0.999886900,-0.006163000,0.002589000,0.029320000,0.000156228,-0.000325587,-0.000096674,-0.004248570,0.059440146,-0.020342825,0.008192548,-0.003945692,0.999817159,0.000559081,0.000736387,-0.002619982,0.000000000,0.000000000,0.000000000,0.000000000,0.014088431,0.010311649,0.055030588,0.012560083,0.000189775,-0.001202198,0.001873002,-0.000409046,-0.000290730,-0.239629885,0.335294852,1.262882105,-0.002058780,-0.002948860,0.011014302,0.999931821,0.000000000,0.000000000,0.000000000,0.000000000,0.000000000,0.000000000,1.263446774,0.000000000,4.001173019
1772681429.693202734,0.013829000,0.010328000,0.055059000,-0.003047420,0.000957540,0.014753710,0.999886060,-0.006066000,0.002005000,0.029503000,-0.000230428,0.000050600,0.000264906,-0.000329349,0.025383558,-0.008995375,0.010206066,-0.004922120,1.000741999,-0.002306948,0.001130406,-0.002661375,0.000000000,0.000000000,0.000000000,0.000000000,0.014078629,0.010321105,0.055033203,0.012410645,0.000210960,-0.001109967,0.003437440,-0.000497914,0.000700958,-0.240154848,0.335065366,1.260655069,-0.002063440,-0.002946868,0.010994860,0.999932003,0.000000000,0.000000000,0.000000000,0.000000000,0.000000000,0.000000000,1.261715938,0.000000000,4.001173019
1772681429.703204632,0.013869000,0.010273000,0.055027000,-0.003060170,0.002105400,0.014364140,0.999889930,-0.006059000,0.004298000,0.028716000,-0.000492984,0.000406935,0.000500404,0.003431685,-0.019541065,0.005421786,0.009517533,-0.005803675,0.999991782,-0.001846484,0.006325900,-0.001542652,0.000000000,0.000000000,0.000000000,0.000000000,0.014194405,0.010324074,0.055023532,0.012764593,0.000141009,-0.001051579,0.004297207,-0.001596430,0.000045162,-0.240224601,0.333697329,1.257909953,-0.002064250,-0.002934887,0.010970929,0.999932346,0.000000000,0.000000000,0.000000000,0.000000000,0.000000000,0.000000000,1.258633254,0.000000000,4.001173019
1772681429.713205099,0.013842000,0.010311000,0.055056000,-0.003052650,0.001536370,0.014558620,0.999888180,-0.006060000,0.003161000,0.029109000,-0.000658652,0.000622310,0.000415443,0.008149151,-0.051443076,0.016114924,0.008881282,-0.005099038,1.000544237,-0.001763375,0.003297114,-0.001970040,0.000000000,0.000000000,0.000000000,0.000000000,0.014289009,0.010324564,0.055015870,0.013058303,0.000029629,-0.001046421,0.002944026,-0.001132489,-0.000003965,-0.240986289,0.331897604,1.256440563,-0.002071107,-0.002919229,0.010958121,0.999932510,0.000000000,0.000000000,0.000000000,0.000000000,0.000000000,0.000000000,1.256875039,0.000000000,4.001173019
1772681429.723205805,0.013832000,0.010318000,0.055058000,-0.003014020,0.001052340,0.014685950,0.999887060,-0.005997000,0.002193000,0.029367000,-0.000497626,0.000621921,0.000122663,0.008328470,-0.068758127,0.020415044,0.008015369,-0.004809811,0.999709673,0.000361024,-0.000647219,-0.000525738,0.000000000,0.000000000,0.000000000,0.000000000,0.014393248,0.010324539,0.055007624,0.013284036,-0.000045110,-0.001037751,0.001402944,0.000015935,-0.000114843,-0.241026753,0.330245675,1.255254949,-0.002071648,-0.002904797,0.010947805,0.999932630,0.000000000,0.000000000,0.000000000,0.000000000,0.000000000,0.000000000,1.255812592,0.000000000,4.001173019
1772681429.733206034,0.013830000,0.010326000,0.055057000,-0.002948060,0.000665400,0.014903640,0.999884370,-0.005876000,0.001419000,0.029804000,-0.000312864,0.000484107,-0.000074686,0.006293701,-0.058327850,0.021042109,0.007684075,-0.003821416,0.999627690,0.000312848,-0.001990746,0.002298092,0.000000000,0.000000000,0.000000000,0.000000000,0.014519340,0.010324107,0.054997738,0.013450323,-0.000049586,-0.001055542,0.001535047,0.000771007,-0.000559525,-0.240745017,0.329687516,1.253288154,-0.002069293,-0.002899864,0.010930660,0.999932839,0.000000000,0.000000000,0.000000000,0.000000000,0.000000000,0.000000000,1.253998516,0.000000000,4.000889593
1772681429.743207216,0.013832000,0.010321000,0.055054000,-0.002881620,0.000384580,0.014895430,0.999884830,-0.005751000,0.000855000,0.029790000,0.000167086,-0.000095780,-0.000132531,0.002907704,-0.023817579,0.011512762,0.009248938,-0.003080070,0.999250817,-0.000229796,0.000613652,-0.000758057,0.000000000,0.000000000,0.000000000,0.000000000,0.014600847,0.010323840,0.054991305,0.013540179,-0.000018819,-0.001096710,0.002977822,-0.000031834,0.000341309,-0.240477785,0.331912821,1.253024316,-0.002066753,-0.002919252,0.010928323,0.999932986,0.000000000,0.000000000,0.000000000,0.000000000,0.000000000,0.000000000,1.252344470,0.000000000,4.000316704
1772681429.753208399,0.013823000,0.010330000,0.055051000,-0.002869000,0.000337540,0.014959120,0.999883930,-0.005727000,0.000761000,0.029917000,0.000865927,-0.001033499,-0.000376731,-0.003822774,0.042383182,-0.007744101,0.009289808,-0.002795224,0.998851343,-0.000238175,0.005572208,0.000007757,0.000000000,0.000000000,0.000000000,0.000000000,0.014099802,0.010307191,0.055034550,0.010186258,0.000019295,-0.000766329,0.002725200,0.000609514,-0.000604886,-0.241415391,0.349705396,1.264276676,-0.002072928,-0.003074804,0.011026155,0.999930342,0.000000000,0.000000000,0.000000000,0.000000000,0.000000000,0.000000000,1.272872241,0.000000000,3.999743815
1772681429.763208628,0.013838000,0.010321000,0.055049000,-0.002967970,0.000365700,0.014960180,0.999883620,-0.005924000,0.000820000,0.029919000,0.000664557,-0.000850077,0.000001845,-0.007345524,0.061011850,-0.013799383,0.009230922,-0.004344366,0.998747612,-0.000700284,0.004000721,-0.002849126,0.000000000,0.000000000,0.000000000,0.000000000,0.013978644,0.010309537,0.055046068,0.009383893,0.000131193,-0.000749117,0.002472451,-0.000009404,-0.001191701,-0.241942691,0.357411186,1.269583223,-0.002076650,-0.003142192,0.011072303,0.999930590,0.000000000,0.000000000,0.000000000,0.000000000,0.000000000,0.000000000,1.269797027,0.000000000,3.999170981
1772681429.773209572,0.013872000,0.010271000,0.055034000,-0.002996460,0.001850010,0.014647430,0.999886520,-0.005938000,0.003787000,0.029285000,0.000330482,-0.000452698,0.000110873,-0.005803803,0.050485154,-0.011811404,0.008987615,-0.006189871,0.998495867,-0.000566786,0.002080414,0.000091070,0.000000000,0.000000000,0.000000000,0.000000000,0.013997479,0.010315845,0.055042356,0.009513746,0.000103657,-0.000861793,0.003010443,-0.001592715,-0.000707639,-0.241237828,0.355369106,1.268063176,-0.002070738,-0.003124277,0.011059096,0.999930745,0.000000000,0.000000000,0.000000000,0.000000000,0.000000000,0.000000000,1.268991205,0.000000000,3.998598105
1772681429.783210278,0.013853000,0.010297000,0.055063000,-0.003063740,0.001360820,0.014674850,0.999886700,-0.006087000,0.002811000,0.029342000,-0.000203079,0.000100520,0.000284622,-0.003433078,0.008501948,-0.002789791,0.010245606,-0.006612806,0.999598734,0.000483489,0.002906916,-0.000169301,0.000000000,0.000000000,0.000000000,0.000000000,0.014006150,0.010317599,0.055046124,0.009671609,-0.000114461,-0.000894819,0.003759739,-0.001816161,-0.000004606,-0.239994264,0.354245887,1.266337852,-0.002060042,-0.003114325,0.011044095,0.999931001,0.000000000,0.000000000,0.000000000,0.000000000,0.000000000,0.000000000,1.266565547,0.000000000,3.998025244
1772681429.793210268,0.013841000,0.010306000,0.055057000,-0.003076340,0.001346130,0.014736690,0.999885770,-0.006112000,0.002783000,0.029466000,-0.000628448,0.000539252,0.000362804,0.001721981,-0.045395617,0.006800064,0.008607677,-0.005265209,1.000846264,0.000671604,0.001602400,0.001888280,0.000000000,0.000000000,0.000000000,0.000000000,0.014016167,0.010314470,0.055046927,0.009831974,-0.000297668,-0.000842669,0.001822939,-0.001259415,0.001922299,-0.239639794,0.352879985,1.265377318,-0.002057107,-0.003102355,0.011035749,0.999931128,0.000000000,0.000000000,0.000000000,0.000000000,0.000000000,0.000000000,1.265717655,0.000000000,3.997452423
1772681429.803211689,0.013833000,0.010316000,0.055058000,-0.002955320,0.000804160,0.014828050,0.999885370,-0.005886000,0.001696000,0.029652000,-0.000786152,0.000740000,0.000341631,0.002926457,-0.081924486,0.014209226,0.009572011,-0.003972044,1.001662071,0.000996022,0.001385172,0.000194998,0.000000000,0.000000000,0.000000000,0.000000000,0.014023038,0.010310962,0.055049473,0.009836516,-0.000367029,-0.000621250,0.004620344,0.000465739,0.001200473,-0.239544175,0.350509841,1.264151459,-0.002056534,-0.003081641,0.011025099,0.999931322,0.000000000,0.000000000,0.000000000,0.000000000,0.000000000,0.000000000,1.264592937,0.000000000,3.996879520
1772681429.813212633,0.013832000,0.010321000,0.055054000,-0.002944780,0.000407940,0.014923710,0.999884220,-0.005877000,0.000904000,0.029846000,-0.000435197,0.000566873,0.000277046,-0.000815485,-0.088543683,0.015590515,0.010020092,-0.003750458,1.000096319,-0.001079025,-0.002392054,-0.000423790,0.000000000,0.000000000,0.000000000,0.000000000,0.014024425,0.010314199,0.055051172,0.009989177,-0.000292280,-0.000474202,0.003486495,0.000183754,0.000162710,-0.238456990,0.348631935,1.263309671,-0.002047250,-0.003065135,0.011017818,0.999931505,0.000000000,0.000000000,0.000000000,0.000000000,0.000000000,0.000000000,1.263578176,0.000000000,3.996306645
1772681429.823213577,0.013824000,0.010318000,0.055067000,-0.003020360,-0.000104010,0.014957000,0.999883570,-0.006043000,-0.000118000,0.029916000,-0.000046152,0.000272715,0.000261818,-0.003348625,-0.062809868,0.013518806,0.009604620,-0.003258922,0.999412552,-0.000175346,0.000534497,0.001854301,0.000000000,0.000000000,0.000000000,0.000000000,0.014027418,0.010310254,0.055045306,0.010096184,-0.000240451,-0.000487843,0.003610165,0.000810358,-0.001072351,-0.237756603,0.348201377,1.262380029,-0.002041205,-0.003061294,0.011009732,0.999931610,0.000000000,0.000000000,0.000000000,0.000000000,0.000000000,0.000000000,1.262700517,0.000000000,3.996084668
1772681429.833214283,0.013834000,0.010316000,0.055064000,-0.002970440,-0.000174950,0.015008880,0.999882930,-0.005945000,-0.000261000,0.030020000,0.001098511,-0.001085400,0.000359560,-0.006289043,-0.037986974,-0.006538499,0.010780010,-0.003848004,1.000955963,0.000057469,-0.001073979,-0.001577443,0.000000000,0.000000000,0.000000000,0.000000000,0.014010681,0.010321238,0.055014415,0.010216550,-0.000090276,-0.000642394,0.004739602,0.000099678,0.000582226,-0.237401832,0.348551626,1.262144780,-0.002038082,-0.003064312,0.011007682,0.999931633,0.000000000,0.000000000,0.000000000,0.000000000,0.000000000,0.000000000,1.262165729,0.000000000,3.996762977
1772681429.843214750,0.013839000,0.010312000,0.055065000,-0.003086240,-0.000027010,0.014957780,0.999883360,-0.006173000,0.000038000,0.029917000,-0.000255272,0.000076784,-0.000837121,-0.003544929,0.055015616,-0.003236326,0.010047077,-0.002926930,1.001693132,-0.000068594,0.002484933,0.000442502,0.000000000,0.000000000,0.000000000,0.000000000,0.013978472,0.010364539,0.055007302,0.010396232,0.000085113,-0.000475468,0.004067254,0.000892194,0.001147438,-0.236132655,0.348686053,1.258593697,-0.002027089,-0.003065300,0.010976726,0.999931944,0.000000000,0.000000000,0.000000000,0.000000000,0.000000000,0.000000000,1.259036607,0.000000000,3.997441269
1772681429.853215694,0.013834000,0.010324000,0.055065000,-0.003092510,0.000001360,0.015015700,0.999882480,-0.006184000,0.000096000,0.030032000,-0.001404499,0.001084176,-0.001556338,0.002998847,0.125801128,0.009997313,0.008397785,-0.001940056,0.998940660,0.001409834,0.002034904,0.002274336,0.000000000,0.000000000,0.000000000,0.000000000,0.014017972,0.010343167,0.055036890,0.010676547,0.000239551,-0.000223043,0.002064095,0.002379800,-0.001304420,-0.236432872,0.347770265,1.257715549,-0.002029820,-0.003057322,0.010969073,0.999932101,0.000000000,0.000000000,0.000000000,0.000000000,0.000000000,0.000000000,1.257837352,0.000000000,3.998119594
1772681429.863216877,0.013830000,0.010321000,0.055056000,-0.003032570,0.000240160,0.015046410,0.999882170,-0.006057000,0.000572000,0.030092000,-0.001574557,0.001437384,-0.001502552,0.005015093,0.155867697,0.020055612,0.007529869,-0.003465048,1.000063054,-0.001102481,-0.000076818,-0.000678989,0.000000000,0.000000000,0.000000000,0.000000000,0.014034068,0.010334244,0.055052406,0.010584104,0.000446580,-0.000277792,0.000709998,0.000437706,-0.000198045,-0.236880320,0.345054084,1.257176654,-0.002033999,-0.003033654,0.010964408,0.999932210,0.000000000,0.000000000,0.000000000,0.000000000,0.000000000,0.000000000,1.257334198,0.000000000,3.998797936
1772681429.873217583,0.013857000,0.010268000,0.055018000,-0.003032600,0.001787830,0.014631750,0.999886750,-0.006012000,0.003664000,0.029254000,-0.001110943,0.001117566,-0.000723470,0.001641792,0.130396581,0.024152483,0.009530284,-0.005464562,1.000665844,0.000188309,-0.000796535,0.001138402,0.000000000,0.000000000,0.000000000,0.000000000,0.014033127,0.010333779,0.055055518,0.010412538,0.000435105,-0.000229043,0.003611543,-0.000916205,0.000570741,-0.237371108,0.345132638,1.255438080,-0.002038320,-0.003034356,0.010949223,0.999932347,0.000000000,0.000000000,0.000000000,0.000000000,0.000000000,0.000000000,1.255786538,0.000000000,3.999476245
1772681429.883218288,0.013693000,0.010454000,0.054976000,-0.002980000,0.003456620,0.015665530,0.999866870,-0.005851000,0.007006000,0.031312000,-0.000062429,0.000440461,0.000289594,0.000511019,0.062216748,0.019670874,0.011342841,-0.004322502,1.000453889,0.001192674,0.004396573,-0.000425048,0.000000000,0.000000000,0.000000000,0.000000000,0.014029436,0.010336101,0.055052883,0.010580695,0.000317980,-0.000143501,0.004759127,-0.000251292,0.000408646,-0.236649240,0.345658158,1.254218199,-0.002032003,-0.003038851,0.010938587,0.999932451,0.000000000,0.000000000,0.000000000,0.000000000,0.000000000,0.000000000,1.254701910,0.000000000,4.000154553
1772681429.893218279,0.013802000,0.010347000,0.055039000,-0.003022460,0.002428960,0.015488650,0.999872530,-0.005969000,0.004951000,0.030964000,0.000796078,-0.000332366,0.001129939,-0.003970016,-0.020774815,0.006820496,0.011052003,-0.003427392,1.000312853,-0.001668671,-0.000199479,0.002683631,0.000000000,0.000000000,0.000000000,0.000000000,0.014034922,0.010331503,0.055052249,0.010854784,0.000326566,-0.000081397,0.005911585,0.000466884,0.000183286,-0.235484924,0.344465519,1.252022924,-0.002022016,-0.003028294,0.010919483,0.999932692,0.000000000,0.000000000,0.000000000,0.000000000,0.000000000,0.000000000,1.252644188,0.000000000,4.000832814
1772681429.903218746,0.013842000,0.010325000,0.055063000,-0.003106390,0.001853990,0.015269180,0.999876880,-0.006155000,0.003802000,0.030528000,0.001274008,-0.000776731,0.001520617,-0.003076876,-0.100197453,-0.008463562,0.010959303,-0.004590945,0.999369901,-0.002481653,0.005527679,0.001759783,0.000000000,0.000000000,0.000000000,0.000000000,0.014052434,0.010316745,0.055044991,0.011211012,0.000353694,-0.000131045,0.005087483,0.000259838,-0.000549061,-0.236461224,0.343512000,1.250421020,-0.002030668,-0.003020038,0.010905498,0.999932933,0.000000000,0.000000000,0.000000000,0.000000000,0.000000000,0.000000000,1.250702531,0.000000000,4.001173019
1772681429.913218737,0.013841000,0.010319000,0.055068000,-0.003113590,0.001163730,0.015208510,0.999878820,-0.006191000,0.002422000,0.030411000,0.001353122,-0.001202450,0.001251554,0.001609233,-0.135582706,-0.021202973,0.009963611,-0.004852619,0.999767667,0.000904700,0.000651760,-0.000790449,0.000000000,0.000000000,0.000000000,0.000000000,0.014061465,0.010309866,0.055047065,0.011463452,0.000290208,-0.000138361,0.003568810,-0.001066558,-0.000245448,-0.237764265,0.341986609,1.249433626,-0.002042210,-0.003006834,0.010896875,0.999932954,0.000000000,0.000000000,0.000000000,0.000000000,0.000000000,0.000000000,1.250168180,0.000000000,4.001173019
1772681429.923219681,0.013838000,0.010322000,0.055069000,-0.003007900,0.000591750,0.015070670,0.999881730,-0.005997000,0.001274000,0.030139000,0.000766650,-0.000952869,0.000370612,0.005222344,-0.119894456,-0.024584207,0.009099433,-0.005042372,0.999525152,0.000624105,-0.000185948,-0.000321968,0.000000000,0.000000000,0.000000000,0.000000000,0.014059721,0.010312049,0.055049612,0.011470491,0.000261481,-0.000138385,0.002861426,-0.001163988,-0.000743993,-0.237823578,0.341295408,1.248353209,-0.002042821,-0.003000788,0.010887458,0.999933005,0.000000000,0.000000000,0.000000000,0.000000000,0.000000000,0.000000000,1.249714875,0.000000000,4.001173019
1772681429.933220387,0.013822000,0.010326000,0.055056000,-0.003010820,0.000487640,0.015008640,0.999882710,-0.006006000,0.001066000,0.030015000,-0.000734134,0.000478688,-0.000844813,0.005755286,-0.038604524,-0.008445718,0.008238443,-0.005246271,0.999264045,0.000224803,-0.000853399,0.000178833,0.000000000,0.000000000,0.000000000,0.000000000,0.014058011,0.010313572,0.055051032,0.011455323,0.000239005,-0.000148630,0.002791834,-0.001064360,-0.000625267,-0.237675469,0.341343405,1.247942247,-0.002041535,-0.003001186,0.010883875,0.999933055,0.000000000,0.000000000,0.000000000,0.000000000,0.000000000,0.000000000,1.249261582,0.000000000,4.001173019
1772681429.943220854,0.013825000,0.010331000,0.055055000,-0.002911360,0.000231200,0.014978460,0.999883550,-0.005815000,0.000550000,0.029957000,0.000116719,-0.000394717,-0.000694898,0.002017365,0.005788106,-0.011917244,0.007377472,-0.005450165,0.999002943,-0.000174490,-0.001520833,0.000679623,0.000000000,0.000000000,0.000000000,0.000000000,0.014056302,0.010315095,0.055052452,0.011440155,0.000216529,-0.000158875,0.002722243,-0.000964735,-0.000506543,-0.237527363,0.341391400,1.247531295,-0.002040249,-0.003001583,0.010880292,0.999933106,0.000000000,0.000000000,0.000000000,0.000000000,0.000000000,0.000000000,1.248808299,0.000000000,4.001173019
1772681429.953222036,0.013830000,0.010321000,0.055055000,-0.002937750,0.000237690,0.015042610,0.999882510,-0.005868000,0.000564000,0.030085000,0.000485700,-0.000676386,-0.000383393,-0.002963114,0.039133280,-0.015469468,0.008037115,-0.004886339,0.999690897,-0.001470073,-0.000469458,0.001279053,0.000000000,0.000000000,0.000000000,0.000000000,0.014054828,0.010317421,0.055054193,0.011398066,0.000179177,-0.000174902,0.002661860,-0.000788801,-0.000311886,-0.237379247,0.341439398,1.247120313,-0.002038963,-0.003001981,0.010876710,0.999933207,0.000000000,0.000000000,0.000000000,0.000000000,0.000000000,0.000000000,1.247715966,0.000000000,4.001173019
1772681429.963222265,0.013835000,0.010323000,0.055052000,-0.003014060,0.000136610,0.015012910,0.999882750,-0.006023000,0.000364000,0.030026000,0.000429584,-0.000582451,-0.000023076,-0.004960820,0.039870019,-0.013452165,0.008664314,-0.004535379,0.999950197,-0.002199451,-0.000346750,0.001514292,0.000000000,0.000000000,0.000000000,0.000000000,0.014053645,0.010319837,0.055055223,0.011314850,0.000145984,-0.000166226,0.002707671,0.000276561,0.000705986,-0.237021470,0.341165604,1.246053738,-0.002035894,-0.002999539,0.010867417,0.999933334,0.000000000,0.000000000,0.000000000,0.000000000,0.000000000,0.000000000,1.246396051,0.000000000,4.001173019
1772681429.973222494,0.013867000,0.010274000,0.055032000,-0.003089170,0.001546210,0.014594930,0.999887520,-0.006133000,0.003182000,0.029181000,0.001034684,-0.001115935,0.000632760,-0.001669740,0.001058384,-0.022139816,0.008714394,-0.004774348,0.999421336,-0.000579978,-0.001235708,0.001029659,0.000000000,0.000000000,0.000000000,0.000000000,0.014011052,0.010360483,0.055034833,0.011135655,0.000253579,-0.000252464,0.002653869,-0.000739102,-0.000772590,-0.237171380,0.340589125,1.245330122,-0.002037276,-0.002994510,0.010861109,0.999933470,0.000000000,0.000000000,0.000000000,0.000000000,0.000000000,0.000000000,1.245507471,0.000000000,4.001173019
1772681429.983223200,0.013839000,0.010309000,0.055059000,-0.003034700,0.000944440,0.014680970,0.999887180,-0.006041000,0.001978000,0.029357000,-0.000860877,0.000751266,-0.000008333,-0.000466089,0.007528979,-0.002599613,0.008448318,-0.005230502,0.999174286,0.000552584,-0.000456615,-0.001524928,0.000000000,0.000000000,0.000000000,0.000000000,0.013987694,0.010382821,0.055023362,0.011046713,0.000269442,-0.000342432,0.002880527,-0.000921334,-0.000348305,-0.238530641,0.340717435,1.244841819,-0.002049138,-0.002995750,0.010856809,0.999933430,0.000000000,0.000000000,0.000000000,0.000000000,0.000000000,0.000000000,1.245160418,0.000000000,4.001173019
1772681429.993223667,0.013828000,0.010316000,0.055061000,-0.003012540,0.000709930,0.014784740,0.999885910,-0.006003000,0.001509000,0.029566000,-0.002106506,0.002086888,-0.000469267,0.001993401,0.020874204,0.023873782,0.009322288,-0.006414599,0.999397948,0.000326927,0.001732713,0.001440117,0.000000000,0.000000000,0.000000000,0.000000000,0.014014559,0.010358511,0.055035157,0.011104025,0.000053551,-0.000350781,0.003501953,-0.001377191,-0.000837076,-0.239344146,0.340009099,1.243006389,-0.002056351,-0.002989613,0.010840786,0.999933599,0.000000000,0.000000000,0.000000000,0.000000000,0.000000000,0.000000000,1.243940131,0.000000000,4.001173019
1772681430.003224611,0.013833000,0.010320000,0.055061000,-0.002982550,0.000366570,0.014840190,0.999885360,-0.005954000,0.000822000,0.029679000,-0.002264288,0.002350959,-0.000595232,0.001683372,0.030754116,0.042152339,0.007275963,-0.005735624,0.998757707,-0.003576080,0.001354600,-0.002934806,0.000000000,0.000000000,0.000000000,0.000000000,0.014035249,0.010337967,0.055040644,0.011198463,-0.000168294,-0.000415706,0.002039991,-0.001360002,-0.001095770,-0.239956268,0.338756736,1.240697944,-0.002061872,-0.002978701,0.010820648,0.999933854,0.000000000,0.000000000,0.000000000,0.000000000,0.000000000,0.000000000,1.241277582,0.000000000,4.001173019
1772681430.013225555,0.013833000,0.010316000,0.055057000,-0.002970880,0.000413450,0.014809490,0.999885830,-0.005929000,0.000915000,0.029617000,-0.001472289,0.001689606,-0.000572642,-0.001126521,0.032221545,0.041530238,0.009040842,-0.003401075,1.000034278,0.001744833,-0.001068073,-0.001169852,0.000000000,0.000000000,0.000000000,0.000000000,0.014044969,0.010328195,0.055043059,0.011079714,-0.000285975,-0.000485626,0.003340717,0.000809233,0.000793977,-0.240821148,0.337052899,1.237896935,-0.002069652,-0.002963864,0.010796217,0.999934118,0.000000000,0.000000000,0.000000000,0.000000000,0.000000000,0.000000000,1.238852006,0.000000000,4.001173019
1772681430.023225546,0.013686000,0.010462000,0.054989000,-0.003093240,0.002265100,0.015769920,0.999868300,-0.006114000,0.004627000,0.031527000,-0.000006682,0.000202438,-0.000534823,-0.005943386,0.041404865,0.021011429,0.010053324,-0.003046386,0.998961357,0.000637043,-0.001559630,0.002340367,0.000000000,0.000000000,0.000000000,0.000000000,0.014028155,0.010342644,0.055042951,0.011066963,-0.000078858,-0.000432114,0.003364306,0.001040490,-0.001413842,-0.241122207,0.337039701,1.235911739,-0.002072332,-0.002963742,0.010778886,0.999934333,0.000000000,0.000000000,0.000000000,0.000000000,0.000000000,0.000000000,1.236408426,0.000000000,4.001173019
1772681430.033226252,0.013797000,0.010353000,0.055040000,-0.003069690,0.001708300,0.015493510,0.999873800,-0.006086000,0.003511000,0.030978000,0.001731970,-0.001483478,0.000634974,-0.008413572,-0.017448054,-0.008545914,0.010817481,-0.003218659,0.999600712,-0.000930811,-0.001841594,0.000043194,0.000000000,0.000000000,0.000000000,0.000000000,0.013954915,0.010417829,0.055003666,0.010995348,0.000319579,-0.000679409,0.005412797,0.001245383,-0.000349443,-0.241848166,0.336150944,1.233838009,-0.002078804,-0.002956017,0.010760788,0.999934517,0.000000000,0.000000000,0.000000000,0.000000000,0.000000000,0.000000000,1.234488853,0.000000000,4.001173019
1772681430.043226719,0.013827000,0.010332000,0.055053000,-0.003077290,0.001177910,0.015236940,0.999878480,-0.006118000,0.002449000,0.030468000,0.001921822,-0.001663015,0.000961979,-0.007948247,-0.058154373,-0.022129960,0.011392719,-0.003829703,0.998317412,0.000134794,-0.002101716,0.003059710,0.000000000,0.000000000,0.000000000,0.000000000,0.013950229,0.010425984,0.054995907,0.011259225,0.000467237,-0.000719599,0.005289824,0.000362907,-0.000488043,-0.242551054,0.336188171,1.232410828,-0.002084970,-0.002956382,0.010748316,0.999934666,0.000000000,0.000000000,0.000000000,0.000000000,0.000000000,0.000000000,1.232778758,0.000000000,4.001173019
1772681430.053227425,0.013835000,0.010323000,0.055051000,-0.003128820,0.000815930,0.015097430,0.999880800,-0.006232000,0.001726000,0.030191000,-0.000219201,0.000428496,-0.000023095,-0.004756094,-0.018443654,-0.000634615,0.010297779,-0.003918095,0.998352143,-0.000885351,0.001493670,0.003785393,0.000000000,0.000000000,0.000000000,0.000000000,0.013997719,0.010381996,0.055016076,0.011646474,0.000350211,-0.000743099,0.004648432,-0.000125760,-0.002192981,-0.242423930,0.336419517,1.231675805,-0.002083858,-0.002958375,0.010741901,0.999934728,0.000000000,0.000000000,0.000000000,0.000000000,0.000000000,0.000000000,1.231892559,0.000000000,4.001173019
1772681430.063227892,0.013838000,0.010324000,0.055052000,-0.003197370,0.000608530,0.015042160,0.999881560,-0.006376000,0.001313000,0.030081000,-0.001998819,0.002069192,-0.000905280,0.001200055,0.056155851,0.031259383,0.008418697,-0.003574183,0.997852386,-0.000550428,-0.002381124,-0.001029111,0.000000000,0.000000000,0.000000000,0.000000000,0.014031993,0.010349380,0.055027827,0.011831814,0.000290514,-0.000851543,0.002468287,0.001230278,-0.001979046,-0.241889904,0.337054261,1.231119141,-0.002079153,-0.002963854,0.010737045,0.999934798,0.000000000,0.000000000,0.000000000,0.000000000,0.000000000,0.000000000,1.231293015,0.000000000,4.001173019
1772681430.073228836,0.013834000,0.010323000,0.055069000,-0.003149270,0.000493140,0.015050630,0.999881650,-0.006283000,0.001081000,0.030099000,-0.003466932,0.003354272,-0.001575567,0.007740292,0.134272546,0.067078734,0.009802503,-0.001275172,0.997494284,-0.002462694,-0.000295706,-0.001871529,0.000000000,0.000000000,0.000000000,0.000000000,0.014047933,0.010336052,0.055035422,0.011778061,0.000397325,-0.001028631,0.003817986,0.002544454,-0.002409906,-0.241440037,0.337072926,1.229749190,-0.002075261,-0.002963950,0.010725103,0.999934905,0.000000000,0.000000000,0.000000000,0.000000000,0.000000000,0.000000000,1.230503524,0.000000000,4.001173019
1772681430.083229542,0.013699000,0.010461000,0.054995000,-0.003098830,0.002273550,0.015983940,0.999864860,-0.006124000,0.004646000,0.031955000,-0.001611230,0.001367924,-0.000818474,0.012532062,0.122456659,0.056075214,0.009339698,-0.003102732,0.997366691,-0.000052461,-0.003748688,0.001543108,0.000000000,0.000000000,0.000000000,0.000000000,0.014066476,0.010331854,0.055042528,0.011916043,0.000692617,-0.001219850,0.002319078,0.001153881,-0.002591391,-0.241596756,0.336317329,1.227424037,-0.002076760,-0.002957329,0.010704822,0.999935111,0.000000000,0.000000000,0.000000000,0.000000000,0.000000000,0.000000000,1.228131251,0.000000000,4.001173019
1772681430.093230486,0.013661000,0.010491000,0.054969000,-0.003067640,0.004067600,0.016604590,0.999849150,-0.006000000,0.008236000,0.033186000,0.000354043,-0.000617862,0.000031098,0.010257161,0.054047358,0.018568757,0.009520058,-0.005094616,0.998593261,-0.001437810,0.000272138,-0.002506307,0.000000000,0.000000000,0.000000000,0.000000000,0.014201479,0.010340028,0.055027317,0.012208106,0.000757853,-0.001475329,0.004787348,-0.001070514,-0.000324736,-0.241036736,0.337157529,1.226481648,-0.002071819,-0.002964591,0.010696597,0.999935245,0.000000000,0.000000000,0.000000000,0.000000000,0.000000000,0.000000000,1.226623217,0.000000000,4.001173019
1772681430.103230715,0.013798000,0.010358000,0.055037000,-0.002955010,0.002952100,0.016093380,0.999861770,-0.005814000,0.005999000,0.032171000,0.002194672,-0.002409950,0.000963941,0.005980931,-0.034060820,-0.028497748,0.010177353,-0.005543687,0.998911668,-0.000038229,-0.000576338,-0.002686967,0.000000000,0.000000000,0.000000000,0.000000000,0.014302643,0.010345980,0.055015016,0.012548444,0.000675892,-0.001539528,0.004543718,-0.001643120,-0.000643277,-0.240602427,0.337299108,1.225540943,-0.002068040,-0.002965769,0.010688398,0.999935309,0.000000000,0.000000000,0.000000000,0.000000000,0.000000000,0.000000000,1.225830425,0.000000000,4.001173019
1772681430.113231421,0.013829000,0.010320000,0.055054000,-0.002920230,0.001961130,0.015636920,0.999871550,-0.005778000,0.004013000,0.031264000,0.003361051,-0.003383913,0.001714508,-0.001044699,-0.120800771,-0.068720005,0.008869677,-0.004393948,0.997988454,-0.000232322,0.002674366,0.000681611,0.000000000,0.000000000,0.000000000,0.000000000,0.014110723,0.010361813,0.055011760,0.011475673,0.000594433,-0.001516458,0.002647756,-0.000030855,-0.002081353,-0.243781185,0.351722204,1.232546010,-0.002094242,-0.003092051,0.010749172,0.999934376,0.000000000,0.000000000,0.000000000,0.000000000,0.000000000,0.000000000,1.231020706,0.000000000,4.001173019
1772681430.123231888,0.013832000,0.010317000,0.055051000,-0.003023700,0.001206020,0.015167450,0.999879670,-0.006010000,0.002503000,0.030329000,0.003931285,-0.003835543,0.002236026,-0.007446307,-0.184798671,-0.096495278,0.009162839,-0.004196081,0.998702591,0.001978651,-0.000769090,-0.001911876,0.000000000,0.000000000,0.000000000,0.000000000,0.013946083,0.010369807,0.055012645,0.010549148,0.000477077,-0.001561741,0.002845021,0.000044180,-0.001464427,-0.243560029,0.351097890,1.230997998,-0.002092413,-0.003086554,0.010735682,0.999934443,0.000000000,0.000000000,0.000000000,0.000000000,0.000000000,0.000000000,1.231639486,0.000000000,4.001173019
1772681430.133232117,0.013830000,0.010321000,0.055060000,-0.003078500,0.000684890,0.014901960,0.999883990,-0.006136000,0.001461000,0.029801000,0.000108251,0.000006798,0.000281611,-0.007931005,-0.109811883,-0.056553389,0.007619350,-0.003674231,0.998987107,-0.002597303,0.001140728,-0.000196312,0.000000000,0.000000000,0.000000000,0.000000000,0.013993625,0.010350661,0.055021812,0.010714285,0.000467783,-0.001607003,0.001980718,0.000844808,-0.000815217,-0.243999569,0.350113504,1.230052006,-0.002096366,-0.003077988,0.010727433,0.999934498,0.000000000,0.000000000,0.000000000,0.000000000,0.000000000,0.000000000,1.230576032,0.000000000,4.001173019
1772681430.143232822,0.013840000,0.010317000,0.055071000,-0.003003480,0.000583530,0.014783080,0.999886040,-0.005989000,0.001256000,0.029564000,-0.002255839,0.002290103,-0.001210919,-0.006596928,0.008320217,-0.004403566,0.010738487,-0.002899348,0.998851536,0.002512928,-0.004154568,-0.004246621,0.000000000,0.000000000,0.000000000,0.000000000,0.014022148,0.010337556,0.055025312,0.010759831,0.000528961,-0.001647127,0.004260099,0.001194229,-0.000572475,-0.243138795,0.350530567,1.228537729,-0.002088857,-0.003081519,0.010714234,0.999934642,0.000000000,0.000000000,0.000000000,0.000000000,0.000000000,0.000000000,1.228885122,0.000000000,4.001173019
1772681430.153233290,0.013842000,0.010316000,0.055066000,-0.003094830,0.000184310,0.014693910,0.999887230,-0.006184000,0.000460000,0.029388000,-0.001989107,0.002086713,-0.001231877,-0.002225088,0.053246413,0.026325224,0.009817839,-0.002547643,1.000533991,0.001084259,-0.002511275,0.003104034,0.000000000,0.000000000,0.000000000,0.000000000,0.014035637,0.010338820,0.055028082,0.011003123,0.000706003,-0.001613207,0.002841453,0.001608838,0.000704230,-0.242473634,0.349996775,1.227197002,-0.002083138,-0.003076775,0.010702562,0.999934782,0.000000000,0.000000000,0.000000000,0.000000000,0.000000000,0.000000000,1.227709055,0.000000000,4.001173019
1772681430.163233995,0.013836000,0.010317000,0.055056000,-0.003121800,0.000296910,0.014659960,0.999887620,-0.006234000,0.000685000,0.029319000,-0.001448806,0.001373226,-0.000890518,0.001181821,0.054498722,0.038373013,0.008079898,-0.004799504,1.000223091,-0.000602212,0.000662896,0.000581794,0.000000000,0.000000000,0.000000000,0.000000000,0.014040736,0.010335657,0.055027972,0.010970245,0.000817169,-0.001449886,0.002148883,-0.001345500,0.000391483,-0.242352594,0.350077855,1.226271029,-0.002082099,-0.003077454,0.010694484,0.999934886,0.000000000,0.000000000,0.000000000,0.000000000,0.000000000,0.000000000,1.226442442,0.000000000,4.001173019
1772681430.173234701,0.013686000,0.010462000,0.054980000,-0.003049060,0.002328410,0.015672550,0.999869820,-0.006024000,0.004752000,0.031332000,-0.000548051,0.000344603,-0.000414549,0.001771273,0.041267615,0.029540308,0.009495855,-0.004981355,0.999003298,-0.000742947,-0.002460682,-0.001088329,0.000000000,0.000000000,0.000000000,0.000000000,0.014038967,0.010338935,0.055025874,0.010905296,0.000711740,-0.001395110,0.003355041,-0.000289209,-0.000881285,-0.243515497,0.349118636,1.224073114,-0.002092395,-0.003069152,0.010675293,0.999935076,0.000000000,0.000000000,0.000000000,0.000000000,0.000000000,0.000000000,1.224891963,0.000000000,4.001173019
1772681430.183235407,0.013802000,0.010352000,0.055031000,-0.003105810,0.001713560,0.015390550,0.999875270,-0.006158000,0.003522000,0.030772000,0.000556093,-0.000584355,0.000370884,0.001719895,0.005274745,0.011449647,0.009206171,-0.004792836,0.998201929,-0.001825609,-0.002423760,0.000738393,0.000000000,0.000000000,0.000000000,0.000000000,0.014037397,0.010342772,0.055027119,0.010941105,0.000664187,-0.001440292,0.003302419,-0.000189980,-0.001400787,-0.243590082,0.349143852,1.221826715,-0.002093104,-0.003069338,0.010655688,0.999935301,0.000000000,0.000000000,0.000000000,0.000000000,0.000000000,0.000000000,1.222503855,0.000000000,4.001173019
1772681430.193235874,0.013817000,0.010339000,0.055054000,-0.003047740,0.000782640,0.015302530,0.999877960,-0.006071000,0.001658000,0.030601000,0.001621098,-0.001509467,0.001074911,0.003351476,-0.039872201,-0.009021265,0.007815586,-0.003487602,0.999412017,0.000798121,-0.000329626,-0.002053633,0.000000000,0.000000000,0.000000000,0.000000000,0.014039260,0.010342698,0.055028918,0.010938532,0.000641497,-0.001525929,0.002020401,0.000723876,-0.000987426,-0.243138977,0.349236320,1.220556092,-0.002089193,-0.003070080,0.010644611,0.999935431,0.000000000,0.000000000,0.000000000,0.000000000,0.000000000,0.000000000,1.220997216,0.000000000,4.000897326
1772681430.203237057,0.013829000,0.010317000,0.055064000,-0.003035370,0.000597630,0.015087530,0.999881390,-0.006052000,0.001287000,0.030172000,0.001975335,-0.001891345,0.001185007,0.000526329,-0.075628700,-0.025454870,0.007763946,-0.002787541,1.002047294,0.001662214,-0.002116456,0.000302211,0.000000000,0.000000000,0.000000000,0.000000000,0.014042147,0.010339817,0.055026703,0.010792806,0.000747172,-0.001479932,0.001499753,0.001736696,0.001642613,-0.243969232,0.349660700,1.218881790,-0.002096443,-0.003073830,0.010629970,0.999935561,0.000000000,0.000000000,0.000000000,0.000000000,0.000000000,0.000000000,1.219368427,0.000000000,4.000380072
1772681430.213237286,0.013834000,0.010319000,0.055057000,-0.003037370,0.000861000,0.014975590,0.999882880,-0.006048000,0.001813000,0.029947000,0.001314080,-0.001270920,0.000604750,-0.001010415,-0.070474244,-0.027854213,0.009643892,-0.003388499,1.000905069,-0.002722165,-0.000906355,0.001214007,0.000000000,0.000000000,0.000000000,0.000000000,0.014003086,0.010377630,0.055008316,0.010592516,0.000991381,-0.001339357,0.003438753,0.000540790,0.001324881,-0.242801244,0.351183587,1.217823639,-0.002086139,-0.003086991,0.010620739,0.999935624,0.000000000,0.000000000,0.000000000,0.000000000,0.000000000,0.000000000,1.218255959,0.000000000,3.999862867
1772681430.223238230,0.013835000,0.010329000,0.055062000,-0.003047560,0.000253980,0.014997490,0.999882850,-0.006087000,0.000599000,0.029994000,-0.000702046,0.000668559,-0.000412277,0.002339896,-0.017285941,-0.005961059,0.009913230,-0.004175160,0.998589104,-0.003573648,-0.002265121,-0.002286130,0.000000000,0.000000000,0.000000000,0.000000000,0.013979347,0.010399521,0.054989572,0.010579729,0.001103065,-0.001294768,0.003757403,-0.000092108,-0.001393183,-0.242566926,0.351752082,1.216581679,-0.002084074,-0.003091907,0.010609898,0.999935723,0.000000000,0.000000000,0.000000000,0.000000000,0.000000000,0.000000000,1.217037266,0.000000000,3.999345625
1772681430.233238459,0.013833000,0.010317000,0.055058000,-0.003015850,0.000083110,0.014982710,0.999883200,-0.006029000,0.000257000,0.029966000,-0.000252513,0.000364183,-0.000259195,0.002538741,-0.009093438,-0.002456366,0.010973732,-0.004675667,0.997983932,-0.002082341,-0.002795206,-0.001083802,0.000000000,0.000000000,0.000000000,0.000000000,0.014009702,0.010367827,0.054993840,0.010804254,0.000983344,-0.001363622,0.004395784,-0.000599433,-0.002322422,-0.244122861,0.350776569,1.216424665,-0.002097746,-0.003083536,0.010608504,0.999935746,0.000000000,0.000000000,0.000000000,0.000000000,0.000000000,0.000000000,1.216499607,0.000000000,3.998828421
1772681430.243239164,0.013826000,0.010324000,0.055051000,-0.003044600,0.000265550,0.014960830,0.999883410,-0.006081000,0.000622000,0.029921000,0.000648183,-0.000531327,0.000278464,0.002755033,-0.030575051,-0.012791515,0.011892826,-0.005563929,0.999391119,-0.000426621,-0.001713310,0.003298805,0.000000000,0.000000000,0.000000000,0.000000000,0.014027223,0.010353694,0.055009056,0.011045625,0.000873188,-0.001409393,0.005794950,-0.001798030,0.000119156,-0.244452731,0.352662799,1.214746346,-0.002100496,-0.003099995,0.010593815,0.999935862,0.000000000,0.000000000,0.000000000,0.000000000,0.000000000,0.000000000,1.215444832,0.000000000,3.998311191
1772681430.253240347,0.013826000,0.010332000,0.055051000,-0.002994130,0.000296420,0.014947980,0.999883750,-0.005979000,0.000682000,0.029895000,-0.000866121,0.000953083,-0.000171612,0.003534065,-0.005111643,0.003103417,0.010211844,-0.006764836,1.000410097,0.001516121,0.001380810,0.003341251,0.000000000,0.000000000,0.000000000,0.000000000,0.014041604,0.010341449,0.055022438,0.011334438,0.000669415,-0.001288517,0.003985027,-0.001429823,0.000631091,-0.243444814,0.352820752,1.213940204,-0.002091708,-0.003101266,0.010586805,0.999935965,0.000000000,0.000000000,0.000000000,0.000000000,0.000000000,0.000000000,1.214188096,0.000000000,3.997793937
1772681430.263241053,0.013823000,0.010333000,0.055062000,-0.002919790,0.000280630,0.014934040,0.999884180,-0.005831000,0.000648000,0.029867000,-0.001398148,0.001396283,-0.000970603,0.003879142,0.065113013,0.017165554,0.010154529,-0.006463601,1.000349026,0.001678247,0.002715677,0.002646744,0.000000000,0.000000000,0.000000000,0.000000000,0.014034075,0.010349826,0.055013755,0.011419542,0.000494136,-0.001222392,0.004312447,-0.002554157,0.000041275,-0.242995574,0.351539743,1.213852492,-0.002087908,-0.003090044,0.010586075,0.999936025,0.000000000,0.000000000,0.000000000,0.000000000,0.000000000,0.000000000,1.213864729,0.000000000,3.997276707
1772681430.273241520,0.013837000,0.010326000,0.055055000,-0.002988800,0.000219180,0.014897990,0.999884530,-0.005970000,0.000527000,0.029796000,-0.001238501,0.001267132,-0.001181122,0.001823618,0.107560834,0.025546942,0.010421910,-0.004876556,1.001245559,0.000043555,-0.000877993,0.000972569,0.000000000,0.000000000,0.000000000,0.000000000,0.013977299,0.010398508,0.054972269,0.011392946,0.000464904,-0.001275357,0.004353451,-0.000853626,0.002251048,-0.241239441,0.350009882,1.213608709,-0.002072732,-0.003076528,0.010584024,0.999936085,0.000000000,0.000000000,0.000000000,0.000000000,0.000000000,0.000000000,1.213706337,0.000000000,3.996759490
1772681430.283241987,0.013832000,0.010322000,0.055052000,-0.002997150,0.000441560,0.014847860,0.999885170,-0.005981000,0.000972000,0.029694000,-0.000732231,0.000478435,-0.000935232,-0.000836820,0.126186624,0.023002781,0.008818686,-0.003993531,1.000825564,-0.000355156,-0.000442915,0.000489983,0.000000000,0.000000000,0.000000000,0.000000000,0.013950387,0.010428484,0.054964661,0.011433202,0.000515133,-0.001103202,0.002452204,0.000467455,0.000955602,-0.241697477,0.350454898,1.212195306,-0.002076726,-0.003080428,0.010571670,0.999936222,0.000000000,0.000000000,0.000000000,0.000000000,0.000000000,0.000000000,1.212732596,0.000000000,3.996242273
1772681430.293242455,0.013687000,0.010469000,0.054984000,-0.002963810,0.002369640,0.015878860,0.999866720,-0.005852000,0.004833000,0.031745000,0.000812316,-0.000876979,0.000254106,-0.005900933,0.068180562,0.005149747,0.009032255,-0.004190274,0.998872755,-0.001001587,0.000144446,0.001108762,0.000000000,0.000000000,0.000000000,0.000000000,0.013973908,0.010411368,0.054986521,0.011490676,0.000489685,-0.000920921,0.002438752,-0.000382144,-0.001644044,-0.241137097,0.349518465,1.211490386,-0.002071941,-0.003072192,0.010565550,0.999936320,0.000000000,0.000000000,0.000000000,0.000000000,0.000000000,0.000000000,1.211684332,0.000000000,3.995989664
1772681430.303242683,0.013832000,0.010312000,0.055010000,-0.003015220,0.003084980,0.015271410,0.999874080,-0.005936000,0.006261000,0.030526000,0.001290421,-0.001428274,0.000445142,-0.006904032,0.032924274,-0.012262732,0.010044783,-0.003388465,0.998280421,-0.000645042,0.001134013,0.000571996,0.000000000,0.000000000,0.000000000,0.000000000,0.013959743,0.010431299,0.054984184,0.011464026,0.000565616,-0.001043672,0.003695424,0.000814570,-0.001873367,-0.242204617,0.348745768,1.211208968,-0.002081335,-0.003065543,0.010563081,0.999936342,0.000000000,0.000000000,0.000000000,0.000000000,0.000000000,0.000000000,1.211277634,0.000000000,3.996280462
1772681430.313243151,0.013833000,0.010323000,0.055047000,-0.003078380,0.002313480,0.015138270,0.999877990,-0.006086000,0.004720000,0.030264000,-0.000439393,0.000197718,-0.000341748,-0.003089793,0.062242495,-0.001398817,0.010566115,-0.003338771,0.999020101,-0.001364680,-0.001833604,0.001851096,0.000000000,0.000000000,0.000000000,0.000000000,0.014010033,0.010380546,0.055009255,0.011737482,0.000489822,-0.001049705,0.004508826,0.000813968,-0.000953595,-0.242791711,0.347708722,1.208804724,-0.002086618,-0.003056504,0.010542104,0.999936540,0.000000000,0.000000000,0.000000000,0.000000000,0.000000000,0.000000000,1.209528936,0.000000000,3.996571267
1772681430.323243856,0.013834000,0.010315000,0.055059000,-0.003101710,0.001837450,0.015012480,0.999880810,-0.006148000,0.003768000,0.030015000,-0.000572331,0.000386579,-0.000334833,-0.002279524,0.052848560,0.002410178,0.010112968,-0.002954076,0.999336431,-0.000534212,0.000774344,-0.002756957,0.000000000,0.000000000,0.000000000,0.000000000,0.014047662,0.010344175,0.055027632,0.011998026,0.000476335,-0.001029974,0.004834810,0.001122527,-0.001314671,-0.242092294,0.347023003,1.208391957,-0.002080589,-0.003050448,0.010538534,0.999936639,0.000000000,0.000000000,0.000000000,0.000000000,0.000000000,0.000000000,1.208467728,0.000000000,3.996862079
