t,px,py,pz,qx,qy,qz,qw,roll,pitch,yaw,vx,vy,vz,wx_vicon,wy_vicon,wz_vicon,imu_acc_x,imu_acc_y,imu_acc_z,imu_gyro_x,imu_gyro_y,imu_gyro_z,motor_motor_m1,motor_motor_m2,motor_motor_m3,motor_motor_m4,est_stateEstimate_x,est_stateEstimate_y,est_stateEstimate_z,est_stateEstimate_vx,est_stateEstimate_vy,est_stateEstimate_vz,est_stateEstimate_ax,est_stateEstimate_ay,est_stateEstimate_az,att_stateEstimate_roll,att_stateEstimate_pitch,att_stateEstimate_yaw,att_stateEstimate_qx,att_stateEstimate_qy,att_stateEstimate_qz,att_stateEstimate_qw,sp_ctrltarget_x,sp_ctrltarget_y,sp_ctrltarget_z,sp_ctrltarget_yaw,pid_controller_roll,pid_controller_pitch,pid_controller_yaw,pid_controller_cmd_thrust,pwr_pm_vbat
1772421915.832047939,0.017499000,0.011762000,0.053719000,-0.002866920,0.003303470,0.032269310,0.999469640,-0.005518000,0.006789000,0.064532000,-0.000749010,-0.000025524,-0.000936423,-0.000468005,-0.006448169,0.014927778,0.008312623,-0.005530813,0.998980047,0.003063985,0.005109170,0.001364883,0.000000000,0.000000000,0.000000000,0.000000000,0.017628508,0.011784394,0.053712594,0.014066918,0.001882684,-0.000040357,0.004433110,-0.001939466,-0.000552376,-0.229089032,0.234535095,2.953664696,-0.001945758,-0.002097546,0.025768514,0.999662973,0.000000000,0.000000000,0.000000000,0.000000000,0.000000000,0.000000000,2.956178917,0.000000000,4.022287369
1772421915.842048407,0.017485000,0.011772000,0.053706000,-0.002862960,0.003375440,0.032326600,0.999467560,-0.005505000,0.006932000,0.064646000,0.000304604,-0.000204779,0.000057284,-0.002997601,0.005700720,-0.000487689,0.008137821,-0.005566059,0.999274890,0.003702615,0.006020974,0.001710009,0.000000000,0.000000000,0.000000000,0.000000000,0.017628261,0.011784584,0.053712236,0.014079968,0.001868647,-0.000071108,0.004265115,-0.001863820,-0.000092308,-0.228895922,0.234745546,2.954402217,-0.001944013,-0.002099351,0.025774947,0.999662841,0.000000000,0.000000000,0.000000000,0.000000000,0.000000000,0.000000000,2.957325703,0.000000000,4.022287369
1772421915.852048874,0.017489000,0.011768000,0.053710000,-0.002902320,0.003540340,0.032313330,0.999467300,-0.005573000,0.007265000,0.064618000,0.000697029,-0.000195921,0.000412879,-0.003320364,0.013605360,-0.006984452,0.007963019,-0.005601305,0.999569733,0.004341245,0.006932779,0.002055136,0.000000000,0.000000000,0.000000000,0.000000000,0.017628014,0.011784774,0.053711878,0.014093018,0.001854610,-0.000101859,0.004097119,-0.001788173,0.000367761,-0.228467047,0.234720033,2.955780601,-0.001940252,-0.002099055,0.025786979,0.999662710,0.000000000,0.000000000,0.000000000,0.000000000,0.000000000,0.000000000,2.958472489,0.000000000,4.022287369
1772421915.862049580,0.017518000,0.011751000,0.053726000,-0.002879380,0.003185340,0.032246140,0.999470730,-0.005550000,0.006553000,0.064486000,0.000612180,-0.000064685,0.000324068,-0.002173867,0.017725447,-0.006917171,0.007788214,-0.005636551,0.999864583,0.004979890,0.007844605,0.002400270,0.000000000,0.000000000,0.000000000,0.000000000,0.017627767,0.011784964,0.053711519,0.014106068,0.001840572,-0.000132611,0.003929119,-0.001712524,0.000827841,-0.227632722,0.234288740,2.958261096,-0.001933025,-0.002095146,0.025808640,0.999662579,0.000000000,0.000000000,0.000000000,0.000000000,0.000000000,0.000000000,2.959619302,0.000000000,4.022287369
1772421915.872050285,0.017520000,0.011757000,0.053723000,-0.002937430,0.003565540,0.032150550,0.999472360,-0.005643000,0.007316000,0.064292000,0.000233975,0.000123194,-0.000015443,-0.000280091,0.018521947,-0.002643071,0.008632139,-0.005053273,1.000524260,0.003164824,0.004861927,-0.002368507,0.000000000,0.000000000,0.000000000,0.000000000,0.017633869,0.011781145,0.053714459,0.014133997,0.001725973,-0.000145122,0.003885368,-0.000969710,0.000900985,-0.226819898,0.233865338,2.960629108,-0.001925987,-0.002091310,0.025829319,0.999661574,0.000000000,0.000000000,0.000000000,0.000000000,0.000000000,0.000000000,2.960863931,0.000000000,4.022287369
1772421915.882050514,0.017501000,0.011765000,0.053720000,-0.002938400,0.003846540,0.032289700,0.999466830,-0.005625000,0.007879000,0.064569000,-0.000253672,0.000301982,-0.000411947,0.001627313,0.016454237,0.003482776,0.008611950,-0.003601700,1.000608348,0.001100359,0.001115831,-0.003712367,0.000000000,0.000000000,0.000000000,0.000000000,0.017643924,0.011775722,0.053718919,0.014184638,0.001558119,-0.000111365,0.003872733,0.000608624,0.000490751,-0.226163950,0.233499517,2.962176521,-0.001920319,-0.002087997,0.025842838,0.999661110,0.000000000,0.000000000,0.000000000,0.000000000,0.000000000,0.000000000,2.962430924,0.000000000,4.022287369
1772421915.892050505,0.017498000,0.011773000,0.053710000,-0.002898300,0.003637090,0.032271250,0.999468330,-0.005559000,0.007457000,0.064534000,-0.000521465,0.000354857,-0.000451865,0.000997643,0.012590394,0.006264428,0.007300727,-0.002273397,0.999795163,-0.000348611,-0.000184628,-0.000162996,0.000000000,0.000000000,0.000000000,0.000000000,0.017649339,0.011774738,0.053720386,0.014234529,0.001489308,-0.000020514,0.003155264,0.001935534,0.000232781,-0.226319764,0.234201233,2.966091489,-0.001921448,-0.002094219,0.025876977,0.999659600,0.000000000,0.000000000,0.000000000,0.000000000,0.000000000,0.000000000,2.966662269,0.000000000,4.022287369
1772421915.902050257,0.017495000,0.011777000,0.053697000,-0.002867480,0.003755590,0.032296260,0.999467170,-0.005490000,0.007692000,0.064583000,-0.000487316,0.000230323,-0.000026923,0.000595318,0.005619153,0.007151033,0.007519473,-0.003055377,0.999493281,-0.001908945,0.000595631,-0.001590403,0.000000000,0.000000000,0.000000000,0.000000000,0.017644395,0.011777389,0.053719941,0.014142675,0.001607746,-0.000015055,0.003267037,0.000929272,0.000060967,-0.226813964,0.235122251,2.969053924,-0.001925497,-0.002102415,0.025902795,0.999658658,0.000000000,0.000000000,0.000000000,0.000000000,0.000000000,0.000000000,2.969365892,0.000000000,4.022287369
1772421915.912048340,0.017489000,0.011771000,0.053701000,-0.002876720,0.003774330,0.032405970,0.999463520,-0.005506000,0.007731000,0.064803000,-0.000140890,-0.000063520,0.000470047,0.000638883,-0.010441419,0.006108946,0.009991790,-0.004444457,1.000511586,0.000275566,-0.000829655,-0.000718635,0.000000000,0.000000000,0.000000000,0.000000000,0.017640226,0.011783017,0.053715091,0.014029528,0.001718206,-0.000064961,0.006096303,0.000147470,0.000272679,-0.226927966,0.236664846,2.972487764,-0.001926079,-0.002115955,0.025932720,0.999658778,0.000000000,0.000000000,0.000000000,0.000000000,0.000000000,0.000000000,2.973131561,0.000000000,4.022287369
1772421915.922048330,0.017498000,0.011766000,0.053720000,-0.002932630,0.003721430,0.032350380,0.999465360,-0.005622000,0.007629000,0.064691000,-0.000127622,-0.000075622,0.000447397,-0.000316919,-0.007022380,0.007759816,0.008749733,-0.005479465,0.999521400,0.002287554,0.000655431,0.000909591,0.000000000,0.000000000,0.000000000,0.000000000,0.017636429,0.011788307,0.053706427,0.014112675,0.001706492,-0.000042899,0.004503767,-0.000310112,-0.000611017,-0.226496575,0.238119145,2.977020145,-0.001921902,-0.002128621,0.025972241,0.999657731,0.000000000,0.000000000,0.000000000,0.000000000,0.000000000,0.000000000,2.977764654,0.000000000,4.022287369
1772421915.932048798,0.017495000,0.011769000,0.053726000,-0.002926350,0.003667790,0.032366030,0.999465070,-0.005612000,0.007521000,0.064723000,-0.000347650,0.000116919,0.000224146,0.000866183,-0.001662042,0.011395236,0.008756504,-0.003962581,1.000083771,0.000567214,0.000324058,0.000561129,0.000000000,0.000000000,0.000000000,0.000000000,0.017632229,0.011788066,0.053703416,0.014192069,0.001608568,-0.000082320,0.004597168,0.000374074,0.000041418,-0.226122638,0.239368320,2.981571274,-0.001918272,-0.002139510,0.026011931,0.999656738,0.000000000,0.000000000,0.000000000,0.000000000,0.000000000,0.000000000,2.982091909,0.000000000,4.022287369
1772421915.942048311,0.017487000,0.011774000,0.053729000,-0.002861820,0.003627340,0.032464060,0.999462220,-0.005485000,0.007437000,0.064920000,-0.000217094,0.000026865,-0.000067172,0.001186927,-0.003451103,0.008692666,0.009250859,-0.003852073,1.000436886,-0.003868878,-0.000599451,-0.001201020,0.000000000,0.000000000,0.000000000,0.000000000,0.017633540,0.011785392,0.053709804,0.014236581,0.001573893,-0.000076458,0.005056345,0.000820624,0.000327918,-0.226216514,0.240932019,2.985086305,-0.001918670,-0.002153231,0.026042567,0.999655875,0.000000000,0.000000000,0.000000000,0.000000000,0.000000000,0.000000000,2.985469686,0.000000000,4.022287369
1772421915.952048302,0.017484000,0.011772000,0.053714000,-0.002872280,0.003595190,0.032532010,0.999460100,-0.005508000,0.007373000,0.065056000,0.000028555,-0.000154818,-0.000299961,0.001168946,0.000465565,0.006621555,0.008543075,-0.003884066,0.999034584,-0.001823315,0.000186777,0.000619447,0.000000000,0.000000000,0.000000000,0.000000000,0.017633885,0.011784707,0.053717148,0.014304199,0.001579023,-0.000014305,0.004059791,0.000065535,-0.001050947,-0.226852550,0.242221849,2.988285540,-0.001923865,-0.002164681,0.026070439,0.999655143,0.000000000,0.000000000,0.000000000,0.000000000,0.000000000,0.000000000,2.988752330,0.000000000,4.022287369
1772421915.962049007,0.017480000,0.011775000,0.053702000,-0.002876840,0.003735560,0.032615250,0.999456860,-0.005507000,0.007655000,0.065222000,0.000363773,-0.000382498,0.000052486,-0.000026499,-0.003764356,0.000798322,0.008662742,-0.007156793,0.999596230,0.004627453,-0.000213842,0.000651050,0.000000000,0.000000000,0.000000000,0.000000000,0.017630867,0.011786671,0.053722913,0.014329211,0.001593052,-0.000044067,0.005498281,-0.002162134,-0.000649456,-0.227061706,0.243345827,2.992313010,-0.001925357,-0.002174602,0.026105547,0.999654222,0.000000000,0.000000000,0.000000000,0.000000000,0.000000000,0.000000000,2.992824035,0.000000000,4.022287369
1772421915.972049475,0.017489000,0.011771000,0.053714000,-0.002865230,0.003663450,0.032506640,0.999460700,-0.005489000,0.007509000,0.065005000,0.000556042,-0.000377487,0.000364530,-0.002821860,-0.008463705,-0.008489837,0.010140467,-0.005010227,1.000415687,-0.001808120,0.002681811,0.000978522,0.000000000,0.000000000,0.000000000,0.000000000,0.017626470,0.011786577,0.053717634,0.014325890,0.001309188,-0.000142400,0.005529172,-0.000758525,0.000599007,-0.227662375,0.244564944,2.997545212,-0.001930220,-0.002185462,0.026151160,0.999652981,0.000000000,0.000000000,0.000000000,0.000000000,0.000000000,0.000000000,2.998108265,0.000000000,4.022287369
1772421915.982050419,0.017506000,0.011749000,0.053725000,-0.002927760,0.003580920,0.032432220,0.999463230,-0.005620000,0.007348000,0.064856000,0.000355342,-0.000139142,0.000424728,-0.002721013,-0.014643389,-0.011945579,0.007953105,-0.003856628,0.999809248,-0.000552412,-0.000672918,0.000263893,0.000000000,0.000000000,0.000000000,0.000000000,0.017624205,0.011786288,0.053709659,0.014493573,0.001146514,-0.000137490,0.003917608,0.000482956,-0.000273796,-0.228259975,0.247411953,3.002288618,-0.001934692,-0.002210515,0.026192479,0.999651874,0.000000000,0.000000000,0.000000000,0.000000000,0.000000000,0.000000000,3.002742540,0.000000000,4.022287369
1772421915.992051125,0.017505000,0.011759000,0.053730000,-0.002904210,0.003511850,0.032444970,0.999463130,-0.005578000,0.007208000,0.064882000,-0.000004371,0.000238170,0.000140501,-0.002006925,-0.015387861,-0.009687894,0.006854574,-0.003342258,0.998989782,0.000765906,0.002624127,-0.000228395,0.000000000,0.000000000,0.000000000,0.000000000,0.017630778,0.011779756,0.053713404,0.014474795,0.001125298,-0.000114057,0.002298223,0.000958650,-0.000932485,-0.227511003,0.247480578,3.007138797,-0.001928049,-0.002211023,0.026234800,0.999650698,0.000000000,0.000000000,0.000000000,0.000000000,0.000000000,0.000000000,3.007629475,0.000000000,4.022287369
1772421916.002051115,0.017503000,0.011766000,0.053739000,-0.002899110,0.003303870,0.032297190,0.999468640,-0.005582000,0.006792000,0.064587000,-0.000415288,0.000468396,-0.000283742,0.000291476,-0.014001092,-0.003407545,0.006745772,-0.002550362,0.999398224,-0.001165094,-0.002373536,0.002174540,0.000000000,0.000000000,0.000000000,0.000000000,0.017639527,0.011771390,0.053720844,0.014325148,0.001164526,-0.000174998,0.001935078,0.001454741,-0.000601840,-0.227082347,0.249538018,3.011497624,-0.001923753,-0.002228947,0.026272797,0.999649718,0.000000000,0.000000000,0.000000000,0.000000000,0.000000000,0.000000000,3.011934475,0.000000000,4.022287369
1772421916.012050867,0.017486000,0.011776000,0.053711000,-0.002916730,0.003400790,0.032346020,0.999466690,-0.005611000,0.006987000,0.064684000,-0.000417852,0.000314453,-0.000533159,0.002794830,-0.006312121,0.002136702,0.005761417,-0.003555164,0.998398450,0.001334597,-0.001085400,-0.000792496,0.000000000,0.000000000,0.000000000,0.000000000,0.017640991,0.011772905,0.053726785,0.014157889,0.001277535,-0.000200209,0.001475009,0.000422114,-0.001152183,-0.227154889,0.250741008,3.014750574,-0.001924046,-0.002239513,0.026301151,0.999648794,0.000000000,0.000000000,0.000000000,0.000000000,0.000000000,0.000000000,3.014876842,0.000000000,4.022287369
1772421916.022051096,0.017483000,0.011776000,0.053710000,-0.002872060,0.003329590,0.032433400,0.999464230,-0.005525000,0.006842000,0.064860000,-0.000216550,-0.000058217,-0.000198679,0.005384975,-0.000164373,0.004887079,0.007088012,-0.004961321,0.998458772,0.001093830,-0.001121105,-0.002855377,0.000000000,0.000000000,0.000000000,0.000000000,0.017636481,0.011777916,0.053725316,0.013910435,0.001362649,-0.000289614,0.002868734,-0.000939645,-0.001340661,-0.226477663,0.250997721,3.015826289,-0.001918058,-0.002241615,0.026310546,0.999648506,0.000000000,0.000000000,0.000000000,0.000000000,0.000000000,0.000000000,3.016287994,0.000000000,4.022287369
1772421916.032051802,0.017488000,0.011775000,0.053707000,-0.002894750,0.003424180,0.032431900,0.999463890,-0.005564000,0.007033000,0.064856000,0.000089103,-0.000438015,0.000132673,0.003353354,0.006872621,0.008778923,0.009675007,-0.005192768,0.999106721,-0.002525968,0.003153948,-0.001736844,0.000000000,0.000000000,0.000000000,0.000000000,0.017626331,0.011784341,0.053714760,0.013674425,0.001279882,-0.000475076,0.004766790,-0.000978523,-0.000518351,-0.227118782,0.252966798,3.019384571,-0.001923129,-0.002258999,0.026341537,0.999647684,0.000000000,0.000000000,0.000000000,0.000000000,0.000000000,0.000000000,3.019811528,0.000000000,4.022287369
1772421916.042051315,0.017489000,0.011763000,0.053721000,-0.002801260,0.003353650,0.032467270,0.999463250,-0.005382000,0.006886000,0.064928000,0.000184732,-0.000473408,0.000240560,0.002196100,0.009500897,0.009518210,0.007647247,-0.006566706,0.999658876,0.000697478,-0.000928857,-0.002973668,0.000000000,0.000000000,0.000000000,0.000000000,0.017622769,0.011785900,0.053708564,0.013733444,0.001146791,-0.000563211,0.003536487,-0.001543798,0.000095193,-0.227715038,0.253374911,3.022450959,-0.001928176,-0.002262748,0.026368267,0.999646975,0.000000000,0.000000000,0.000000000,0.000000000,0.000000000,0.000000000,3.022728364,0.000000000,4.022287369
1772421916.052051544,0.017505000,0.011749000,0.053725000,-0.002832350,0.003466330,0.032447600,0.999463410,-0.005437000,0.007113000,0.064888000,0.000122689,-0.000157537,0.000082459,-0.001431717,0.012395449,0.004501062,0.007307934,-0.004346137,1.000859842,0.000303668,0.001072657,-0.002224163,0.000000000,0.000000000,0.000000000,0.000000000,0.017622657,0.011781406,0.053710073,0.013709749,0.000933110,-0.000560941,0.002923064,-0.000516038,0.001104318,-0.227314788,0.254671845,3.024851223,-0.001924338,-0.002274010,0.026389191,0.999646454,0.000000000,0.000000000,0.000000000,0.000000000,0.000000000,0.000000000,3.025198237,0.000000000,4.022287369
1772421916.062051058,0.017489000,0.011761000,0.053730000,-0.002835550,0.003550740,0.032548030,0.999459840,-0.005437000,0.007282000,0.065088000,-0.000094911,0.000203613,-0.000437258,-0.003858425,0.021528943,0.000949953,0.007717397,-0.003799267,1.001041804,0.000296116,0.002022241,0.000355001,0.000000000,0.000000000,0.000000000,0.000000000,0.017628269,0.011771549,0.053714749,0.013615963,0.000807188,-0.000450255,0.003084722,0.000593756,0.001257080,-0.226657220,0.255563155,3.027543309,-0.001918343,-0.002281679,0.026412674,0.999645855,0.000000000,0.000000000,0.000000000,0.000000000,0.000000000,0.000000000,3.027885255,0.000000000,4.022287369
1772421916.072051287,0.017488000,0.011769000,0.053710000,-0.002925320,0.003657600,0.032577110,0.999458250,-0.005609000,0.007502000,0.065145000,-0.000133858,0.000389608,-0.000486597,-0.004360764,0.022618436,-0.003750757,0.007056120,-0.003020273,1.000394661,0.002324855,0.002740355,0.000173623,0.000000000,0.000000000,0.000000000,0.000000000,0.017627478,0.011768492,0.053719557,0.013527553,0.000811590,-0.000303920,0.002641046,0.001152085,0.000307521,-0.226076121,0.256371554,3.030107731,-0.001913036,-0.002288640,0.026435042,0.999645184,0.000000000,0.000000000,0.000000000,0.000000000,0.000000000,0.000000000,3.030380961,0.000000000,4.022287369
1772421916.082051277,0.017487000,0.011767000,0.053701000,-0.002895420,0.003694300,0.032460140,0.999462010,-0.005548000,0.007573000,0.064911000,-0.000175330,0.000306527,-0.000231682,-0.005107468,0.022773263,-0.009833269,0.006260866,-0.002938958,1.000477394,0.001135574,0.003082171,-0.000361894,0.000000000,0.000000000,0.000000000,0.000000000,0.017623195,0.011771876,0.053716274,0.013396216,0.000909954,-0.000234815,0.002091354,0.002141083,-0.000550479,-0.225646719,0.257487679,3.032659005,-0.001908982,-0.002298320,0.026457288,0.999644700,0.000000000,0.000000000,0.000000000,0.000000000,0.000000000,0.000000000,3.033037736,0.000000000,4.022287369
1772421916.092051506,0.017488000,0.011778000,0.053701000,-0.002957640,0.003939120,0.032408840,0.999462560,-0.005657000,0.008066000,0.064807000,-0.000148757,0.000032187,0.000382246,-0.000254963,0.014090602,-0.013577262,0.005484523,-0.003013749,1.000710815,-0.000689528,0.003339128,-0.000843112,0.000000000,0.000000000,0.000000000,0.000000000,0.017619876,0.011774693,0.053708286,0.013218910,0.001110033,-0.000291612,0.001324909,0.001028989,0.000165536,-0.226032012,0.257957734,3.035473807,-0.001912178,-0.002302557,0.026481826,0.999643956,0.000000000,0.000000000,0.000000000,0.000000000,0.000000000,0.000000000,3.035797993,0.000000000,4.022287369
1772421916.102051020,0.017491000,0.011767000,0.053713000,-0.002909770,0.004003950,0.032345930,0.999464480,-0.005558000,0.008192000,0.064681000,0.000035664,-0.000231255,0.000688307,0.002240832,0.009230030,-0.015483079,0.006717916,-0.004072592,1.000288609,0.000509611,0.000582088,-0.001889521,0.000000000,0.000000000,0.000000000,0.000000000,0.017617877,0.011780438,0.053703323,0.013002253,0.001270478,-0.000294489,0.001993372,0.000155122,0.000789331,-0.226728867,0.257980935,3.035887876,-0.001918243,-0.002302927,0.026485425,0.999643483,0.000000000,0.000000000,0.000000000,0.000000000,0.000000000,0.000000000,3.035236623,0.000000000,4.022287369
1772421916.112051249,0.017490000,0.011764000,0.053730000,-0.002924110,0.003899060,0.032257840,0.999467700,-0.005594000,0.007983000,0.064505000,-0.000019017,-0.000288909,0.000572087,0.004274530,0.005100173,-0.011459624,0.007410649,-0.003257348,1.000290105,0.000036616,-0.001854349,-0.000793277,0.000000000,0.000000000,0.000000000,0.000000000,0.017581169,0.011776621,0.053709086,0.011972266,0.001265315,-0.000197477,0.002886330,0.000615106,0.000638789,-0.226688833,0.259788500,3.032728476,-0.001917540,-0.002318633,0.026457832,0.999644280,0.000000000,0.000000000,0.000000000,0.000000000,0.000000000,0.000000000,3.025365642,0.000000000,4.022287369
1772421916.122051477,0.017481000,0.011760000,0.053733000,-0.002924050,0.003956050,0.032221890,0.999468630,-0.005590000,0.008096000,0.064433000,-0.000029779,-0.000198874,0.000030614,0.001298871,0.000165821,-0.008243794,0.007623185,-0.002413234,1.000197760,-0.000628648,-0.004249424,-0.000076534,0.000000000,0.000000000,0.000000000,0.000000000,0.017535522,0.011768544,0.053717892,0.010747941,0.001215099,-0.000067709,0.003036767,0.001447370,0.000240695,-0.225601783,0.268248421,3.031052497,-0.001906138,-0.002392155,0.026443083,0.999644413,0.000000000,0.000000000,0.000000000,0.000000000,0.000000000,0.000000000,3.029038080,0.000000000,4.022287369
1772421916.132051468,0.017487000,0.011765000,0.053730000,-0.002829610,0.003883330,0.032197320,0.999469980,-0.005406000,0.007945000,0.064385000,0.000060956,-0.000163403,-0.000329915,0.001063995,-0.007222247,-0.005610086,0.007089470,-0.002715109,0.999558927,-0.000539358,-0.006955210,-0.001680586,0.000000000,0.000000000,0.000000000,0.000000000,0.017559860,0.011770229,0.053714135,0.011111480,0.001362657,-0.000009118,0.001675227,0.001520333,-0.001321022,-0.225080423,0.268696937,3.028681519,-0.001901536,-0.002395908,0.026422404,0.999645078,0.000000000,0.000000000,0.000000000,0.000000000,0.000000000,0.000000000,3.028362443,0.000000000,4.022287369
1772421916.142052412,0.017490000,0.011763000,0.053711000,-0.002902010,0.003987260,0.032163430,0.999470460,-0.005545000,0.008157000,0.064316000,0.000082382,-0.000011694,-0.000472436,-0.003114540,-0.014926687,-0.002995177,0.007620639,-0.003017584,1.000181311,0.001523422,-0.004319049,-0.003252589,0.000000000,0.000000000,0.000000000,0.000000000,0.017581394,0.011772413,0.053718085,0.011166463,0.001425734,-0.000083431,0.002316073,0.000726261,0.000189184,-0.224990407,0.270890071,3.025303300,-0.001900316,-0.002414963,0.026392897,0.999645807,0.000000000,0.000000000,0.000000000,0.000000000,0.000000000,0.000000000,3.024863827,0.000000000,4.022287369
1772421916.152051926,0.017490000,0.011758000,0.053706000,-0.002903900,0.003899890,0.032179550,0.999470280,-0.005554000,0.007983000,0.064349000,0.000059557,-0.000017832,-0.000241278,-0.004614324,-0.018786639,-0.000085433,0.008268190,-0.003094632,1.001349650,0.004288150,-0.001946080,-0.001976296,0.000000000,0.000000000,0.000000000,0.000000000,0.017589024,0.011776376,0.053718322,0.011194106,0.001537521,-0.000113101,0.003562512,0.001158341,0.001399540,-0.223301270,0.270748113,3.021443636,-0.001885695,-0.002413272,0.026359260,0.999646691,0.000000000,0.000000000,0.000000000,0.000000000,0.000000000,0.000000000,3.020931013,0.000000000,4.022287369
1772421916.162052393,0.017488000,0.011764000,0.053714000,-0.002974280,0.003720580,0.032140640,0.999472010,-0.005706000,0.007628000,0.064271000,-0.000016958,0.000109227,0.000063481,-0.006229190,-0.016546583,0.000401710,0.006495199,-0.002780601,1.000827986,0.002180504,-0.002707758,-0.000367637,0.000000000,0.000000000,0.000000000,0.000000000,0.017595684,0.011779992,0.053717256,0.011235261,0.001620352,-0.000004488,0.002109184,0.001017705,0.000942131,-0.221135027,0.271922180,3.018132914,-0.001866597,-0.002422962,0.026330408,0.999647478,0.000000000,0.000000000,0.000000000,0.000000000,0.000000000,0.000000000,3.017679019,0.000000000,4.022287369
1772421916.172052383,0.017493000,0.011759000,0.053723000,-0.002909180,0.003554540,0.032199110,0.999470920,-0.005587000,0.007293000,0.064390000,-0.000043823,0.000144095,0.000173699,-0.004042561,-0.009013509,0.003380054,0.008174322,-0.003547886,1.000144119,-0.001355991,-0.001797967,0.001510453,0.000000000,0.000000000,0.000000000,0.000000000,0.017603312,0.011782116,0.053713744,0.011179048,0.001713948,0.000088652,0.002673202,0.000480961,-0.000292240,-0.220730186,0.271983938,3.013328028,-0.001863153,-0.002423330,0.026288498,0.999648617,0.000000000,0.000000000,0.000000000,0.000000000,0.000000000,0.000000000,3.012818739,0.000000000,4.022287369
1772421916.182052374,0.017485000,0.011764000,0.053719000,-0.003016020,0.003464850,0.032181300,0.999471490,-0.005806000,0.007120000,0.064354000,0.000146426,0.000254118,0.000035451,-0.001318578,-0.002243927,0.007828513,0.009420427,-0.004667274,0.998873671,-0.002126219,-0.003888676,0.000807533,0.000000000,0.000000000,0.000000000,0.000000000,0.017608553,0.011783748,0.053712760,0.011214307,0.001745679,0.000107455,0.004607647,-0.000181587,-0.000886091,-0.221292701,0.271027812,3.009489684,-0.001868360,-0.002415055,0.026255018,0.999649389,0.000000000,0.000000000,0.000000000,0.000000000,0.000000000,0.000000000,3.009116818,0.000000000,4.022287369
1772421916.192052841,0.017488000,0.011768000,0.053720000,-0.002965890,0.003710760,0.032241670,0.999468810,-0.005690000,0.007609000,0.064474000,0.000338598,0.000133955,-0.000125855,0.001552152,0.002336259,0.008309438,0.007609006,-0.003115555,0.998748025,-0.001056560,-0.002353735,-0.001777536,0.000000000,0.000000000,0.000000000,0.000000000,0.017610861,0.011781831,0.053716891,0.011363495,0.001669162,0.000028605,0.003275776,0.000584793,-0.000715426,-0.221031290,0.270667941,3.006431304,-0.001866227,-0.002411806,0.026228351,0.999650097,0.000000000,0.000000000,0.000000000,0.000000000,0.000000000,0.000000000,3.006041816,0.000000000,4.022287369
1772421916.202053070,0.017494000,0.011772000,0.053711000,-0.002974670,0.003757760,0.032239730,0.999468670,-0.005704000,0.007703000,0.064469000,0.000433975,0.000042036,-0.000191667,0.003070637,-0.005925337,0.006114443,0.007766091,-0.003192904,0.999306884,-0.001504147,0.002105663,-0.003165471,0.000000000,0.000000000,0.000000000,0.000000000,0.017609916,0.011781978,0.053718014,0.011412581,0.001674453,-0.000073270,0.002769503,0.000798560,-0.000421326,-0.221547952,0.270000552,3.003311397,-0.001870952,-0.002406051,0.026201138,0.999650942,0.000000000,0.000000000,0.000000000,0.000000000,0.000000000,0.000000000,3.002831991,0.000000000,4.022287369
1772421916.212053061,0.017502000,0.011765000,0.053710000,-0.002923330,0.003618080,0.032362570,0.999465370,-0.005610000,0.007422000,0.064716000,0.000244794,-0.000120338,0.000024281,0.000507742,-0.016058982,0.001553193,0.009055626,-0.003917440,0.999436882,-0.002080679,0.001595921,-0.002389133,0.000000000,0.000000000,0.000000000,0.000000000,0.017605530,0.011781511,0.053718824,0.011400973,0.001701994,-0.000109722,0.004197530,0.000505559,-0.000436156,-0.222497191,0.269179515,3.000658559,-0.001879476,-0.002399062,0.026177986,0.999651598,0.000000000,0.000000000,0.000000000,0.000000000,0.000000000,0.000000000,3.000580367,0.000000000,4.022287369
1772421916.222053528,0.017504000,0.011768000,0.053712000,-0.002969130,0.003502970,0.032370070,0.999465400,-0.005708000,0.007194000,0.064732000,0.000057770,-0.000102525,0.000119697,-0.001062309,-0.020818581,0.000165673,0.009493360,-0.004092024,0.999449414,-0.001900927,0.001053326,-0.001696359,0.000000000,0.000000000,0.000000000,0.000000000,0.017603054,0.011781500,0.053719202,0.011406996,0.001706575,-0.000114472,0.005230340,0.000485359,-0.000537095,-0.222620686,0.269110653,3.000119784,-0.001880581,-0.002398481,0.026173285,0.999651735,0.000000000,0.000000000,0.000000000,0.000000000,0.000000000,0.000000000,3.000035191,0.000000000,4.022287369
1772421916.232054234,0.017502000,0.011761000,0.053724000,-0.002881900,0.003319500,0.032260210,0.999469840,-0.005547000,0.006821000,0.064513000,-0.000312918,0.000060276,0.000189511,-0.004080374,-0.011991091,0.001342951,0.009489595,-0.004002798,0.999459403,-0.001408002,0.001028463,-0.001224906,0.000000000,0.000000000,0.000000000,0.000000000,0.017603058,0.011782716,0.053718527,0.011428189,0.001704826,-0.000120258,0.005048131,0.000636026,-0.000655311,-0.222744185,0.269041790,2.999580997,-0.001881685,-0.002397900,0.026168584,0.999651862,0.000000000,0.000000000,0.000000000,0.000000000,0.000000000,0.000000000,2.999490001,0.000000000,4.022287369
1772421916.242054701,0.017496000,0.011768000,0.053717000,-0.002983530,0.003221370,0.032269570,0.999469560,-0.005756000,0.006632000,0.064532000,-0.000385840,0.000090190,0.000165326,-0.000822944,0.013769084,0.006622684,0.009485830,-0.003913574,0.999469392,-0.000915089,0.001003599,-0.000753463,0.000000000,0.000000000,0.000000000,0.000000000,0.017603063,0.011783932,0.053717853,0.011449381,0.001703076,-0.000126045,0.004865925,0.000786690,-0.000773524,-0.222867680,0.268972928,2.999042222,-0.001882789,-0.002397318,0.026163883,0.999651989,0.000000000,0.000000000,0.000000000,0.000000000,0.000000000,0.000000000,2.998944825,0.000000000,4.022287369
1772421916.252054453,0.017485000,0.011762000,0.053722000,-0.003025660,0.003464400,0.032325190,0.999466820,-0.005824000,0.007121000,0.064642000,-0.000326632,0.000197766,0.000117638,0.003808960,0.032405864,0.010638377,0.009482065,-0.003824356,0.999479380,-0.000422210,0.000978738,-0.000282055,0.000000000,0.000000000,0.000000000,0.000000000,0.017603068,0.011785147,0.053717178,0.011470572,0.001701327,-0.000131831,0.004683733,0.000937342,-0.000891729,-0.222991167,0.268904071,2.998503486,-0.001883894,-0.002396737,0.026159182,0.999652116,0.000000000,0.000000000,0.000000000,0.000000000,0.000000000,0.000000000,2.998399687,0.000000000,4.022287369
1772421916.262055159,0.017491000,0.011779000,0.053713000,-0.002973140,0.003668390,0.032443360,0.999462420,-0.005705000,0.007526000,0.064877000,-0.000101127,0.000059072,0.000013442,0.005908630,0.028799034,0.011755788,0.009478300,-0.003735130,0.999489370,0.000070715,0.000953874,0.000189399,0.000000000,0.000000000,0.000000000,0.000000000,0.017603073,0.011786363,0.053716504,0.011491765,0.001699578,-0.000137618,0.004501523,0.001088009,-0.001009944,-0.223114665,0.268835208,2.997964699,-0.001884998,-0.002396156,0.026154481,0.999652243,0.000000000,0.000000000,0.000000000,0.000000000,0.000000000,0.000000000,2.997854498,0.000000000,4.022287369
1772421916.272055149,0.017487000,0.011770000,0.053724000,-0.002913900,0.003911370,0.032533240,0.999458750,-0.005570000,0.008008000,0.065056000,0.000043124,0.000041958,-0.000044406,0.005555053,0.011570131,0.008097338,0.009474535,-0.003645910,0.999499358,0.000563605,0.000929012,0.000660819,0.000000000,0.000000000,0.000000000,0.000000000,0.017603078,0.011787579,0.053715830,0.011512957,0.001697829,-0.000143404,0.004319326,0.001238666,-0.001128152,-0.223189492,0.269053883,2.998154508,-0.001885597,-0.002398083,0.026156132,0.999652370,0.000000000,0.000000000,0.000000000,0.000000000,0.000000000,0.000000000,2.998703771,0.000000000,4.022287369
1772421916.282055616,0.017496000,0.011763000,0.053719000,-0.002831800,0.004006700,0.032547010,0.999458160,-0.005400000,0.008193000,0.065084000,0.000243240,-0.000202156,-0.000017988,0.004523454,-0.007474782,-0.000871513,0.009148943,-0.002601754,0.999594152,-0.000247653,0.001989103,0.001698070,0.000000000,0.000000000,0.000000000,0.000000000,0.017602592,0.011788181,0.053716730,0.011596103,0.001708900,-0.000160339,0.004065063,0.001430768,-0.000919828,-0.223083142,0.270346395,3.001179318,-0.001884310,-0.002409384,0.026182501,0.999651762,0.000000000,0.000000000,0.000000000,0.000000000,0.000000000,0.000000000,3.001639896,0.000000000,4.022287369
1772421916.292055607,0.017491000,0.011772000,0.053724000,-0.002850860,0.003714970,0.032467850,0.999461810,-0.005458000,0.007611000,0.064927000,0.000272184,-0.000219930,-0.000205012,-0.000647888,-0.018173492,-0.005430285,0.008314761,-0.001850804,0.999425668,0.000942077,0.000662471,-0.000379313,0.000000000,0.000000000,0.000000000,0.000000000,0.017603739,0.011786359,0.053718553,0.011761258,0.001805051,-0.000215544,0.003675332,0.001659899,-0.000388504,-0.223141104,0.270160777,3.004787865,-0.001884783,-0.002407838,0.026213979,0.999650854,0.000000000,0.000000000,0.000000000,0.000000000,0.000000000,0.000000000,3.005054149,0.000000000,4.022287369
1772421916.302055597,0.017495000,0.011762000,0.053713000,-0.002943440,0.003387160,0.032383210,0.999465450,-0.005665000,0.006961000,0.064759000,0.000016764,-0.000170105,-0.000297184,-0.003947023,-0.012519493,-0.007335534,0.009168083,-0.003070368,0.998386894,0.002604915,-0.003008570,-0.000985589,0.000000000,0.000000000,0.000000000,0.000000000,0.017606535,0.011786462,0.053718810,0.011828114,0.001983674,-0.000277904,0.004024443,0.000936649,-0.001299234,-0.221855565,0.270164418,3.006057622,-0.001873541,-0.002407596,0.026225084,0.999650316,0.000000000,0.000000000,0.000000000,0.000000000,0.000000000,0.000000000,3.005712783,0.000000000,4.022287369
1772421916.312055826,0.017493000,0.011768000,0.053714000,-0.002908660,0.003474560,0.032415210,0.999464220,-0.005589000,0.007134000,0.064822000,-0.000194503,0.000195921,-0.000318648,-0.003531182,0.000910887,-0.004783645,0.009257350,-0.003794159,0.998638319,-0.001127972,0.000048004,-0.003645460,0.000000000,0.000000000,0.000000000,0.000000000,0.017608160,0.011785894,0.053715935,0.011933976,0.002048952,-0.000404382,0.004308925,0.000272978,-0.001581903,-0.221112620,0.271320341,3.002336622,-0.001866873,-0.002417449,0.026192617,0.999650992,0.000000000,0.000000000,0.000000000,0.000000000,0.000000000,0.000000000,3.001885981,0.000000000,4.022287369
1772421916.322056055,0.017501000,0.011758000,0.053712000,-0.002938510,0.003693140,0.032375320,0.999464640,-0.005635000,0.007573000,0.064741000,-0.000197514,0.000139161,0.000090424,-0.002056510,0.011014239,-0.003576565,0.007311582,-0.002685391,0.999054804,0.000462632,0.001362675,-0.000048807,0.000000000,0.000000000,0.000000000,0.000000000,0.017609706,0.011786077,0.053712045,0.012059060,0.002016078,-0.000538242,0.002946588,0.002170901,-0.000452161,-0.221537684,0.270164589,2.997930605,-0.001870938,-0.002407392,0.026154193,0.999652092,0.000000000,0.000000000,0.000000000,0.000000000,0.000000000,0.000000000,2.997556532,0.000000000,4.022287369
1772421916.332055569,0.017490000,0.011770000,0.053708000,-0.002926780,0.003763110,0.032432590,0.999462560,-0.005607000,0.007712000,0.064856000,-0.000046795,-0.000004895,0.000278672,-0.000501404,0.005183626,-0.003614610,0.007891274,-0.002212731,1.001179329,-0.001586159,0.000085858,0.003641922,0.000000000,0.000000000,0.000000000,0.000000000,0.017614404,0.011782289,0.053708792,0.012058742,0.002068780,-0.000631539,0.003426962,0.002035495,0.001066374,-0.222021788,0.269246324,2.995321350,-0.001875425,-0.002399450,0.026131436,0.999652812,0.000000000,0.000000000,0.000000000,0.000000000,0.000000000,0.000000000,2.995108969,0.000000000,4.022287369
1772421916.342054844,0.017481000,0.011772000,0.053714000,-0.002919920,0.003775910,0.032355670,0.999465020,-0.005593000,0.007737000,0.064702000,0.000062354,-0.000111150,0.000338986,-0.000350534,-0.013731134,-0.006467836,0.007176453,-0.002643009,1.001695344,0.000119545,0.003002522,-0.001854776,0.000000000,0.000000000,0.000000000,0.000000000,0.017609741,0.011787229,0.053706060,0.012026600,0.002259316,-0.000499609,0.002288032,0.000610183,0.001077699,-0.222270419,0.268628357,2.992318769,-0.001877798,-0.002394066,0.026105250,0.999653406,0.000000000,0.000000000,0.000000000,0.000000000,0.000000000,0.000000000,2.991957864,0.000000000,4.022287369
1772421916.352054834,0.017488000,0.011772000,0.053724000,-0.002926470,0.003630330,0.032345690,0.999465860,-0.005615000,0.007446000,0.064682000,0.000112160,-0.000223776,0.000155323,-0.001119589,-0.033931416,-0.003485707,0.008395485,-0.001940435,1.002105039,0.002888832,0.000379479,-0.000561349,0.000000000,0.000000000,0.000000000,0.000000000,0.017604722,0.011791537,0.053711141,0.011950836,0.002372781,-0.000270564,0.003557479,0.002514503,0.002219235,-0.222711202,0.269188690,2.988125345,-0.001881604,-0.002398986,0.026068649,0.999654359,0.000000000,0.000000000,0.000000000,0.000000000,0.000000000,0.000000000,2.987796762,0.000000000,4.022287369
1772421916.362054110,0.017503000,0.011756000,0.053731000,-0.002957380,0.003299220,0.032262730,0.999469600,-0.005699000,0.006786000,0.064518000,0.000141298,-0.000123388,0.000108392,0.000246004,-0.037758704,0.002657899,0.007392139,-0.001487465,1.001017312,0.000412875,-0.000885825,0.002841937,0.000000000,0.000000000,0.000000000,0.000000000,0.017611040,0.011788022,0.053721322,0.012008185,0.002541633,0.000037580,0.002800858,0.002380153,0.001240280,-0.221736335,0.269842622,2.985148641,-0.001873013,-0.002404420,0.026042690,0.999655028,0.000000000,0.000000000,0.000000000,0.000000000,0.000000000,0.000000000,2.984818026,0.000000000,4.022287369
1772421916.372054100,0.017496000,0.011758000,0.053716000,-0.002941410,0.003066550,0.032317810,0.999468610,-0.005682000,0.006320000,0.064630000,0.000077292,-0.000080964,-0.000054079,-0.000250097,-0.024438997,0.008106895,0.009331185,-0.002484396,1.000883351,-0.002182174,0.003922309,0.000742505,0.000000000,0.000000000,0.000000000,0.000000000,0.017612860,0.011785334,0.053720763,0.011940752,0.002707815,0.000204682,0.004215199,0.001845417,0.000808116,-0.222263572,0.268098696,2.981462972,-0.001878086,-0.002389266,0.026010555,0.999655834,0.000000000,0.000000000,0.000000000,0.000000000,0.000000000,0.000000000,2.981054586,0.000000000,4.022287369
1772421916.382053614,0.017495000,0.011760000,0.053714000,-0.002898190,0.003115930,0.032361480,0.999467170,-0.005592000,0.006416000,0.064717000,-0.000166201,0.000137335,-0.000223291,0.000061470,0.001649770,0.012340318,0.009087921,-0.003072768,1.000371358,-0.002458926,0.003097999,0.000512589,0.000000000,0.000000000,0.000000000,0.000000000,0.017611534,0.011787321,0.053718795,0.012039017,0.002837606,0.000267983,0.004908974,0.001300240,0.000341768,-0.222578889,0.264820548,2.977389404,-0.001881664,-0.002360673,0.025975070,0.999656858,0.000000000,0.000000000,0.000000000,0.000000000,0.000000000,0.000000000,2.976975750,0.000000000,4.022287369
1772421916.392053843,0.017487000,0.011770000,0.053718000,-0.002901890,0.003114240,0.032550420,0.999461030,-0.005598000,0.006414000,0.065095000,-0.000290152,0.000220222,-0.000001923,0.000382562,0.017802452,0.006945828,0.007826148,-0.003639359,0.999417915,-0.001501792,0.000706300,-0.002236989,0.000000000,0.000000000,0.000000000,0.000000000,0.017608670,0.011792908,0.053720868,0.012146301,0.002887357,0.000318377,0.003635998,0.000738254,-0.000223566,-0.224006265,0.263977009,2.979794670,-0.001894258,-0.002353678,0.025996038,0.999656663,0.000000000,0.000000000,0.000000000,0.000000000,0.000000000,0.000000000,2.979708550,0.000000000,4.022287369
1772421916.402053118,0.017491000,0.011770000,0.053724000,-0.002923870,0.003285970,0.032497090,0.999462150,-0.005631000,0.006758000,0.064987000,-0.000145843,0.000243240,0.000213695,0.001000420,0.020593559,0.000788012,0.007829351,-0.004552146,0.998340048,0.001891763,-0.001125638,-0.002182636,0.000000000,0.000000000,0.000000000,0.000000000,0.017608079,0.011794992,0.053722681,0.012162089,0.002894405,0.000291648,0.003800561,-0.000775362,-0.002061560,-0.223637165,0.263343215,2.977467502,-0.001891230,-0.002348026,0.025975758,0.999656905,0.000000000,0.000000000,0.000000000,0.000000000,0.000000000,0.000000000,2.977039712,0.000000000,4.022287369
1772421916.412054062,0.017485000,0.011767000,0.053717000,-0.002954850,0.003498660,0.032488280,0.999461630,-0.005679000,0.007186000,0.064968000,0.000065793,0.000093726,0.000138403,0.002367748,0.010155154,-0.003788273,0.008681667,-0.005205362,0.998746132,0.001805777,-0.002824089,0.000375887,0.000000000,0.000000000,0.000000000,0.000000000,0.017606728,0.011794663,0.053721461,0.012156143,0.002804728,0.000149752,0.003945946,-0.000964203,-0.001296427,-0.222491677,0.262797136,2.973794946,-0.001881436,-0.002342943,0.025943751,0.999657689,0.000000000,0.000000000,0.000000000,0.000000000,0.000000000,0.000000000,2.973326317,0.000000000,4.022287369
1772421916.422053099,0.017491000,0.011766000,0.053721000,-0.002921860,0.003613390,0.032419920,0.999463530,-0.005606000,0.007412000,0.064831000,0.000106799,-0.000055245,-0.000118745,0.001037834,0.004073006,-0.005148390,0.009128523,-0.005468248,0.999400886,-0.000881476,-0.001478622,0.003334521,0.000000000,0.000000000,0.000000000,0.000000000,0.017608614,0.011793940,0.053722442,0.012209637,0.002663601,0.000004948,0.004820122,-0.001552736,0.000388151,-0.222532297,0.263011858,2.971746490,-0.001881784,-0.002344792,0.025925876,0.999658251,0.000000000,0.000000000,0.000000000,0.000000000,0.000000000,0.000000000,2.970894459,0.000000000,4.022287369
1772421916.432053089,0.017494000,0.011767000,0.053731000,-0.002887820,0.003250470,0.032313060,0.999468340,-0.005563000,0.006684000,0.064619000,0.000221018,-0.000088462,-0.000121290,0.003521987,0.004518009,-0.005624748,0.008570969,-0.004140372,0.999347794,-0.000319008,0.002251907,0.000431692,0.000000000,0.000000000,0.000000000,0.000000000,0.017610542,0.011793177,0.053725828,0.012296576,0.002488708,-0.000043705,0.003863750,0.000303374,-0.000131777,-0.222389645,0.263211490,2.969393003,-0.001880542,-0.002346462,0.025905347,0.999658745,0.000000000,0.000000000,0.000000000,0.000000000,0.000000000,0.000000000,2.968833389,0.000000000,4.022287369
1772421916.442053080,0.017493000,0.011772000,0.053715000,-0.002851870,0.003323630,0.032430980,0.999464380,-0.005485000,0.006829000,0.064855000,0.000134771,0.000068357,-0.000091065,0.005635208,0.003801931,0.000206713,0.008810358,-0.003247071,1.000438008,-0.001342673,0.001347445,0.000494904,0.000000000,0.000000000,0.000000000,0.000000000,0.017611786,0.011794501,0.053720704,0.012376006,0.002364770,-0.000084948,0.004479066,0.001093198,-0.000129659,-0.222219284,0.263107979,2.967119129,-0.001879126,-0.002345483,0.025885516,0.999659326,0.000000000,0.000000000,0.000000000,0.000000000,0.000000000,0.000000000,2.966892454,0.000000000,4.022287369
1772421916.452053547,0.017491000,0.011769000,0.053709000,-0.002848570,0.003424810,0.032476700,0.999462570,-0.005472000,0.007031000,0.064946000,-0.000010742,0.000068007,0.000064783,0.004079713,0.008718526,0.002053804,0.009499855,-0.005176610,0.998560905,0.000207842,0.003236003,0.005126055,0.000000000,0.000000000,0.000000000,0.000000000,0.017611905,0.011793362,0.053714721,0.012420578,0.002374539,-0.000056021,0.004688465,-0.001223646,-0.001269584,-0.222179714,0.262160016,2.965171909,-0.001879035,-0.002337173,0.025868545,0.999659762,0.000000000,0.000000000,0.000000000,0.000000000,0.000000000,0.000000000,2.964930163,0.000000000,4.022287369
1772421916.462053537,0.017495000,0.011763000,0.053721000,-0.002932280,0.003693620,0.032395710,0.999463990,-0.005622000,0.007573000,0.064782000,-0.000195396,0.000098757,-0.000034596,0.001254760,0.012919353,0.004396598,0.006708029,-0.005163870,0.999466406,-0.002633489,-0.001490796,0.001777436,0.000000000,0.000000000,0.000000000,0.000000000,0.017614276,0.011789540,0.053717200,0.012570586,0.002261024,-0.000145061,0.002714444,-0.001317391,-0.000634063,-0.222401997,0.260958252,2.962612274,-0.001881297,-0.002326697,0.025846230,0.999660275,0.000000000,0.000000000,0.000000000,0.000000000,0.000000000,0.000000000,2.962239782,0.000000000,4.022287369
1772421916.472054243,0.017497000,0.011772000,0.053726000,-0.002769480,0.003650820,0.032379730,0.999465130,-0.005300000,0.007477000,0.064752000,-0.000191939,0.000075699,-0.000027797,-0.001613563,0.012923229,0.004473079,0.007155651,-0.005297161,1.001118955,-0.000620809,-0.001586584,0.000402214,0.000000000,0.000000000,0.000000000,0.000000000,0.017616159,0.011790596,0.053719784,0.012530132,0.002116727,-0.000189352,0.002726356,-0.001200208,0.000886980,-0.222777478,0.260438680,2.959792964,-0.001884747,-0.002322203,0.025821636,0.999660857,0.000000000,0.000000000,0.000000000,0.000000000,0.000000000,0.000000000,2.959440668,0.000000000,4.022287369
1772421916.482054472,0.017486000,0.011774000,0.053718000,-0.002824020,0.003559150,0.032490370,0.999461720,-0.005414000,0.007298000,0.064973000,-0.000122319,-0.000012082,0.000025699,-0.004911574,0.000352568,0.000544122,0.009316859,-0.005996242,1.000610802,0.000896197,0.000946376,0.000293242,0.000000000,0.000000000,0.000000000,0.000000000,0.017613868,0.011792012,0.053719540,0.012430959,0.001942731,-0.000126413,0.004512602,-0.001430778,0.001220698,-0.222929047,0.260465071,2.958308949,-0.001886093,-0.002322443,0.025808689,0.999661531,0.000000000,0.000000000,0.000000000,0.000000000,0.000000000,0.000000000,2.958766484,0.000000000,4.022287369
1772421916.492053986,0.017484000,0.011768000,0.053722000,-0.002926780,0.003616560,0.032457020,0.999462300,-0.005616000,0.007419000,0.064905000,0.000046484,-0.000031566,-0.000076573,-0.006946698,-0.004061552,0.000515316,0.009132985,-0.004915392,1.000794736,-0.002278414,0.002368822,0.001025166,0.000000000,0.000000000,0.000000000,0.000000000,0.017611776,0.011791212,0.053717532,0.012481327,0.001760215,-0.000022930,0.004392194,-0.000889069,0.000982080,-0.223055750,0.259670039,2.959538308,-0.001887353,-0.002315556,0.025819425,0.999661007,0.000000000,0.000000000,0.000000000,0.000000000,0.000000000,0.000000000,2.959177496,0.000000000,4.022287369
1772421916.502052307,0.017490000,0.011773000,0.053710000,-0.002929940,0.003582120,0.032495580,0.999461170,-0.005624000,0.007351000,0.064983000,0.000240443,-0.000241337,0.000033936,-0.007644212,-0.005696799,-0.002504482,0.007992172,-0.004504878,1.000525544,-0.001507496,0.005695308,-0.000943048,0.000000000,0.000000000,0.000000000,0.000000000,0.017611094,0.011789394,0.053715599,0.012614809,0.001582710,0.000066406,0.003181356,-0.000294022,0.000500307,-0.223759502,0.256707043,2.953195168,-0.001894286,-0.002289761,0.025764126,0.999661427,0.000000000,0.000000000,0.000000000,0.000000000,0.000000000,0.000000000,2.961259589,0.000000000,4.022287369
1772421916.512057543,0.017494000,0.011765000,0.053718000,-0.002980210,0.003622620,0.032448230,0.999462410,-0.005722000,0.007435000,0.064887000,0.000424010,-0.000294076,0.000247863,-0.008385702,-0.001529497,-0.006928564,0.008786926,-0.004569177,0.999622346,0.003126516,-0.004440205,0.004426935,0.000000000,0.000000000,0.000000000,0.000000000,0.017535037,0.011772156,0.053721496,0.009871525,0.001008892,-0.000100152,0.003618017,-0.000397817,-0.000369980,-0.223096137,0.261906394,2.952356759,-0.001887339,-0.002334955,0.025756735,0.999660802,0.000000000,0.000000000,0.000000000,0.000000000,0.000000000,0.000000000,2.954866251,0.000000000,4.022287369
1772421916.522058010,0.017498000,0.011762000,0.053723000,-0.003002290,0.003520510,0.032346320,0.999466010,-0.005774000,0.007232000,0.064684000,0.000363792,-0.000070357,0.000334985,-0.002220245,-0.004874929,-0.006938315,0.009711532,-0.003791732,1.000407565,0.000780735,-0.000872069,-0.002714620,0.000000000,0.000000000,0.000000000,0.000000000,0.017545594,0.011770195,0.053711124,0.009709119,0.000883978,-0.000199032,0.004706139,0.000290613,0.000127735,-0.220893053,0.280172512,2.964922833,-0.001863748,-0.002494014,0.025866085,0.999659473,0.000000000,0.000000000,0.000000000,0.000000000,0.000000000,0.000000000,2.964526215,0.000000000,4.022287369
1772421916.532058001,0.017504000,0.011765000,0.053728000,-0.002997950,0.003556770,0.032375240,0.999464960,-0.005763000,0.007304000,0.064741000,0.000152234,0.000040210,0.000035606,-0.000637244,-0.008910430,-0.004605458,0.010708483,-0.002463104,1.001137049,-0.002882773,0.003683190,-0.002023905,0.000000000,0.000000000,0.000000000,0.000000000,0.017568110,0.011771170,0.053706768,0.010074468,0.000888787,-0.000199980,0.006003967,0.001603285,0.000298778,-0.220406025,0.280015319,2.961428268,-0.001859611,-0.002492476,0.025835613,0.999660132,0.000000000,0.000000000,0.000000000,0.000000000,0.000000000,0.000000000,2.960951983,0.000000000,4.022287369
1772421916.542057991,0.017502000,0.011759000,0.053729000,-0.002996010,0.003488860,0.032316590,0.999467100,-0.005764000,0.007168000,0.064624000,-0.000057420,0.000018726,-0.000314899,-0.001747992,-0.005407824,-0.004669743,0.011862448,-0.003459211,0.997922032,0.002800476,-0.001361974,-0.000574206,0.000000000,0.000000000,0.000000000,0.000000000,0.017582639,0.011774146,0.053710383,0.010474842,0.001011764,-0.000123770,0.006433331,0.000247722,-0.000929025,-0.220570255,0.279427928,2.957979164,-0.001861251,-0.002487333,0.025805529,0.999660980,0.000000000,0.000000000,0.000000000,0.000000000,0.000000000,0.000000000,2.957649461,0.000000000,4.022287369
1772421916.552057505,0.017499000,0.011771000,0.053719000,-0.003027390,0.003509020,0.032351990,0.999465790,-0.005825000,0.007210000,0.064695000,-0.000153788,0.000067114,-0.000566531,0.000407197,0.001636318,-0.001910022,0.009836599,-0.004481690,0.999420713,0.000782618,-0.001268302,-0.001665069,0.000000000,0.000000000,0.000000000,0.000000000,0.017591460,0.011778450,0.053712851,0.010975164,0.001129030,-0.000244890,0.004835944,-0.000070544,-0.000131121,-0.220089286,0.279161114,2.955119885,-0.001857177,-0.002484850,0.025780601,0.999661636,0.000000000,0.000000000,0.000000000,0.000000000,0.000000000,0.000000000,2.954748417,0.000000000,4.022287369
1772421916.562057495,0.017494000,0.011770000,0.053714000,-0.002963740,0.003425250,0.032367120,0.999465780,-0.005703000,0.007039000,0.064726000,-0.000153225,0.000021562,-0.000430867,-0.000361555,0.010914751,0.000283940,0.009943193,-0.002813522,1.001279727,-0.002360066,0.002650803,0.002634278,0.000000000,0.000000000,0.000000000,0.000000000,0.017594781,0.011782795,0.053711651,0.011318613,0.001091553,-0.000301417,0.005071848,0.000746516,0.001176745,-0.219598119,0.278668940,2.952532561,-0.001853059,-0.002480404,0.025758050,0.999662273,0.000000000,0.000000000,0.000000000,0.000000000,0.000000000,0.000000000,2.952249014,0.000000000,4.022287369
1772421916.572058201,0.017499000,0.011762000,0.053701000,-0.003034140,0.003533550,0.032293630,0.999467570,-0.005837000,0.007259000,0.064578000,-0.000131430,0.000066006,-0.000137121,0.000093318,0.018852985,0.002517269,0.011473514,-0.003790045,0.999698615,0.001040042,-0.001664539,0.002488667,0.000000000,0.000000000,0.000000000,0.000000000,0.017595436,0.011785612,0.053705126,0.011577261,0.001175112,-0.000198409,0.005743071,0.000417081,-0.000248019,-0.218779174,0.278514437,2.950210768,-0.001846000,-0.002478835,0.025737817,0.999662840,0.000000000,0.000000000,0.000000000,0.000000000,0.000000000,0.000000000,2.949905296,0.000000000,4.022287369
1772421916.582057953,0.017494000,0.011763000,0.053706000,-0.003030780,0.003744980,0.032304200,0.999466470,-0.005817000,0.007682000,0.064598000,-0.000197242,0.000216881,0.000063928,0.004017724,0.033448850,0.007892369,0.007548065,-0.003920892,0.998042955,-0.001014098,0.002215933,0.002103712,0.000000000,0.000000000,0.000000000,0.000000000,0.017602319,0.011783080,0.053700359,0.011967707,0.001199798,-0.000179251,0.003707613,0.000331240,-0.001835279,-0.217997633,0.278861407,2.947660467,-0.001839159,-0.002481645,0.025715579,0.999663396,0.000000000,0.000000000,0.000000000,0.000000000,0.000000000,0.000000000,2.947343535,0.000000000,4.022287369
1772421916.592058420,0.017495000,0.011769000,0.053718000,-0.002949350,0.003881170,0.032405780,0.999462910,-0.005644000,0.007949000,0.064801000,-0.000189550,0.000200991,0.000075117,0.007764454,0.037591353,0.010938673,0.008649075,-0.004181777,1.000108119,0.002295111,0.002343524,-0.001659011,0.000000000,0.000000000,0.000000000,0.000000000,0.017605299,0.011781875,0.053698727,0.012045973,0.001185188,-0.000331138,0.003343423,-0.000135053,0.000576938,-0.216778567,0.278209760,2.944738293,-0.001828734,-0.002475641,0.025690123,0.999664032,0.000000000,0.000000000,0.000000000,0.000000000,0.000000000,0.000000000,2.944347742,0.000000000,4.022287369
1772421916.602058411,0.017494000,0.011773000,0.053717000,-0.003008860,0.003990910,0.032456650,0.999460650,-0.005756000,0.008173000,0.064902000,-0.000274612,0.000303186,-0.000215734,0.008237842,0.024380227,0.009611257,0.008118186,-0.003907724,1.002675812,-0.001509120,0.001783968,-0.000091777,0.000000000,0.000000000,0.000000000,0.000000000,0.017615130,0.011776918,0.053707651,0.012166777,0.001164909,-0.000335097,0.003593033,0.000274592,0.001998446,-0.216325378,0.276243293,2.941753490,-0.001825285,-0.002458336,0.025664129,0.999664762,0.000000000,0.000000000,0.000000000,0.000000000,0.000000000,0.000000000,2.941389443,0.000000000,4.022287369
1772421916.612058640,0.017487000,0.011777000,0.053712000,-0.002904190,0.004177460,0.032510480,0.999458450,-0.005534000,0.008539000,0.065010000,-0.000068668,0.000063811,-0.000281741,0.007476470,0.001839506,0.003278632,0.009105755,-0.002978793,1.000234785,0.001196210,-0.001744275,0.001246164,0.000000000,0.000000000,0.000000000,0.000000000,0.017614841,0.011778727,0.053713723,0.012188487,0.001150701,-0.000060624,0.004484979,0.000810905,0.000972459,-0.215962571,0.275472476,2.939387917,-0.001822344,-0.002451493,0.025643512,0.999665340,0.000000000,0.000000000,0.000000000,0.000000000,0.000000000,0.000000000,2.939147886,0.000000000,4.022287369
1772421916.622059107,0.017483000,0.011777000,0.053700000,-0.002825020,0.004340890,0.032544410,0.999456870,-0.005365000,0.008861000,0.065077000,0.000195105,-0.000184654,-0.000211519,0.002707662,-0.017425739,-0.005319356,0.009469477,-0.002899807,1.000767339,-0.001179105,-0.001266450,0.000816674,0.000000000,0.000000000,0.000000000,0.000000000,0.017611620,0.011779509,0.053714484,0.012277847,0.001203089,0.000001616,0.004649907,0.000962354,0.000114546,-0.215340917,0.275653461,2.936813412,-0.001816935,-0.002452892,0.025621061,0.999665753,0.000000000,0.000000000,0.000000000,0.000000000,0.000000000,0.000000000,2.936447610,0.000000000,4.022287369
1772421916.632059097,0.017494000,0.011768000,0.053698000,-0.002858260,0.003986970,0.032473520,0.999460560,-0.005455000,0.008155000,0.064937000,0.000254079,-0.000313034,0.000088831,-0.000872338,-0.020668092,-0.008488021,0.009432652,-0.003252617,1.000747810,-0.000889144,-0.001110475,0.000919701,0.000000000,0.000000000,0.000000000,0.000000000,0.017610312,0.011780175,0.053714296,0.012326404,0.001228883,0.000020912,0.004452780,0.000676208,-0.000010768,-0.215274456,0.275649566,2.934835161,-0.001816399,-0.002452812,0.025603805,0.999666011,0.000000000,0.000000000,0.000000000,0.000000000,0.000000000,0.000000000,2.934793017,0.000000000,4.022287369
1772421916.642059565,0.017490000,0.011769000,0.053700000,-0.002909710,0.003655300,0.032338150,0.999466070,-0.005580000,0.007495000,0.064667000,0.000160198,-0.000226438,0.000415871,-0.003439790,-0.017672830,-0.005256504,0.009315902,-0.003691607,1.000618119,-0.000067346,-0.001018712,0.001128989,0.000000000,0.000000000,0.000000000,0.000000000,0.017609734,0.011780846,0.053713905,0.012358458,0.001243504,0.000031371,0.004269300,0.000240711,0.000094296,-0.215160753,0.275739510,2.934447361,-0.001815395,-0.002453565,0.025600424,0.999666270,0.000000000,0.000000000,0.000000000,0.000000000,0.000000000,0.000000000,2.934402062,0.000000000,4.022287369
1772421916.652059555,0.017507000,0.011760000,0.053721000,-0.002914820,0.003713900,0.032333570,0.999465980,-0.005587000,0.007612000,0.064658000,-0.000103788,0.000076554,0.000385412,-0.007154554,-0.004640376,-0.000955202,0.009199158,-0.004130576,1.000488434,0.000754414,-0.000926954,0.001338268,0.000000000,0.000000000,0.000000000,0.000000000,0.017609155,0.011781517,0.053713514,0.012390510,0.001258124,0.000041831,0.004085829,-0.000194766,0.000199354,-0.215047055,0.275829450,2.934059579,-0.001814391,-0.002454318,0.025597042,0.999666493,0.000000000,0.000000000,0.000000000,0.000000000,0.000000000,0.000000000,2.934011126,0.000000000,4.022287369
1772421916.662059307,0.017494000,0.011770000,0.053721000,-0.002935170,0.003786250,0.032388620,0.999463870,-0.005622000,0.007759000,0.064767000,-0.000189685,0.000160295,0.000137141,-0.004664819,0.001028221,0.002242562,0.009082416,-0.004569534,1.000358752,0.001576153,-0.000835197,0.001547542,0.000000000,0.000000000,0.000000000,0.000000000,0.017608576,0.011782188,0.053713123,0.012422562,0.001272744,0.000052289,0.003902363,-0.000630233,0.000304410,-0.214933360,0.275919388,2.933671807,-0.001813388,-0.002455071,0.025593661,0.999666633,0.000000000,0.000000000,0.000000000,0.000000000,0.000000000,0.000000000,2.933620199,0.000000000,4.022287369
1772421916.672059298,0.017487000,0.011769000,0.053715000,-0.002946520,0.004014760,0.032466120,0.999460430,-0.005629000,0.008217000,0.064921000,-0.000117774,0.000118493,-0.000183295,-0.001921988,-0.001326333,0.001441121,0.008965672,-0.005008503,1.000229067,0.002397912,-0.000743439,0.001756821,0.000000000,0.000000000,0.000000000,0.000000000,0.017607997,0.011782858,0.053712732,0.012454614,0.001287364,0.000062749,0.003718892,-0.001065710,0.000409469,-0.214819662,0.276009328,2.933284025,-0.001812384,-0.002455824,0.025590280,0.999666772,0.000000000,0.000000000,0.000000000,0.000000000,0.000000000,0.000000000,2.933229262,0.000000000,4.022287369
1772421916.682060003,0.017483000,0.011775000,0.053710000,-0.002978590,0.003836160,0.032465080,0.999461070,-0.005705000,0.007862000,0.064920000,0.000059460,-0.000029371,-0.000253808,-0.002722440,-0.019220351,-0.003250730,0.008378473,-0.004965369,1.000047879,0.002155406,-0.000674522,0.001860494,0.000000000,0.000000000,0.000000000,0.000000000,0.017614431,0.011784189,0.053712123,0.012491784,0.001297137,0.000070781,0.003535408,-0.001501218,0.000514535,-0.214705956,0.276099274,2.932896215,-0.001811380,-0.002456577,0.025586899,0.999666911,0.000000000,0.000000000,0.000000000,0.000000000,0.000000000,0.000000000,2.932838298,0.000000000,4.022287369
1772421916.692060232,0.017488000,0.011776000,0.053703000,-0.002987650,0.003767990,0.032381340,0.999464020,-0.005728000,0.007726000,0.064753000,0.000079254,-0.000163656,-0.000009674,-0.003268943,-0.034526166,-0.006737526,0.006781018,-0.003459712,0.999673547,-0.000879430,-0.000977765,0.001472976,0.000000000,0.000000000,0.000000000,0.000000000,0.017733758,0.011796137,0.053707998,0.012611299,0.001228846,0.000039741,0.002161084,-0.000136695,-0.000283972,-0.214533692,0.276692774,2.931417698,-0.001809777,-0.002461693,0.025573994,0.999667168,0.000000000,0.000000000,0.000000000,0.000000000,0.000000000,0.000000000,2.932764292,0.000000000,4.022287369
1772421916.702060223,0.017505000,0.011758000,0.053709000,-0.002935120,0.003288390,0.032305260,0.999468330,-0.005655000,0.006763000,0.064603000,0.000372592,-0.000309829,0.000427293,-0.001051433,-0.033693404,-0.007364586,0.008665073,-0.002631725,0.999191066,0.000234877,-0.003006495,0.000020386,0.000000000,0.000000000,0.000000000,0.000000000,0.017634025,0.011780138,0.053708521,0.012550725,0.001189105,0.000015020,0.003772108,0.001054508,-0.000399977,-0.214256617,0.277598269,2.928989372,-0.001807210,-0.002469492,0.025552798,0.999667626,0.000000000,0.000000000,0.000000000,0.000000000,0.000000000,0.000000000,2.931489560,0.000000000,4.022287369
1772421916.712060452,0.017499000,0.011764000,0.053717000,-0.002986150,0.003282000,0.032262680,0.999469570,-0.005758000,0.006753000,0.064518000,0.000097300,-0.000174068,0.000464220,0.002030616,-0.015701455,-0.003707681,0.011076329,-0.002781400,1.000419098,-0.003676911,0.001902664,-0.002347895,0.000000000,0.000000000,0.000000000,0.000000000,0.017620212,0.011777296,0.053711680,0.012578052,0.001243803,-0.000021943,0.005399703,0.000998435,0.000371239,-0.214254170,0.277674287,2.926011514,-0.001807235,-0.002470108,0.025526817,0.999668187,0.000000000,0.000000000,0.000000000,0.000000000,0.000000000,0.000000000,2.927151278,0.000000000,4.022287369
1772421916.722060919,0.017492000,0.011765000,0.053725000,-0.002999740,0.003258030,0.032310430,0.999468070,-0.005786000,0.006706000,0.064613000,-0.000096426,-0.000029798,0.000100661,0.004511807,0.016260595,-0.001042937,0.009649856,-0.000795582,1.000812586,-0.001933958,-0.000344641,0.003905899,0.000000000,0.000000000,0.000000000,0.000000000,0.017619008,0.011777331,0.053717404,0.012789367,0.001334085,0.000030850,0.004566730,0.002842462,0.000439368,-0.214399197,0.276874931,2.923052520,-0.001808742,-0.002463120,0.025501015,0.999668983,0.000000000,0.000000000,0.000000000,0.000000000,0.000000000,0.000000000,2.923637867,0.000000000,4.022287369
1772421916.732061148,0.017491000,0.011763000,0.053727000,-0.002932490,0.003410150,0.032370200,0.999465830,-0.005641000,0.007007000,0.064733000,-0.000310062,0.000235587,-0.000329857,0.006343967,0.033923607,0.001461770,0.008505458,-0.001662170,0.999805042,0.000250048,-0.004362986,0.002691153,0.000000000,0.000000000,0.000000000,0.000000000,0.017702089,0.011787086,0.053719916,0.013148103,0.001554353,0.000109607,0.003562447,0.002606091,0.000041843,-0.213667560,0.277988934,2.921224102,-0.001802151,-0.002472647,0.025485062,0.999669383,0.000000000,0.000000000,0.000000000,0.000000000,0.000000000,0.000000000,2.921929844,0.000000000,4.022287369
