t,px,py,pz,qx,qy,qz,qw,roll,pitch,yaw,vx,vy,vz,wx_vicon,wy_vicon,wz_vicon,imu_acc_x,imu_acc_y,imu_acc_z,imu_gyro_x,imu_gyro_y,imu_gyro_z,motor_motor_m1,motor_motor_m2,motor_motor_m3,motor_motor_m4,est_stateEstimate_x,est_stateEstimate_y,est_stateEstimate_z,est_stateEstimate_vx,est_stateEstimate_vy,est_stateEstimate_vz,est_stateEstimate_ax,est_stateEstimate_ay,est_stateEstimate_az,att_stateEstimate_roll,att_stateEstimate_pitch,att_stateEstimate_yaw,att_stateEstimate_qx,att_stateEstimate_qy,att_stateEstimate_qz,att_stateEstimate_qw,sp_ctrltarget_x,sp_ctrltarget_y,sp_ctrltarget_z,sp_ctrltarget_yaw,pid_controller_roll,pid_controller_pitch,pid_controller_yaw,pid_controller_cmd_thrust,pwr_pm_vbat
1772421496.948165178,0.016004000,0.008569000,0.053921000,-0.004691920,0.003631340,0.014952230,0.999870610,-0.009274000,0.007402000,0.029872000,0.000293473,0.000478283,0.000161519,0.016718299,0.029834701,-0.011272625,0.009891673,-0.001853666,1.000378990,-0.000297941,-0.000465272,0.001871923,0.000000000,0.000000000,0.000000000,0.000000000,0.016331508,0.008675014,0.053922364,0.016498756,0.005128426,0.000088170,0.004836804,0.002468404,0.000965730,-0.236267190,0.264170241,1.234979342,-0.002036847,-0.002327402,0.010772204,0.999936135,0.000000000,0.000000000,0.000000000,0.000000000,0.000000000,0.000000000,1.235191701,0.000000000,4.185924053
1772421496.958165407,0.016001000,0.008579000,0.053919000,-0.004600950,0.003830930,0.014984560,0.999869800,-0.009086000,0.007799000,0.029935000,0.000318998,0.000217794,0.000125855,0.006744402,0.007097995,-0.001750283,0.010972293,-0.002232186,0.998913389,-0.001554770,-0.003121905,0.003539482,0.000000000,0.000000000,0.000000000,0.000000000,0.016329500,0.008671451,0.053926583,0.016507230,0.005187658,0.000167571,0.006054704,0.002055217,-0.001097520,-0.236081542,0.263091206,1.233446416,-0.002035360,-0.002317942,0.010758851,0.999936235,0.000000000,0.000000000,0.000000000,0.000000000,0.000000000,0.000000000,1.233958367,0.000000000,4.185924053
1772421496.968165874,0.016018000,0.008575000,0.053919000,-0.004614680,0.003690020,0.014918720,0.999871250,-0.009118000,0.007517000,0.029805000,0.000251515,0.000074320,0.000040657,0.000718438,-0.004039798,0.004232060,0.011173684,-0.003030392,1.000798579,-0.001504925,0.005063944,0.000042659,0.000000000,0.000000000,0.000000000,0.000000000,0.016324896,0.008670684,0.053927995,0.016615384,0.005226230,0.000067143,0.006620229,0.001314493,0.000590495,-0.235946211,0.262925545,1.232472503,-0.002034214,-0.002316466,0.010750359,0.999936423,0.000000000,0.000000000,0.000000000,0.000000000,0.000000000,0.000000000,1.232598186,0.000000000,4.185924053
1772421496.978166342,0.016008000,0.008570000,0.053927000,-0.004650570,0.003730580,0.014926850,0.999870810,-0.009189000,0.007599000,0.029820000,0.000124592,0.000018493,-0.000066803,-0.002136499,-0.006474637,0.007280109,0.010460850,-0.001829793,0.998092802,-0.000435783,0.001871084,0.004700659,0.000000000,0.000000000,0.000000000,0.000000000,0.016324814,0.008670159,0.053926747,0.016751296,0.005218988,0.000088188,0.005956086,0.002058980,-0.001285428,-0.235786822,0.262333841,1.231338930,-0.002032902,-0.002311268,0.010740483,0.999936544,0.000000000,0.000000000,0.000000000,0.000000000,0.000000000,0.000000000,1.231822269,0.000000000,4.185924053
1772421496.988167286,0.016006000,0.008580000,0.053922000,-0.004608780,0.003679230,0.015069920,0.999869050,-0.009106000,0.007496000,0.030107000,-0.000028205,0.000020940,-0.000169250,-0.002598818,-0.003098854,0.007998906,0.010452984,-0.004009448,0.997009956,-0.002323251,0.000394274,-0.002179707,0.000000000,0.000000000,0.000000000,0.000000000,0.016326013,0.008670437,0.053923993,0.016807809,0.005256758,-0.000064338,0.005946816,0.000816077,-0.002930366,-0.235262372,0.261354545,1.230109934,-0.002028442,-0.002302652,0.010729786,0.999936705,0.000000000,0.000000000,0.000000000,0.000000000,0.000000000,0.000000000,1.230357987,0.000000000,4.185924053
1772421496.998167038,0.016011000,0.008577000,0.053917000,-0.004618260,0.003732280,0.015043210,0.999869210,-0.009123000,0.007603000,0.030053000,-0.000173310,0.000052292,-0.000239414,-0.001446716,0.003191726,0.006992200,0.010969527,-0.002949489,0.996931627,-0.001287522,-0.000973162,0.000367514,0.000000000,0.000000000,0.000000000,0.000000000,0.016326152,0.008673224,0.053920881,0.016850380,0.005232769,-0.000255878,0.006461783,0.000950664,-0.003146949,-0.235166470,0.260867029,1.229015918,-0.002027672,-0.002298369,0.010720249,0.999936742,0.000000000,0.000000000,0.000000000,0.000000000,0.000000000,0.000000000,1.229846318,0.000000000,4.185924053
1772421497.008167505,0.016016000,0.008576000,0.053915000,-0.004641710,0.003663180,0.015061780,0.999869080,-0.009172000,0.007465000,0.030091000,-0.000234810,0.000051768,-0.000161344,0.000590612,0.008339152,0.005408909,0.011722842,-0.002123931,0.998237645,-0.000273741,-0.001593687,0.000695343,0.000000000,0.000000000,0.000000000,0.000000000,0.016327922,0.008675838,0.053917465,0.016926890,0.005215561,-0.000456138,0.007080537,0.001984917,-0.002751554,-0.235947333,0.260348773,1.227509042,-0.002034565,-0.002293893,0.010707095,0.999936871,0.000000000,0.000000000,0.000000000,0.000000000,0.000000000,0.000000000,1.228197368,0.000000000,4.185924053
1772421497.018167973,0.016002000,0.008580000,0.053910000,-0.004638090,0.003848320,0.015123870,0.999867460,-0.009159000,0.007836000,0.030214000,-0.000208120,0.000062257,-0.000141589,0.002736550,0.007809078,0.002260958,0.012387685,-0.002184197,1.001151573,0.000161423,-0.000981886,-0.001595652,0.000000000,0.000000000,0.000000000,0.000000000,0.016336318,0.008675834,0.053913525,0.017139452,0.005277663,-0.000648966,0.007959568,0.002464889,0.000948428,-0.236104191,0.261102955,1.227094542,-0.002035872,-0.002300481,0.010703461,0.999936998,0.000000000,0.000000000,0.000000000,0.000000000,0.000000000,0.000000000,1.227122081,0.000000000,4.185924053
1772421497.028167486,0.015998000,0.008579000,0.053918000,-0.004629770,0.003898820,0.015090030,0.999867820,-0.009141000,0.007936000,0.030145000,-0.000260062,0.000048155,0.000056469,0.003387015,0.003744549,-0.000732397,0.011358320,-0.003309825,1.001839032,-0.000476511,-0.000834436,-0.000034820,0.000000000,0.000000000,0.000000000,0.000000000,0.016338489,0.008674497,0.053914927,0.017373064,0.005347223,-0.000501241,0.006863686,0.000942514,0.001705895,-0.236126164,0.261607521,1.226024305,-0.002036038,-0.002304867,0.010694112,0.999937036,0.000000000,0.000000000,0.000000000,0.000000000,0.000000000,0.000000000,1.226422639,0.000000000,4.185924053
1772421497.038167238,0.016005000,0.008576000,0.053914000,-0.004582620,0.003783400,0.015093810,0.999868420,-0.009050000,0.007704000,0.030154000,-0.000100194,0.000019852,0.000064239,0.002865335,0.002115658,-0.000661017,0.009882680,-0.002581576,1.002273835,0.001300854,-0.002689196,0.001216602,0.000000000,0.000000000,0.000000000,0.000000000,0.016340074,0.008678615,0.053914814,0.017453645,0.005334137,-0.000329653,0.005596991,0.001497438,0.002229250,-0.236178499,0.261829758,1.224818687,-0.002036498,-0.002306790,0.010683587,0.999937144,0.000000000,0.000000000,0.000000000,0.000000000,0.000000000,0.000000000,1.225137091,0.000000000,4.185924053
1772421497.048167467,0.016002000,0.008577000,0.053920000,-0.004586290,0.003861890,0.015086340,0.999868220,-0.009055000,0.007861000,0.030139000,0.000171387,-0.000152312,0.000107382,-0.000031632,0.002015725,-0.002436702,0.009282101,-0.003009956,0.999363905,0.000037528,-0.003850566,-0.001163445,0.000000000,0.000000000,0.000000000,0.000000000,0.016343538,0.008679467,0.053913763,0.017490949,0.005326448,-0.000186535,0.004524256,0.001452763,0.000309708,-0.236001999,0.262298132,1.224219789,-0.002034926,-0.002310850,0.010678356,0.999937236,0.000000000,0.000000000,0.000000000,0.000000000,0.000000000,0.000000000,1.224246917,0.000000000,4.185924053
1772421497.058167219,0.015998000,0.008584000,0.053911000,-0.004548980,0.003857380,0.015097690,0.999868230,-0.008981000,0.007851000,0.030162000,0.000297844,-0.000319270,0.000258877,-0.004651704,0.002798966,-0.002312231,0.009772796,-0.002485336,1.001418650,0.002491466,-0.001782978,0.000063074,0.000000000,0.000000000,0.000000000,0.000000000,0.016347251,0.008679348,0.053912973,0.017440082,0.005312851,-0.000164596,0.004874691,0.001643610,0.000874839,-0.235672288,0.263162619,1.223737913,-0.002031978,-0.002318354,0.010674141,0.999937236,0.000000000,0.000000000,0.000000000,0.000000000,0.000000000,0.000000000,1.224069943,0.000000000,4.185924053
1772421497.068167686,0.016009000,0.008574000,0.053922000,-0.004629080,0.003782030,0.015038020,0.999869050,-0.009144000,0.007702000,0.030042000,0.000242638,-0.000279371,0.000331139,-0.007200493,0.006707055,0.000190215,0.010060963,-0.003700265,1.001758448,0.001324727,-0.002190669,0.001042623,0.000000000,0.000000000,0.000000000,0.000000000,0.016344841,0.008680568,0.053911479,0.017381780,0.005319537,-0.000065497,0.005456942,0.000942687,0.001900821,-0.235087954,0.264045969,1.222651050,-0.002026819,-0.002325989,0.010664652,0.999937353,0.000000000,0.000000000,0.000000000,0.000000000,0.000000000,0.000000000,1.222815951,0.000000000,4.185924053
1772421497.078168392,0.016012000,0.008566000,0.053919000,-0.004685430,0.003996950,0.015069170,0.999867490,-0.009250000,0.008134000,0.030102000,0.000027156,-0.000143415,0.000307129,-0.006061318,0.007247804,-0.000750249,0.010412435,-0.004312480,1.000992840,-0.001050838,-0.000961674,-0.000276897,0.000000000,0.000000000,0.000000000,0.000000000,0.016339648,0.008681206,0.053913593,0.017370406,0.005262114,0.000107699,0.005692044,-0.000061854,0.001292118,-0.233673750,0.264353130,1.221874913,-0.002014466,-0.002328524,0.010657905,0.999937456,0.000000000,0.000000000,0.000000000,0.000000000,0.000000000,0.000000000,1.222126622,0.000000000,4.185924053
1772421497.088168859,0.016009000,0.008567000,0.053929000,-0.004702760,0.003943170,0.015064160,0.999867690,-0.009286000,0.008027000,0.030093000,-0.000278982,0.000075544,-0.000030187,-0.003243398,0.003760936,-0.000269788,0.010198176,-0.004346345,1.000854779,-0.001212886,-0.004601740,0.000156192,0.000000000,0.000000000,0.000000000,0.000000000,0.016338579,0.008679246,0.053916614,0.017404212,0.005108950,0.000229597,0.005714758,-0.000161450,0.000835884,-0.233047161,0.264405061,1.220856726,-0.002009014,-0.002328901,0.010649031,0.999937524,0.000000000,0.000000000,0.000000000,0.000000000,0.000000000,0.000000000,1.221067084,0.000000000,4.185924053
1772421497.098169088,0.016004000,0.008569000,0.053932000,-0.004721560,0.003975490,0.015074990,0.999867310,-0.009322000,0.008092000,0.030114000,-0.000352001,0.000255653,-0.000250214,0.001180058,-0.000001497,-0.002423887,0.009703221,-0.003320307,1.000714766,-0.001172297,-0.002438380,0.000824000,0.000000000,0.000000000,0.000000000,0.000000000,0.016339181,0.008676686,0.053919397,0.017426555,0.004977186,0.000313594,0.005181994,0.000371424,0.000753901,-0.233448703,0.264564202,1.220130583,-0.002012518,-0.002330314,0.010642684,0.999937624,0.000000000,0.000000000,0.000000000,0.000000000,0.000000000,0.000000000,1.220277059,0.000000000,4.185924053
1772421497.108169556,0.016005000,0.008579000,0.053922000,-0.004664090,0.003912520,0.015076930,0.999867800,-0.009209000,0.007965000,0.030119000,-0.000233606,0.000322708,-0.000340288,0.006301756,-0.007472740,-0.003244180,0.010301275,-0.002795124,1.000563820,-0.001747901,0.001090803,0.000400848,0.000000000,0.000000000,0.000000000,0.000000000,0.016338081,0.008676032,0.053921253,0.017415866,0.004920154,0.000375570,0.005084154,0.001341396,0.000388232,-0.233456187,0.266375140,1.219913530,-0.002012419,-0.002346113,0.010640757,0.999937617,0.000000000,0.000000000,0.000000000,0.000000000,0.000000000,0.000000000,1.219970906,0.000000000,4.185924053
1772421497.118170261,0.015991000,0.008581000,0.053912000,-0.004621710,0.003910200,0.014996340,0.999869220,-0.009125000,0.007958000,0.029958000,0.000272592,0.000084635,-0.000053166,0.005697752,-0.014153884,-0.004858298,0.011296468,-0.002304336,1.000427919,-0.001767492,0.001957732,-0.000627741,0.000000000,0.000000000,0.000000000,0.000000000,0.016337259,0.008676649,0.053921151,0.017422065,0.004936935,0.000393831,0.006589503,0.001429839,0.000563570,-0.233898579,0.266554265,1.219019221,-0.002016281,-0.002347702,0.010632941,0.999937656,0.000000000,0.000000000,0.000000000,0.000000000,0.000000000,0.000000000,1.219261204,0.000000000,4.185924053
1772421497.128170729,0.015995000,0.008580000,0.053909000,-0.004638480,0.003856250,0.015030750,0.999868840,-0.009160000,0.007851000,0.030027000,0.000475564,-0.000183567,0.000220999,0.003783618,-0.008511365,-0.001332054,0.010895458,-0.001154314,1.000756976,-0.000331770,0.002046205,-0.000145155,0.000000000,0.000000000,0.000000000,0.000000000,0.016371697,0.008682199,0.053926017,0.017641845,0.005024856,0.000438773,0.006586586,0.003046942,0.000335648,-0.233427942,0.265598081,1.217577613,-0.002012293,-0.002339289,0.010620387,0.999937798,0.000000000,0.000000000,0.000000000,0.000000000,0.000000000,0.000000000,1.217941657,0.000000000,4.185924053
1772421497.138171196,0.016019000,0.008572000,0.053923000,-0.004573890,0.003750810,0.014954150,0.999870680,-0.009035000,0.007638000,0.029875000,0.000619678,-0.000296834,0.000363209,0.002259860,-0.005247386,0.001599804,0.010069498,-0.001111018,1.002375106,-0.000027730,0.002147724,0.001049326,0.000000000,0.000000000,0.000000000,0.000000000,0.016541535,0.008731025,0.053930467,0.018218624,0.005287257,0.000501101,0.005322033,0.003064944,0.001888667,-0.233147163,0.264430807,1.216354153,-0.002009976,-0.002329056,0.010609737,0.999937938,0.000000000,0.000000000,0.000000000,0.000000000,0.000000000,0.000000000,1.216662449,0.000000000,4.185924053
1772421497.148172379,0.016019000,0.008569000,0.053933000,-0.004582790,0.003712960,0.015031610,0.999869620,-0.009053000,0.007563000,0.030031000,0.000307654,-0.000212063,0.000270125,-0.000668438,0.000471682,0.003184556,0.010292145,-0.001064102,1.004142580,-0.003144987,0.002122942,-0.002218316,0.000000000,0.000000000,0.000000000,0.000000000,0.016681581,0.008772154,0.053934924,0.018607207,0.005527344,0.000671406,0.005573468,0.003128446,0.003728860,-0.233181417,0.262899625,1.216317585,-0.002010417,-0.002315697,0.010609446,0.999938011,0.000000000,0.000000000,0.000000000,0.000000000,0.000000000,0.000000000,1.216232592,0.000000000,4.185924053
1772421497.158172607,0.016024000,0.008568000,0.053934000,-0.004648720,0.003777270,0.015031260,0.999869080,-0.009183000,0.007693000,0.030029000,-0.000070824,-0.000073232,-0.000192794,-0.002738716,0.009536917,0.002884472,0.010315330,-0.002975324,1.003551926,0.000740591,0.004066255,0.002070672,0.000000000,0.000000000,0.000000000,0.000000000,0.016839766,0.008819549,0.053942149,0.019070101,0.005751951,0.000999605,0.005693767,0.001788024,0.003778920,-0.233676860,0.261686754,1.215584568,-0.002014867,-0.002305146,0.010603061,0.999938011,0.000000000,0.000000000,0.000000000,0.000000000,0.000000000,0.000000000,1.216193539,0.000000000,4.185924053
1772421497.168172359,0.016007000,0.008571000,0.053925000,-0.004612880,0.003935110,0.015108060,0.999867480,-0.009106000,0.008009000,0.030181000,-0.000314006,0.000086733,-0.000487957,-0.004903287,0.012346722,-0.000103971,0.009621575,-0.003653486,1.001949546,0.001672159,-0.000548488,0.001569318,0.000000000,0.000000000,0.000000000,0.000000000,0.017017211,0.008872889,0.053952904,0.019588377,0.005875891,0.001335913,0.005271056,0.000663420,0.002476660,-0.234188024,0.261110104,1.214114506,-0.002019411,-0.002300136,0.010590234,0.999938223,0.000000000,0.000000000,0.000000000,0.000000000,0.000000000,0.000000000,1.214023524,0.000000000,4.185924053
1772421497.178173065,0.016015000,0.008574000,0.053910000,-0.004619810,0.003871510,0.015029170,0.999868890,-0.009122000,0.007881000,0.030024000,-0.000326613,0.000246329,-0.000467502,-0.006815917,0.009525549,-0.003149509,0.009657276,-0.003447682,1.000617421,-0.003866035,0.001448831,0.001372564,0.000000000,0.000000000,0.000000000,0.000000000,0.017208943,0.008930020,0.053966801,0.020069472,0.005941151,0.001540338,0.005006698,0.000620046,0.000954498,-0.233187090,0.260702442,1.214045712,-0.002010716,-0.002296485,0.010589661,0.999938250,0.000000000,0.000000000,0.000000000,0.000000000,0.000000000,0.000000000,1.214381786,0.000000000,4.185924053
1772421497.188173294,0.015996000,0.008576000,0.053911000,-0.004703690,0.003963710,0.014995280,0.999868640,-0.009288000,0.008068000,0.029955000,-0.000187568,0.000237743,-0.000108178,-0.006216449,0.008895793,-0.007022964,0.009854088,-0.002488875,0.999642965,0.000113825,0.002372290,0.001691609,0.000000000,0.000000000,0.000000000,0.000000000,0.016844008,0.008814162,0.053958528,0.013962028,0.003979902,0.001112196,0.004960585,0.000554267,0.000421569,-0.225409230,0.283875595,1.213709673,-0.001940705,-0.002497971,0.010586516,0.999937118,0.000000000,0.000000000,0.000000000,0.000000000,0.000000000,0.000000000,1.212821534,0.000000000,4.185924053
1772421497.198173523,0.016010000,0.008571000,0.053909000,-0.004730970,0.004074520,0.014985670,0.999868210,-0.009339000,0.008290000,0.029934000,-0.000005983,0.000220513,0.000271232,-0.004922545,0.002529558,-0.005088517,0.009372331,-0.004739170,1.000041481,0.001311750,-0.003425136,0.001900461,0.000000000,0.000000000,0.000000000,0.000000000,0.016189951,0.008619231,0.053936171,0.008923645,0.002519232,0.000729694,0.004476077,-0.000037529,0.000607227,-0.206317871,0.348492701,1.218321867,-0.001768020,-0.003060137,0.010626113,0.999935662,0.000000000,0.000000000,0.000000000,0.000000000,0.000000000,0.000000000,1.226021241,0.000000000,4.185924053
1772421497.208173513,0.016019000,0.008580000,0.053926000,-0.004747170,0.003869900,0.014960250,0.999869330,-0.009378000,0.007881000,0.029885000,0.000182110,0.000082498,0.000452526,-0.001303794,-0.004051073,-0.001772862,0.009052235,-0.005095421,1.000081680,0.001182269,-0.003296085,0.001415462,0.000000000,0.000000000,0.000000000,0.000000000,0.016031740,0.008574845,0.053929557,0.008553140,0.002437857,0.000706069,0.003991580,-0.000629311,0.000792879,-0.207236861,0.345485329,1.223665770,-0.001776183,-0.003034064,0.010672769,0.999935478,0.000000000,0.000000000,0.000000000,0.000000000,0.000000000,0.000000000,1.228314446,0.000000000,4.185924053
1772421497.218173981,0.016005000,0.008582000,0.053927000,-0.004744280,0.003958220,0.014932320,0.999869420,-0.009370000,0.008057000,0.029829000,0.000055148,-0.000095435,0.000286616,0.002271937,-0.007081621,0.001862155,0.008795624,-0.004934739,0.999986165,0.001243824,-0.001863586,0.000821136,0.000000000,0.000000000,0.000000000,0.000000000,0.016039512,0.008578301,0.053928491,0.008682780,0.002449140,0.000720909,0.003553770,-0.000894237,0.000744081,-0.208155895,0.342477813,1.229009928,-0.001784345,-0.003007990,0.010719427,0.999935294,0.000000000,0.000000000,0.000000000,0.000000000,0.000000000,0.000000000,1.230607761,0.000000000,4.185924053
1772421497.228174448,0.016003000,0.008577000,0.053925000,-0.004726410,0.004057280,0.014966800,0.999868590,-0.009331000,0.008255000,0.029897000,0.000216647,-0.000323097,-0.000145843,0.005172760,-0.015100802,0.002889993,0.008539014,-0.004774057,0.999890650,0.001305378,-0.000431088,0.000226809,0.000000000,0.000000000,0.000000000,0.000000000,0.016047284,0.008581757,0.053927425,0.008812420,0.002460422,0.000735750,0.003164147,-0.000821941,0.000453408,-0.209074930,0.339470297,1.234354085,-0.001792508,-0.002981916,0.010766085,0.999935109,0.000000000,0.000000000,0.000000000,0.000000000,0.000000000,0.000000000,1.232901076,0.000000000,4.185924053
1772421497.238174677,0.016017000,0.008576000,0.053922000,-0.004671800,0.003747770,0.015028400,0.999869130,-0.009230000,0.007635000,0.030023000,-0.000133120,-0.000247669,-0.000354993,0.002779110,-0.014019575,0.003180676,0.008282409,-0.004613378,0.999795138,0.001366932,0.001001377,-0.000367504,0.000000000,0.000000000,0.000000000,0.000000000,0.016055055,0.008585213,0.053926358,0.008942056,0.002471704,0.000750590,0.002774534,-0.000749646,0.000162742,-0.209993942,0.336462853,1.239698116,-0.001800671,-0.002955842,0.010812742,0.999934925,0.000000000,0.000000000,0.000000000,0.000000000,0.000000000,0.000000000,1.235194337,0.000000000,4.185924053
1772421497.248174667,0.016012000,0.008567000,0.053918000,-0.004631000,0.003744910,0.015017200,0.999869500,-0.009149000,0.007628000,0.030001000,-0.000068998,-0.000146426,-0.000315890,0.002561198,-0.005666886,0.003169691,0.008025811,-0.004452704,0.999699628,0.001428483,0.002433807,-0.000961803,0.000000000,0.000000000,0.000000000,0.000000000,0.016062827,0.008588669,0.053925292,0.009071690,0.002482986,0.000765429,0.002384930,-0.000677353,-0.000127918,-0.210912932,0.333455481,1.245042018,-0.001808833,-0.002929769,0.010859398,0.999934741,0.000000000,0.000000000,0.000000000,0.000000000,0.000000000,0.000000000,1.237487543,0.000000000,4.185924053
1772421497.258174658,0.016008000,0.008566000,0.053912000,-0.004702660,0.003763510,0.014990470,0.999869490,-0.009292000,0.007667000,0.029947000,-0.000096620,0.000115618,-0.000011733,0.001036873,0.002850032,0.000212996,0.007843012,-0.003087108,1.000758365,-0.002926959,-0.000486116,0.003189936,0.000000000,0.000000000,0.000000000,0.000000000,0.016070598,0.008592124,0.053924226,0.009201323,0.002494268,0.000780269,0.002357542,0.000145842,0.000357584,-0.211369280,0.330930780,1.249375915,-0.001812939,-0.002907849,0.010897245,0.999934541,0.000000000,0.000000000,0.000000000,0.000000000,0.000000000,0.000000000,1.249569009,0.000000000,4.185924053
1772421497.268175125,0.016015000,0.008569000,0.053911000,-0.004650090,0.003682150,0.015025250,0.999869520,-0.009189000,0.007503000,0.030018000,-0.000317541,0.000275836,0.000126263,0.000343989,0.014413684,-0.002560104,0.010779472,-0.001069028,1.000164759,-0.000497759,0.002279530,-0.000131505,0.000000000,0.000000000,0.000000000,0.000000000,0.016149652,0.008617577,0.053935290,0.009729303,0.002645221,0.000825047,0.005630409,0.002301756,0.000060528,-0.210974362,0.331026199,1.247221276,-0.001809538,-0.002908610,0.010878452,0.999934334,0.000000000,0.000000000,0.000000000,0.000000000,0.000000000,0.000000000,1.247675562,0.000000000,4.185924053
1772421497.278175116,0.015993000,0.008586000,0.053922000,-0.004714950,0.003914510,0.015005090,0.999868640,-0.009312000,0.007970000,0.029975000,-0.000213287,0.000197378,0.000175855,-0.000382113,0.015749791,-0.002962860,0.009347575,-0.001355562,1.000371977,-0.002629185,0.001617107,-0.003009546,0.000000000,0.000000000,0.000000000,0.000000000,0.016100622,0.008602302,0.053930783,0.009992787,0.002848862,0.000828186,0.003964148,0.002606146,0.000416152,-0.211962074,0.329135638,1.244915704,-0.001818395,-0.002892170,0.010858339,0.999934152,0.000000000,0.000000000,0.000000000,0.000000000,0.000000000,0.000000000,1.245347605,0.000000000,4.185924053
1772421497.288175583,0.016009000,0.008577000,0.053926000,-0.004609430,0.004037150,0.014999210,0.999868730,-0.009097000,0.008212000,0.029963000,0.000046484,0.000118978,0.000177428,0.001314666,0.000438263,-0.002224897,0.010322638,-0.004673483,0.999909039,-0.000706989,-0.001359183,0.000240087,0.000000000,0.000000000,0.000000000,0.000000000,0.016108160,0.008599997,0.053928055,0.010285541,0.003182050,0.000833344,0.004600959,-0.000950078,-0.000446996,-0.212479043,0.327291972,1.241784569,-0.001823160,-0.002876081,0.010831034,0.999934462,0.000000000,0.000000000,0.000000000,0.000000000,0.000000000,0.000000000,1.242266066,0.000000000,4.185924053
1772421497.298176050,0.016002000,0.008577000,0.053921000,-0.004674500,0.004029070,0.014940120,0.999869350,-0.009228000,0.008197000,0.029844000,0.000251185,-0.000171756,0.000005769,0.001066434,-0.005717508,-0.000599379,0.009442396,-0.002526255,1.002045961,-0.001948690,0.000241230,0.000465399,0.000000000,0.000000000,0.000000000,0.000000000,0.016111022,0.008599019,0.053923690,0.010678176,0.003167686,0.000830444,0.003517727,0.001615303,0.001986090,-0.212671856,0.326097851,1.239662882,-0.001825008,-0.002865645,0.010812535,0.999934730,0.000000000,0.000000000,0.000000000,0.000000000,0.000000000,0.000000000,1.239994429,0.000000000,4.185924053
1772421497.308176279,0.016006000,0.008574000,0.053917000,-0.004647880,0.003875360,0.014977440,0.999869520,-0.009179000,0.007889000,0.029920000,0.000341162,-0.000206780,-0.000143745,0.001856882,-0.010368336,0.002973031,0.009721521,-0.003018516,1.000686350,-0.001988584,0.000110738,0.005671021,0.000000000,0.000000000,0.000000000,0.000000000,0.016115324,0.008602019,0.053924249,0.010998973,0.003177455,0.000910723,0.004199141,0.000724980,0.001572795,-0.212441151,0.326194553,1.238106108,-0.001823025,-0.002866443,0.010798954,0.999934911,0.000000000,0.000000000,0.000000000,0.000000000,0.000000000,0.000000000,1.238100761,0.000000000,4.185924053
1772421497.318176508,0.016016000,0.008570000,0.053919000,-0.004658190,0.003681800,0.014995950,0.999869930,-0.009205000,0.007502000,0.029959000,0.000309305,-0.000009169,-0.000176069,0.004218561,-0.012663245,0.006165212,0.009798453,-0.003748403,1.000113348,0.000732623,-0.000365071,0.000142212,0.000000000,0.000000000,0.000000000,0.000000000,0.016114148,0.008609055,0.053931694,0.011336491,0.003282213,0.001156620,0.004266177,-0.000055986,0.000092221,-0.212171832,0.326424025,1.236587301,-0.001820691,-0.002868396,0.010785704,0.999935063,0.000000000,0.000000000,0.000000000,0.000000000,0.000000000,0.000000000,1.236606133,0.000000000,4.185924053
1772421497.328176737,0.016012000,0.008576000,0.053920000,-0.004601620,0.003670020,0.015014800,0.999869950,-0.009092000,0.007477000,0.029997000,-0.000046465,0.000151438,0.000075427,0.003888447,-0.002701322,0.005106804,0.009157853,-0.003242276,1.000733239,0.001630300,-0.001407498,-0.000630940,0.000000000,0.000000000,0.000000000,0.000000000,0.016115893,0.008608775,0.053930956,0.011622788,0.003265004,0.001165019,0.003537785,0.000352806,0.000521739,-0.212213691,0.325418198,1.235229383,-0.001821185,-0.002859601,0.010773871,0.999935168,0.000000000,0.000000000,0.000000000,0.000000000,0.000000000,0.000000000,1.235473137,0.000000000,4.185924053
1772421497.338177204,0.016017000,0.008571000,0.053915000,-0.004631980,0.003928050,0.015083000,0.999867800,-0.009145000,0.007995000,0.030131000,-0.000140793,0.000129507,0.000222766,0.004318992,0.006640697,0.001561328,0.009541767,-0.003744658,1.000855306,0.003887200,-0.003330811,-0.000698582,0.000000000,0.000000000,0.000000000,0.000000000,0.016121969,0.008606377,0.053929967,0.011788674,0.003258292,0.001178064,0.003817909,0.000170984,0.001001542,-0.211528224,0.326489242,1.234628012,-0.001815118,-0.002868873,0.010768623,0.999935260,0.000000000,0.000000000,0.000000000,0.000000000,0.000000000,0.000000000,1.234802856,0.000000000,4.185924053
1772421497.348177433,0.016008000,0.008584000,0.053922000,-0.004517160,0.003824210,0.015102040,0.999868440,-0.008918000,0.007784000,0.030171000,-0.000386597,0.000098912,0.000136170,0.000838221,0.012727545,-0.002414254,0.009215956,-0.003317502,1.000427994,0.002441756,0.002428690,-0.001998095,0.000000000,0.000000000,0.000000000,0.000000000,0.016127088,0.008606234,0.053930740,0.011993189,0.003210213,0.001234860,0.003685727,0.000255837,0.000736986,-0.210257880,0.327113271,1.232760338,-0.001804021,-0.002874169,0.010752347,0.999935419,0.000000000,0.000000000,0.000000000,0.000000000,0.000000000,0.000000000,1.233265601,0.000000000,4.185924053
1772421497.358177423,0.016004000,0.008581000,0.053923000,-0.004569680,0.003854460,0.015026540,0.999869220,-0.009023000,0.007845000,0.030019000,-0.000394425,0.000029429,-0.000023038,-0.000689491,0.008479944,-0.002893177,0.010696312,-0.002163792,1.000616017,-0.002298912,0.002544980,-0.002526130,0.000000000,0.000000000,0.000000000,0.000000000,0.016131101,0.008604678,0.053929129,0.012158302,0.003141981,0.001244099,0.004691685,0.001290049,0.000500323,-0.209755743,0.326221284,1.231431008,-0.001799756,-0.002866318,0.010740774,0.999935574,0.000000000,0.000000000,0.000000000,0.000000000,0.000000000,0.000000000,1.231626360,0.000000000,4.185924053
1772421497.368177176,0.016002000,0.008570000,0.053928000,-0.004607310,0.003952180,0.014972410,0.999869480,-0.009095000,0.008041000,0.029910000,-0.000061694,-0.000127253,-0.000090831,-0.001192424,-0.000600709,-0.001928510,0.012677850,-0.003501877,0.999859295,-0.000039641,-0.003603248,0.001979815,0.000000000,0.000000000,0.000000000,0.000000000,0.016130715,0.008608235,0.053930759,0.012303414,0.003192795,0.001299507,0.006687132,0.000431269,0.000076183,-0.210055150,0.325405448,1.230570694,-0.001802467,-0.002859214,0.010733273,0.999935622,0.000000000,0.000000000,0.000000000,0.000000000,0.000000000,0.000000000,1.230907667,0.000000000,4.185924053
1772421497.378176689,0.016002000,0.008578000,0.053919000,-0.004620630,0.003903520,0.014988930,0.999869360,-0.009123000,0.007945000,0.029943000,0.000149922,-0.000140055,-0.000152545,-0.001947189,-0.006108163,-0.000038873,0.012698710,-0.005209176,1.001083127,-0.002649630,0.002322212,0.001269680,0.000000000,0.000000000,0.000000000,0.000000000,0.016129491,0.008610911,0.053932792,0.012552807,0.003250604,0.001304189,0.007214378,-0.000928466,0.000760199,-0.210111303,0.324821168,1.229511920,-0.001803038,-0.002854104,0.010724041,0.999935726,0.000000000,0.000000000,0.000000000,0.000000000,0.000000000,0.000000000,1.229672553,0.000000000,4.185924053
1772421497.388177156,0.016002000,0.008575000,0.053914000,-0.004615410,0.003916060,0.015045640,0.999868490,-0.009112000,0.007970000,0.030057000,0.000310393,-0.000177156,-0.000171601,-0.003001684,-0.006457125,0.004375711,0.010277311,-0.004234670,1.001535113,-0.003265766,0.000388620,0.002098290,0.000000000,0.000000000,0.000000000,0.000000000,0.016129134,0.008608462,0.053935857,0.012986137,0.003146020,0.001327816,0.005057686,-0.000732675,0.001651983,-0.210499059,0.323295623,1.228683861,-0.001806585,-0.002840815,0.010716831,0.999935850,0.000000000,0.000000000,0.000000000,0.000000000,0.000000000,0.000000000,1.229013046,0.000000000,4.185924053
1772421497.398176908,0.016010000,0.008575000,0.053916000,-0.004578770,0.003770590,0.015080050,0.999868700,-0.009043000,0.007678000,0.030127000,0.000291667,-0.000016375,-0.000049145,-0.000969460,-0.011299651,0.006847108,0.008434266,-0.003008908,1.001061252,-0.000535941,-0.000838069,-0.003528122,0.000000000,0.000000000,0.000000000,0.000000000,0.016130348,0.008606254,0.053935389,0.013261876,0.003043175,0.001411346,0.002948883,0.000509555,0.000920734,-0.210978005,0.321782310,1.226499893,-0.001810960,-0.002827620,0.010697787,0.999936067,0.000000000,0.000000000,0.000000000,0.000000000,0.000000000,0.000000000,1.226965295,0.000000000,4.185924053
1772421497.408177137,0.016019000,0.008570000,0.053920000,-0.004593380,0.003758360,0.015080220,0.999868670,-0.009073000,0.007654000,0.030127000,0.000200971,0.000023912,0.000090967,-0.001266128,-0.008823774,0.004955838,0.008606020,-0.002289435,0.999894396,0.002362360,-0.002083966,-0.003403586,0.000000000,0.000000000,0.000000000,0.000000000,0.016132065,0.008605848,0.053932453,0.013399407,0.003005672,0.001505481,0.002802536,0.001312522,0.000111953,-0.211105280,0.322509377,1.224013168,-0.001812064,-0.002833937,0.010676072,0.999936334,0.000000000,0.000000000,0.000000000,0.000000000,0.000000000,0.000000000,1.224182138,0.000000000,4.185924053
1772421497.418177605,0.016009000,0.008575000,0.053919000,-0.004668580,0.003745380,0.015087960,0.999868260,-0.009223000,0.007631000,0.030142000,-0.000130012,0.000148349,0.000268920,0.000219369,-0.003639252,0.003051977,0.010411960,-0.001536266,1.000120270,-0.000528342,0.001392004,-0.000491114,0.000000000,0.000000000,0.000000000,0.000000000,0.016135965,0.008605420,0.053931006,0.013479158,0.003029619,0.001476384,0.004178789,0.002139852,0.000075477,-0.210247375,0.322059386,1.222675374,-0.001804653,-0.002829909,0.010664427,0.999936456,0.000000000,0.000000000,0.000000000,0.000000000,0.000000000,0.000000000,1.222827459,0.000000000,4.185924053
1772421497.428177834,0.016008000,0.008574000,0.053921000,-0.004636680,0.003724500,0.015143200,0.999867650,-0.009160000,0.007589000,0.030253000,-0.000362335,0.000215443,-0.000013306,-0.000235839,0.004911082,0.001230497,0.011928061,-0.001467727,1.000135811,-0.004049912,0.000519950,0.001761740,0.000000000,0.000000000,0.000000000,0.000000000,0.016143904,0.008603198,0.053932316,0.013590504,0.003169884,0.001409681,0.006110705,0.002332549,0.000306810,-0.209755932,0.318907141,1.221596352,-0.001800685,-0.002802339,0.010655075,0.999936659,0.000000000,0.000000000,0.000000000,0.000000000,0.000000000,0.000000000,1.221769977,0.000000000,4.185924053
1772421497.438178062,0.016009000,0.008578000,0.053920000,-0.004612130,0.003736860,0.015123970,0.999868010,-0.009110000,0.007612000,0.030215000,-0.000476924,0.000220377,-0.000307343,0.000311241,0.012284367,0.001602667,0.011223119,-0.002864779,1.000272405,0.002026784,-0.003792902,0.002281601,0.000000000,0.000000000,0.000000000,0.000000000,0.016144187,0.008605306,0.053932621,0.013844889,0.003385425,0.001374175,0.005557848,0.000664606,0.000442325,-0.210296195,0.318631347,1.221037504,-0.001805438,-0.002799974,0.010650189,0.999936743,0.000000000,0.000000000,0.000000000,0.000000000,0.000000000,0.000000000,1.221074602,0.000000000,4.185924053
1772421497.448178291,0.016002000,0.008581000,0.053921000,-0.004603170,0.003852410,0.015108390,0.999867840,-0.009089000,0.007843000,0.030183000,-0.000375544,0.000120241,-0.000353516,0.000282423,0.010354732,0.000485458,0.011111238,-0.001439028,0.999718344,-0.000537069,-0.000210387,0.001697614,0.000000000,0.000000000,0.000000000,0.000000000,0.016144935,0.008607205,0.053933400,0.014149151,0.003474453,0.001367334,0.005612857,0.002470424,-0.000791092,-0.210270737,0.320730210,1.220367206,-0.001805037,-0.002818276,0.010644307,0.999936727,0.000000000,0.000000000,0.000000000,0.000000000,0.000000000,0.000000000,1.220475919,0.000000000,4.185924053
1772421497.458177805,0.015991000,0.008586000,0.053917000,-0.004579220,0.003871750,0.015141610,0.999867380,-0.009040000,0.007881000,0.030249000,0.000026962,-0.000134713,-0.000075952,0.000642791,0.006292083,-0.000794453,0.010131636,-0.000708654,1.000357690,0.000675058,0.000877257,-0.001505569,0.000000000,0.000000000,0.000000000,0.000000000,0.016145897,0.008611206,0.053932946,0.014392316,0.003589997,0.001264094,0.004734291,0.002827499,0.000840237,-0.211065269,0.321514540,1.218773593,-0.001811937,-0.002825169,0.010630367,0.999936848,0.000000000,0.000000000,0.000000000,0.000000000,0.000000000,0.000000000,1.218969454,0.000000000,4.185924053
1772421497.468178034,0.016001000,0.008572000,0.053900000,-0.004668190,0.004028910,0.015105880,0.999866890,-0.009214000,0.008198000,0.030176000,0.000279623,-0.000335373,0.000122086,0.001480201,0.004521414,-0.002607534,0.011150734,-0.000408718,1.001392647,0.000060918,0.001211124,0.000861593,0.000000000,0.000000000,0.000000000,0.000000000,0.016141513,0.008616459,0.053931667,0.014500249,0.003860098,0.001200018,0.005205316,0.003185683,0.001014952,-0.210243042,0.320284401,1.217603979,-0.001804905,-0.002814340,0.010620203,0.999936979,0.000000000,0.000000000,0.000000000,0.000000000,0.000000000,0.000000000,1.217890814,0.000000000,4.185924053
1772421497.478178263,0.016001000,0.008579000,0.053912000,-0.004607650,0.003921290,0.015136210,0.999867140,-0.009096000,0.007981000,0.030238000,0.000365657,-0.000379332,0.000239142,0.004987222,0.001237728,-0.002908392,0.011166812,-0.002588252,1.001960538,0.001439151,0.002041417,-0.000379937,0.000000000,0.000000000,0.000000000,0.000000000,0.016140416,0.008616802,0.053925110,0.014622906,0.004101372,0.001221900,0.005766463,0.001793828,0.001958284,-0.210100183,0.319563339,1.216520721,-0.001803752,-0.002808018,0.010610766,0.999937097,0.000000000,0.000000000,0.000000000,0.000000000,0.000000000,0.000000000,1.216696227,0.000000000,4.185924053
1772421497.488179207,0.016007000,0.008570000,0.053924000,-0.004604760,0.003826710,0.015069260,0.999868530,-0.009093000,0.007791000,0.030105000,0.000222825,-0.000113131,0.000150447,0.006595472,0.003629755,-0.004274269,0.009850465,-0.004417660,1.000847162,0.000284940,0.001549241,0.000246201,0.000000000,0.000000000,0.000000000,0.000000000,0.016451787,0.008699767,0.053954087,0.015472824,0.004240867,0.001541198,0.005524883,-0.000379447,0.001132718,-0.209588053,0.319591113,1.215267769,-0.001799311,-0.002808193,0.010599842,0.999937165,0.000000000,0.000000000,0.000000000,0.000000000,0.000000000,0.000000000,1.216117015,0.000000000,4.185924053
1772421497.498178720,0.016019000,0.008566000,0.053930000,-0.004513200,0.003904130,0.015072240,0.999868600,-0.008908000,0.007943000,0.030111000,0.000016822,0.000160276,-0.000094445,0.005389036,0.002522072,-0.005662164,0.009938817,-0.003226189,1.000814630,0.002904345,-0.002031461,0.000472593,0.000000000,0.000000000,0.000000000,0.000000000,0.016823065,0.008800542,0.053994519,0.016114081,0.004101194,0.001915394,0.005831953,-0.001170790,-0.001231820,-0.209099369,0.316693379,1.210076340,-0.001795441,-0.002782780,0.010554602,0.999936574,0.000000000,0.000000000,0.000000000,0.000000000,0.000000000,0.000000000,1.210707652,0.000000000,4.185924053
1772421497.508178711,0.016008000,0.008570000,0.053915000,-0.004487850,0.004038250,0.015022580,0.999868930,-0.008854000,0.008210000,0.030010000,-0.000265773,0.000368959,-0.000212296,0.001810144,-0.001317533,-0.004460494,0.009958810,-0.002288770,1.000802926,0.004305988,-0.003686016,0.000363289,0.000000000,0.000000000,0.000000000,0.000000000,0.016215049,0.008633477,0.053936747,0.013116102,0.003064805,0.001458461,0.004116454,0.001082097,0.000861712,-0.207236313,0.332440038,1.232287487,-0.001777165,-0.002920360,0.010748211,0.999935343,0.000000000,0.000000000,0.000000000,0.000000000,0.000000000,0.000000000,1.226858116,0.000000000,4.185924053
1772421497.518179417,0.015997000,0.008582000,0.053910000,-0.004498230,0.003966510,0.015033100,0.999869010,-0.008876000,0.008067000,0.030032000,-0.000235490,0.000397028,-0.000278147,-0.003993296,-0.003142713,-0.003120052,0.010348460,-0.003187754,1.000683245,0.000189825,-0.000378730,0.001413375,0.000000000,0.000000000,0.000000000,0.000000000,0.016239595,0.008638594,0.053945285,0.013342138,0.003158867,0.001525189,0.004118401,0.001134991,0.000775161,-0.204596916,0.334561363,1.232177034,-0.001753938,-0.002938622,0.010747280,0.999935428,0.000000000,0.000000000,0.000000000,0.000000000,0.000000000,0.000000000,1.232452320,0.000000000,4.185924053
1772421497.528179646,0.015997000,0.008588000,0.053905000,-0.004572540,0.004022390,0.015001210,0.999868930,-0.009024000,0.008181000,0.029967000,-0.000169445,0.000375797,-0.000084907,-0.006171517,-0.006583991,-0.000265244,0.012800787,-0.004967900,1.001412424,-0.003518141,0.002536779,0.000738956,0.000000000,0.000000000,0.000000000,0.000000000,0.016255129,0.008639131,0.053947022,0.013542831,0.003169942,0.001557587,0.006468377,-0.001439341,0.001125848,-0.203757607,0.334033487,1.231899784,-0.001746671,-0.002933933,0.010744891,0.999935535,0.000000000,0.000000000,0.000000000,0.000000000,0.000000000,0.000000000,1.231986338,0.000000000,4.185924053
1772421497.538179636,0.016006000,0.008581000,0.053909000,-0.004602650,0.003751980,0.014994010,0.999869950,-0.009092000,0.007641000,0.029955000,-0.000041142,-0.000087918,0.000272572,-0.005835836,-0.009830852,0.003514862,0.011996771,-0.004608330,1.000810564,-0.001676818,0.002956146,-0.001110408,0.000000000,0.000000000,0.000000000,0.000000000,0.016263120,0.008633287,0.053947896,0.013901998,0.002993377,0.001615647,0.006805984,-0.001192488,0.001454283,-0.204039500,0.333035892,1.230601822,-0.001749258,-0.002925235,0.010733573,0.999935660,0.000000000,0.000000000,0.000000000,0.000000000,0.000000000,0.000000000,1.230836810,0.000000000,4.185924053
1772421497.548179150,0.016001000,0.008582000,0.053926000,-0.004614860,0.003786870,0.015047720,0.999868960,-0.009115000,0.007712000,0.030062000,0.000199787,-0.000398427,0.000417308,-0.002028091,-0.006430514,0.006339866,0.011084657,-0.003447626,1.001345483,0.000302463,0.000739885,0.000883108,0.000000000,0.000000000,0.000000000,0.000000000,0.016271191,0.008629711,0.053948570,0.014238812,0.002841750,0.001672826,0.005041596,-0.000045131,0.000837745,-0.205007977,0.331500944,1.229938854,-0.001757869,-0.002911921,0.010727789,0.999935813,0.000000000,0.000000000,0.000000000,0.000000000,0.000000000,0.000000000,1.230107938,0.000000000,4.185924053
1772421497.558179617,0.016007000,0.008582000,0.053922000,-0.004604740,0.003836360,0.015062510,0.999868590,-0.009093000,0.007811000,0.030091000,0.000246096,-0.000371484,0.000147922,0.003354498,-0.002678156,0.006732770,0.010386143,-0.002156104,1.001490213,0.000309501,0.001578138,0.002738002,0.000000000,0.000000000,0.000000000,0.000000000,0.016281202,0.008632045,0.053945788,0.014449801,0.002789648,0.001712886,0.005078996,0.001482278,0.002203277,-0.204769181,0.330412507,1.228537003,-0.001755923,-0.002902379,0.010715579,0.999935938,0.000000000,0.000000000,0.000000000,0.000000000,0.000000000,0.000000000,1.228830681,0.000000000,4.185924053
1772421497.568179131,0.016004000,0.008571000,0.053916000,-0.004577200,0.003880240,0.015108300,0.999867860,-0.009036000,0.007898000,0.030183000,0.000174689,-0.000228283,-0.000159596,0.006706363,-0.000226431,0.005639182,0.010240016,-0.001472231,0.999682503,-0.000192654,0.000816059,0.002738177,0.000000000,0.000000000,0.000000000,0.000000000,0.016286844,0.008633352,0.053944321,0.014600296,0.002873657,0.001818239,0.004124719,0.002312344,-0.000268190,-0.204281301,0.330023218,1.227042435,-0.001751740,-0.002898914,0.010702555,0.999936122,0.000000000,0.000000000,0.000000000,0.000000000,0.000000000,0.000000000,1.227399349,0.000000000,4.185924053
1772421497.578179121,0.016003000,0.008563000,0.053922000,-0.004537890,0.003793300,0.015178840,0.999867300,-0.008960000,0.007723000,0.030325000,0.000002855,0.000029274,-0.000299806,0.006564237,0.005999169,0.002885681,0.010451052,-0.002679396,0.999097418,0.001428484,0.000030928,-0.000207374,0.000000000,0.000000000,0.000000000,0.000000000,0.016287287,0.008634543,0.053946680,0.014691347,0.003040904,0.001748845,0.004961095,0.001497799,-0.001034388,-0.203094800,0.328210663,1.225239056,-0.001741601,-0.002882959,0.010686878,0.999936223,0.000000000,0.000000000,0.000000000,0.000000000,0.000000000,0.000000000,1.225535657,0.000000000,4.185924053
1772421497.588178873,0.016012000,0.008578000,0.053912000,-0.004520870,0.003836790,0.015113640,0.999868200,-0.008925000,0.007809000,0.030194000,0.000045940,0.000121970,-0.000265735,0.003134173,0.005038864,-0.001034637,0.009342215,-0.003125490,1.002536773,0.003794472,0.000370334,-0.000425556,0.000000000,0.000000000,0.000000000,0.000000000,0.016291466,0.008637121,0.053947467,0.014810244,0.003129171,0.001605671,0.003956156,0.000170088,0.001807967,-0.203153651,0.327365547,1.224701702,-0.001742207,-0.002875582,0.010682200,0.999936432,0.000000000,0.000000000,0.000000000,0.000000000,0.000000000,0.000000000,1.225281250,0.000000000,4.185924053
1772421497.598178625,0.016012000,0.008581000,0.053908000,-0.004462140,0.003796230,0.015119970,0.999868520,-0.008809000,0.007726000,0.030208000,-0.000018901,0.000222164,-0.000008605,-0.000550027,0.004619363,-0.003125722,0.011380875,-0.003720907,1.002159424,-0.000393043,-0.005403545,0.002265040,0.000000000,0.000000000,0.000000000,0.000000000,0.016295612,0.008637070,0.053947763,0.014838723,0.003126477,0.001764653,0.005252033,-0.000120839,0.002396996,-0.202453816,0.326071775,1.222306502,-0.001736281,-0.002864191,0.010661337,0.999936642,0.000000000,0.000000000,0.000000000,0.000000000,0.000000000,0.000000000,1.222677575,0.000000000,4.185924053
1772421497.608178616,0.016005000,0.008574000,0.053912000,-0.004508570,0.003926410,0.015099210,0.999868130,-0.008898000,0.007988000,0.030165000,0.000040754,0.000168823,0.000089627,-0.001883341,0.002404672,-0.004215647,0.010563261,-0.003050908,0.998556322,-0.003936395,0.001962707,0.002412446,0.000000000,0.000000000,0.000000000,0.000000000,0.016298961,0.008635273,0.053948671,0.015041893,0.003049678,0.001905677,0.004958799,0.000484610,-0.000771732,-0.201953895,0.326476862,1.221183245,-0.001731909,-0.002867662,0.010651541,0.999936766,0.000000000,0.000000000,0.000000000,0.000000000,0.000000000,0.000000000,1.221274644,0.000000000,4.185924053
1772421497.618178606,0.016000000,0.008582000,0.053919000,-0.004540320,0.004000650,0.015096180,0.999867730,-0.008959000,0.008137000,0.030158000,0.000027448,-0.000037782,0.000092366,-0.002270457,-0.002114253,-0.002675253,0.010119581,-0.003550405,0.998520703,-0.002670300,0.000891071,0.001783719,0.000000000,0.000000000,0.000000000,0.000000000,0.016299814,0.008634959,0.053947986,0.015085587,0.003037032,0.001849640,0.004366872,0.000184001,-0.001294966,-0.202023412,0.327127630,1.220759892,-0.001732466,-0.002873341,0.010647836,0.999936805,0.000000000,0.000000000,0.000000000,0.000000000,0.000000000,0.000000000,1.220876705,0.000000000,4.185924053
1772421497.628178835,0.016014000,0.008575000,0.053914000,-0.004584560,0.003879050,0.015051170,0.999868690,-0.009052000,0.007895000,0.030068000,0.000070571,-0.000214977,0.000040715,-0.001243261,-0.005238753,-0.000572279,0.009675891,-0.004049915,0.998485083,-0.001404174,-0.000180591,0.001154977,0.000000000,0.000000000,0.000000000,0.000000000,0.016300507,0.008634757,0.053947229,0.015117512,0.003029035,0.001785638,0.003996990,-0.000353647,-0.001342514,-0.202092929,0.327778415,1.220336528,-0.001733023,-0.002879019,0.010644131,0.999936844,0.000000000,0.000000000,0.000000000,0.000000000,0.000000000,0.000000000,1.220478757,0.000000000,4.185924053
1772421497.638178825,0.016009000,0.008576000,0.053917000,-0.004530910,0.003778020,0.015075520,0.999868950,-0.008947000,0.007692000,0.030118000,0.000144406,-0.000127001,-0.000137471,0.000671655,-0.004611832,-0.000908075,0.009232211,-0.004549413,0.998449463,-0.000138079,-0.001252228,0.000526250,0.000000000,0.000000000,0.000000000,0.000000000,0.016301199,0.008634554,0.053946473,0.015149437,0.003021038,0.001721638,0.003627117,-0.000891283,-0.001390060,-0.202329795,0.327116315,1.219395828,-0.001735175,-0.002873250,0.010635926,0.999936893,0.000000000,0.000000000,0.000000000,0.000000000,0.000000000,0.000000000,1.219834583,0.000000000,4.185924053
1772421497.648178339,0.016012000,0.008573000,0.053914000,-0.004493300,0.003769290,0.015076070,0.999869150,-0.008872000,0.007673000,0.030120000,0.000104429,-0.000106002,-0.000146135,0.002912900,-0.008095199,-0.000704040,0.007243556,-0.003012697,0.999550354,-0.000985233,0.005952700,-0.001628314,0.000000000,0.000000000,0.000000000,0.000000000,0.016302356,0.008632078,0.053943119,0.015102257,0.002859667,0.001511453,0.001310248,0.000548375,-0.000491330,-0.201759974,0.326283932,1.217869696,-0.001730318,-0.002865910,0.010622635,0.999937075,0.000000000,0.000000000,0.000000000,0.000000000,0.000000000,0.000000000,1.218229364,0.000000000,4.185924053
1772421497.658179045,0.016010000,0.008574000,0.053910000,-0.004527960,0.003770860,0.015081440,0.999868910,-0.008941000,0.007677000,0.030130000,-0.000104565,-0.000122572,0.000062121,0.001600732,-0.008751629,-0.001725805,0.007726857,-0.001885164,1.000265101,0.000387354,0.000712284,0.000390020,0.000000000,0.000000000,0.000000000,0.000000000,0.016299145,0.008631136,0.053944290,0.014868347,0.002839723,0.001426605,0.001924840,0.001762848,-0.000237437,-0.201722205,0.324711611,1.216427774,-0.001730170,-0.002852165,0.010610078,0.999937258,0.000000000,0.000000000,0.000000000,0.000000000,0.000000000,0.000000000,1.216777103,0.000000000,4.185924053
1772421497.668178320,0.016010000,0.008572000,0.053909000,-0.004515900,0.003846650,0.015052200,0.999869110,-0.008915000,0.007828000,0.030071000,-0.000321193,0.000122514,0.000276768,-0.001605161,-0.009292915,-0.002492680,0.009160425,-0.002195732,1.001715941,0.001786242,-0.001099619,-0.000243201,0.000000000,0.000000000,0.000000000,0.000000000,0.016295816,0.008630706,0.053947522,0.014692712,0.002940940,0.001402512,0.003018657,0.001105332,0.001654357,-0.201529363,0.323886274,1.215274130,-0.001728592,-0.002844927,0.010600028,0.999937333,0.000000000,0.000000000,0.000000000,0.000000000,0.000000000,0.000000000,1.215551237,0.000000000,4.185924053
1772421497.678178072,0.016006000,0.008574000,0.053917000,-0.004514770,0.003726130,0.015037740,0.999869790,-0.008917000,0.007587000,0.030043000,-0.000229546,0.000162937,0.000338112,-0.004809620,-0.011377158,-0.003320393,0.009748513,-0.001160765,1.001651107,0.002482968,-0.001466362,0.001644004,0.000000000,0.000000000,0.000000000,0.000000000,0.016289105,0.008633820,0.053951030,0.014594394,0.003038818,0.001518799,0.003726973,0.002214872,0.001738910,-0.200968765,0.323476261,1.214508652,-0.001723758,-0.002841286,0.010593370,0.999937415,0.000000000,0.000000000,0.000000000,0.000000000,0.000000000,0.000000000,1.214648463,0.000000000,4.185924053
1772421497.688177586,0.016005000,0.008574000,0.053924000,-0.004537970,0.003528200,0.015025870,0.999870580,-0.008969000,0.007192000,0.030021000,-0.000195396,0.000187704,0.000275330,-0.003872546,-0.008882704,-0.001388596,0.010711833,-0.002546716,0.999700969,-0.004374134,0.002992984,0.001633332,0.000000000,0.000000000,0.000000000,0.000000000,0.016285374,0.008640420,0.053951058,0.014568181,0.003202220,0.001618955,0.005212086,0.001356333,-0.000149514,-0.199845686,0.324426293,1.213955312,-0.001713883,-0.002849464,0.010588554,0.999937432,0.000000000,0.000000000,0.000000000,0.000000000,0.000000000,0.000000000,1.214090685,0.000000000,4.185924053
1772421497.698177099,0.015999000,0.008578000,0.053926000,-0.004587750,0.003548760,0.015010250,0.999870520,-0.009068000,0.007234000,0.029989000,-0.000035023,0.000139938,0.000001535,-0.005144134,-0.001476453,-0.000032360,0.009672918,-0.002945128,1.000135285,0.000367334,-0.000564943,0.000413897,0.000000000,0.000000000,0.000000000,0.000000000,0.016288207,0.008640079,0.053949158,0.014681387,0.003262654,0.001537499,0.003651750,0.000805400,-0.000045230,-0.200693214,0.323620901,1.213701659,-0.001721360,-0.002842511,0.010586333,0.999937495,0.000000000,0.000000000,0.000000000,0.000000000,0.000000000,0.000000000,1.213732515,0.000000000,4.185924053
1772421497.708177090,0.015999000,0.008585000,0.053921000,-0.004615760,0.003600100,0.015028410,0.999869930,-0.009122000,0.007338000,0.030025000,0.000001865,0.000089258,-0.000292794,-0.004880663,0.007791445,0.001924390,0.011900215,-0.003154340,1.001731858,0.000976605,-0.000496240,0.003627721,0.000000000,0.000000000,0.000000000,0.000000000,0.016289318,0.008640930,0.053944083,0.014708396,0.003295798,0.001462214,0.006383277,0.000317831,0.002093435,-0.201038542,0.323094392,1.213157451,-0.001724435,-0.002837940,0.010581584,0.999937490,0.000000000,0.000000000,0.000000000,0.000000000,0.000000000,0.000000000,1.213313525,0.000000000,4.185924053
1772421497.718177557,0.016007000,0.008576000,0.053918000,-0.004607050,0.003672630,0.015040560,0.999869530,-0.009103000,0.007483000,0.030049000,0.000117211,-0.000109072,-0.000332401,-0.003023577,0.008179458,0.002223627,0.010877694,-0.003130834,1.001196807,-0.000517718,0.002943322,0.002572220,0.000000000,0.000000000,0.000000000,0.000000000,0.016290962,0.008641112,0.053941756,0.014937733,0.003270729,0.001576690,0.005862337,0.000699831,0.001350626,-0.200099966,0.323585870,1.213744587,-0.001716185,-0.002842151,0.010586723,0.999937437,0.000000000,0.000000000,0.000000000,0.000000000,0.000000000,0.000000000,1.213476171,0.000000000,4.185924053
1772421497.728177547,0.016005000,0.008577000,0.053911000,-0.004599370,0.003772670,0.015065960,0.999868810,-0.009084000,0.007683000,0.030099000,0.000036577,-0.000227661,-0.000151690,-0.000327681,0.008186593,0.002251929,0.008360412,-0.003333152,0.999714465,-0.000978448,0.002786263,0.002293775,0.000000000,0.000000000,0.000000000,0.000000000,0.016291491,0.008639678,0.053944569,0.015080551,0.003243563,0.001639631,0.002694943,0.000068666,-0.000347935,-0.199357186,0.322823371,1.213687799,-0.001709775,-0.002835428,0.010586257,0.999937497,0.000000000,0.000000000,0.000000000,0.000000000,0.000000000,0.000000000,1.213810720,0.000000000,4.185924053
1772421497.738177538,0.016005000,0.008577000,0.053910000,-0.004693360,0.003786320,0.015040600,0.999868700,-0.009272000,0.007713000,0.030047000,-0.000001496,-0.000133295,0.000141356,0.000518709,0.010020942,-0.000969468,0.009404532,-0.003262723,1.000359628,-0.000077068,0.000556073,0.001527489,0.000000000,0.000000000,0.000000000,0.000000000,0.016294171,0.008636756,0.053950034,0.015003359,0.003185535,0.001586203,0.002997018,0.000362526,0.000587566,-0.199752194,0.321395942,1.213871015,-0.001713350,-0.002823011,0.010587868,0.999937514,0.000000000,0.000000000,0.000000000,0.000000000,0.000000000,0.000000000,1.213772618,0.000000000,4.185924053
1772421497.748178005,0.016000000,0.008575000,0.053916000,-0.004595470,0.003767790,0.015068310,0.999868810,-0.009077000,0.007673000,0.030103000,-0.000155983,0.000161694,0.000265851,0.001549335,0.015443937,-0.001938958,0.011146301,-0.003225422,1.000098238,0.002901917,-0.000545960,-0.000480128,0.000000000,0.000000000,0.000000000,0.000000000,0.016290790,0.008639287,0.053951664,0.014945278,0.003148383,0.001603630,0.005537911,0.000158678,0.000058494,-0.200066639,0.320660350,1.214313499,-0.001716151,-0.002816628,0.010591733,0.999937492,0.000000000,0.000000000,0.000000000,0.000000000,0.000000000,0.000000000,1.214190350,0.000000000,4.185924053
1772421497.758177996,0.016006000,0.008570000,0.053925000,-0.004616470,0.003669540,0.015035910,0.999869560,-0.009122000,0.007477000,0.030039000,-0.000125544,0.000262141,0.000301243,0.000538037,0.021018810,-0.001691469,0.010010263,-0.001021795,0.999974510,0.003589138,0.002855834,0.000128802,0.000000000,0.000000000,0.000000000,0.000000000,0.016292826,0.008644504,0.053952440,0.015082987,0.003134527,0.001559742,0.004188472,0.002580076,-0.000179862,-0.198916611,0.321040216,1.213967101,-0.001706089,-0.002819831,0.010588733,0.999937573,0.000000000,0.000000000,0.000000000,0.000000000,0.000000000,0.000000000,1.214141945,0.000000000,4.185924053
1772421497.768178701,0.015997000,0.008579000,0.053923000,-0.004609190,0.004085960,0.015025120,0.999868140,-0.009095000,0.008309000,0.030014000,0.000029371,0.000083547,0.000205711,-0.001866094,0.015475199,-0.002333221,0.011526437,-0.000464977,1.000999188,-0.000404082,-0.005271802,-0.003700642,0.000000000,0.000000000,0.000000000,0.000000000,0.016292572,0.008645951,0.053949721,0.015102743,0.003309458,0.001459632,0.005536767,0.002789185,0.001039380,-0.197870741,0.320334997,1.213294940,-0.001697044,-0.002813571,0.010582904,0.999937667,0.000000000,0.000000000,0.000000000,0.000000000,0.000000000,0.000000000,1.213459520,0.000000000,4.185924053
1772421497.778179169,0.016004000,0.008588000,0.053924000,-0.004648670,0.004177470,0.014959380,0.999868570,-0.009172000,0.008493000,0.029882000,0.000208800,-0.000156391,-0.000085043,-0.004054656,0.009532677,-0.003686380,0.011786606,-0.002162653,1.000507563,0.001758252,0.001526072,0.000140810,0.000000000,0.000000000,0.000000000,0.000000000,0.016297664,0.008640893,0.053950237,0.015268840,0.003485334,0.001482110,0.005995218,0.001637186,0.000821668,-0.197527407,0.320416607,1.212380986,-0.001694063,-0.002814238,0.010574936,0.999937724,0.000000000,0.000000000,0.000000000,0.000000000,0.000000000,0.000000000,1.212701555,0.000000000,4.185924053
1772421497.788179874,0.016000000,0.008584000,0.053918000,-0.004629220,0.004135970,0.015052080,0.999867440,-0.009133000,0.008410000,0.030067000,0.000209441,-0.000306818,-0.000178866,-0.007050474,-0.002672305,-0.004179508,0.009247551,-0.004087650,1.000392483,-0.001507575,0.003931429,-0.000576640,0.000000000,0.000000000,0.000000000,0.000000000,0.016301872,0.008638203,0.053948561,0.015423723,0.003541872,0.001478204,0.004239624,-0.000107254,0.000356103,-0.197160296,0.321686601,1.211339752,-0.001690768,-0.002825271,0.010565840,0.999937825,0.000000000,0.000000000,0.000000000,0.000000000,0.000000000,0.000000000,1.211573884,0.000000000,4.185924053
1772421497.798180103,0.016009000,0.008567000,0.053923000,-0.004727670,0.004053070,0.014989320,0.999868260,-0.009333000,0.008247000,0.029942000,0.000083003,-0.000241453,-0.000207421,-0.005618359,-0.012164669,-0.002682472,0.008934864,-0.003542534,0.998695006,0.000010357,0.003706107,-0.000457972,0.000000000,0.000000000,0.000000000,0.000000000,0.016305485,0.008636376,0.053945709,0.015427214,0.003470287,0.001437166,0.003215605,-0.000404866,-0.000843028,-0.196645909,0.321486288,1.210428899,-0.001686321,-0.002823462,0.010557908,0.999937932,0.000000000,0.000000000,0.000000000,0.000000000,0.000000000,0.000000000,1.210769535,0.000000000,4.185924053
1772421497.808180332,0.016009000,0.008566000,0.053917000,-0.004744020,0.003783740,0.014928400,0.999870150,-0.009374000,0.007708000,0.029822000,0.000102389,-0.000239996,0.000006002,-0.003332025,-0.016744164,-0.003697226,0.009475462,-0.003493485,0.997875450,0.002192557,0.000623020,0.003417322,0.000000000,0.000000000,0.000000000,0.000000000,0.016303784,0.008638085,0.053945502,0.015332302,0.003389847,0.001285635,0.003830460,0.000182474,-0.001996916,-0.197672197,0.320100603,1.209081526,-0.001695437,-0.002811445,0.010546145,0.999938107,0.000000000,0.000000000,0.000000000,0.000000000,0.000000000,0.000000000,1.209288001,0.000000000,4.185924053
1772421497.818180323,0.016011000,0.008566000,0.053914000,-0.004717150,0.003950720,0.014917720,0.999869790,-0.009316000,0.008041000,0.029800000,-0.000155964,0.000072009,0.000018920,0.000978186,-0.007280791,-0.001979203,0.010558459,-0.001775121,0.999533913,0.001240268,-0.000047032,0.001722400,0.000000000,0.000000000,0.000000000,0.000000000,0.016300719,0.008641973,0.053943883,0.015297105,0.003355215,0.001076420,0.004707595,0.001417784,-0.000996931,-0.197572850,0.318114214,1.208677958,-0.001694763,-0.002794096,0.010542657,0.999938087,0.000000000,0.000000000,0.000000000,0.000000000,0.000000000,0.000000000,1.208654279,0.000000000,4.185924053
1772421497.828180313,0.015999000,0.008577000,0.053923000,-0.004730920,0.003843340,0.014964510,0.999869450,-0.009346000,0.007827000,0.029894000,-0.000207285,0.000227700,0.000064394,0.002548096,0.004249720,-0.001471272,0.010214161,-0.001725685,0.999781275,-0.001199447,-0.003543781,0.000793622,0.000000000,0.000000000,0.000000000,0.000000000,0.016300923,0.008642093,0.053942459,0.015365994,0.003427752,0.000948430,0.004808080,0.002204870,0.000105712,-0.196424550,0.317580154,1.208951543,-0.001684785,-0.002789334,0.010545080,0.999938169,0.000000000,0.000000000,0.000000000,0.000000000,0.000000000,0.000000000,1.209104593,0.000000000,4.185924053
1772421497.838180304,0.016002000,0.008582000,0.053917000,-0.004705770,0.003969540,0.014951650,0.999869260,-0.009292000,0.008079000,0.029867000,-0.000262801,0.000215560,-0.000003497,0.003333780,0.011388435,0.001720866,0.009435625,-0.002610494,1.001610778,-0.004810359,0.002588618,0.001477480,0.000000000,0.000000000,0.000000000,0.000000000,0.016298363,0.008643493,0.053938565,0.015406795,0.003555358,0.000886189,0.004043194,0.000873951,0.000864108,-0.196230318,0.316481361,1.207513040,-0.001683226,-0.002779707,0.010532549,0.999938308,0.000000000,0.000000000,0.000000000,0.000000000,0.000000000,0.000000000,1.207793228,0.000000000,4.185924053
1772421497.848180771,0.016006000,0.008570000,0.053926000,-0.004659660,0.003955730,0.014909610,0.999870160,-0.009201000,0.008049000,0.029784000,-0.000087918,0.000015540,0.000059732,0.001515915,0.013993806,0.003059957,0.010951329,-0.002573073,1.000000818,-0.000064910,-0.002387107,-0.001657942,0.000000000,0.000000000,0.000000000,0.000000000,0.016299220,0.008642170,0.053937271,0.015405920,0.003554938,0.000969014,0.005252706,0.001131668,0.000325007,-0.196843876,0.315894259,1.206520851,-0.001688658,-0.002774626,0.010523885,0.999938432,0.000000000,0.000000000,0.000000000,0.000000000,0.000000000,0.000000000,1.206643119,0.000000000,4.185924053
1772421497.858181238,0.015994000,0.008579000,0.053914000,-0.004661720,0.004023790,0.015000810,0.999868520,-0.009202000,0.008186000,0.029966000,0.000044250,-0.000012937,-0.000037685,0.000760710,0.006821806,0.004209584,0.012250318,-0.001788004,1.000697584,-0.001489289,0.004991490,-0.002741002,0.000000000,0.000000000,0.000000000,0.000000000,0.016300831,0.008644066,0.053936544,0.015532705,0.003585942,0.000958654,0.006370016,0.001711213,0.000557846,-0.197485785,0.315039749,1.205890797,-0.001694354,-0.002767219,0.010518386,0.999938496,0.000000000,0.000000000,0.000000000,0.000000000,0.000000000,0.000000000,1.206127970,0.000000000,4.185924053
