t,px,py,pz,qx,qy,qz,qw,roll,pitch,yaw,vx,vy,vz,wx_vicon,wy_vicon,wz_vicon,imu_acc_x,imu_acc_y,imu_acc_z,imu_gyro_x,imu_gyro_y,imu_gyro_z,motor_motor_m1,motor_motor_m2,motor_motor_m3,motor_motor_m4,est_stateEstimate_x,est_stateEstimate_y,est_stateEstimate_z,est_stateEstimate_vx,est_stateEstimate_vy,est_stateEstimate_vz,est_stateEstimate_ax,est_stateEstimate_ay,est_stateEstimate_az,att_stateEstimate_roll,att_stateEstimate_pitch,att_stateEstimate_yaw,att_stateEstimate_qx,att_stateEstimate_qy,att_stateEstimate_qz,att_stateEstimate_qw,sp_ctrltarget_x,sp_ctrltarget_y,sp_ctrltarget_z,sp_ctrltarget_yaw,pid_controller_roll,pid_controller_pitch,pid_controller_yaw,pid_controller_cmd_thrust,pwr_pm_vbat
1772683563.672609091,0.014026000,0.008314000,0.054571000,-0.014504990,-0.022773410,-0.007888340,-0.999604300,0.029392000,0.045315000,0.016449000,0.000332265,0.018688848,-0.017566839,0.545913391,-0.771970779,-0.029401077,0.013250465,0.002324620,1.001352787,-0.001449113,0.000401271,-0.000608132,0.000000000,0.000000000,0.000000000,0.000000000,0.014948799,0.007898686,0.054603924,0.048393305,-0.020293415,0.000925337,0.013865536,-0.006330503,0.000511664,0.509908373,-0.035889915,0.655803308,0.004447906,0.000338656,0.005721477,0.999972703,0.000000000,0.000000000,0.000000000,0.000000000,0.000000000,0.000000000,0.579372585,0.000000000,4.017008781
1772683563.682609081,0.014051000,0.008453000,0.054410000,-0.016377170,-0.020145880,-0.007815530,-0.999632360,0.033090000,0.040032000,0.016299000,-0.000228225,0.003910046,-0.003573935,0.173017049,-0.228729662,-0.013218045,0.013079673,0.002999219,1.000217722,0.002084268,-0.000434621,-0.000254090,0.000000000,0.000000000,0.000000000,0.000000000,0.014950992,0.007894092,0.054602176,0.048420228,-0.020343956,0.000920772,0.013522592,-0.005840003,-0.000418881,0.508683895,-0.037247130,0.655732909,0.004437153,0.000350436,0.005720814,0.999972757,0.000000000,0.000000000,0.000000000,0.000000000,0.000000000,0.000000000,0.579372585,0.000000000,4.017008781
1772683563.692609549,0.014020000,0.008324000,0.054564000,-0.015523850,-0.021614980,-0.007830630,-0.999615170,0.031408000,0.042983000,0.016342000,-0.000440346,-0.003730404,0.003625489,-0.044817686,0.085605913,-0.002849215,0.014055775,0.003702521,1.000917439,-0.001183653,-0.000662568,0.001504335,0.000000000,0.000000000,0.000000000,0.000000000,0.014954899,0.007889914,0.054606783,0.048456716,-0.020332999,0.000903977,0.014147153,-0.005063384,0.001023314,0.508388355,-0.037740668,0.654984826,0.004434551,0.000354699,0.005714266,0.999972761,0.000000000,0.000000000,0.000000000,0.000000000,0.000000000,0.000000000,0.579372585,0.000000000,4.017008781
1772683563.702609301,0.014021000,0.008453000,0.054445000,-0.016647150,-0.019916200,-0.007542750,-0.999634600,0.033615000,0.039577000,0.015756000,-0.000402700,-0.005970266,0.005694372,-0.140967146,0.220285601,0.002756319,0.012586746,0.003158722,1.002488294,-0.000158481,0.001928461,-0.000444306,0.000000000,0.000000000,0.000000000,0.000000000,0.014958613,0.007887838,0.054612677,0.048518145,-0.020259380,0.001004688,0.013186400,-0.005662730,0.002532799,0.509131892,-0.037213166,0.654851203,0.004441067,0.000350128,0.005713118,0.999972761,0.000000000,0.000000000,0.000000000,0.000000000,0.000000000,0.000000000,0.579372585,0.000000000,4.017008781
1772683563.712609291,0.014025000,0.008307000,0.054568000,-0.015512060,-0.021723000,-0.007742490,-0.999613700,0.031383000,0.043202000,0.016169000,-0.000213889,-0.004547304,0.004295653,-0.148517095,0.224750721,0.004762573,0.011729716,0.002218664,1.001838015,0.001681954,0.000636115,-0.000812700,0.000000000,0.000000000,0.000000000,0.000000000,0.014964513,0.007889083,0.054614531,0.048517390,-0.020227557,0.001176092,0.012697771,-0.006836310,0.001785267,0.510236619,-0.035631364,0.654568522,0.004450787,0.000336369,0.005710710,0.999972761,0.000000000,0.000000000,0.000000000,0.000000000,0.000000000,0.000000000,0.579372585,0.000000000,4.017008781
1772683563.722608805,0.014013000,0.008274000,0.054608000,-0.014513600,-0.023184310,-0.007893130,-0.999594690,0.029417000,0.046137000,0.016471000,0.000027486,-0.001199282,0.001092270,-0.100782543,0.148291493,0.004287584,0.013751245,0.001577220,0.999034052,0.004074915,-0.001435850,-0.001934003,0.000000000,0.000000000,0.000000000,0.000000000,0.014968944,0.007918237,0.054588136,0.048461939,-0.020183537,0.001158443,0.013674434,-0.006318939,0.000019538,0.509856275,-0.034904421,0.654070256,0.004447505,0.000329987,0.005706391,0.999972761,0.000000000,0.000000000,0.000000000,0.000000000,0.000000000,0.000000000,0.579372585,0.000000000,4.017008781
1772683563.732608080,0.014025000,0.008269000,0.054604000,-0.013870860,-0.023981780,-0.007901490,-0.999584930,0.028145000,0.047743000,0.016481000,0.000246076,0.000835859,-0.001042950,-0.047593048,0.062445154,0.004692683,0.013409745,0.001824817,0.999009348,0.002348356,0.000692604,-0.004201296,0.000000000,0.000000000,0.000000000,0.000000000,0.014965564,0.007988766,0.054524339,0.048410164,-0.020002852,0.000851175,0.015082266,-0.006590550,-0.001170362,0.509840020,-0.034204368,0.653164825,0.004447400,0.000323842,0.005698517,0.999972789,0.000000000,0.000000000,0.000000000,0.000000000,0.000000000,0.000000000,0.579372585,0.000000000,4.017008781
1772683563.742607832,0.014038000,0.008280000,0.054581000,-0.013616550,-0.024466460,-0.008028660,-0.999575670,0.027651000,0.048713000,0.016737000,0.000035276,0.000419017,-0.000249359,-0.031007027,0.038593345,0.002115527,0.013982710,0.002585891,1.000863721,0.000696675,-0.001771448,-0.001141445,0.000000000,0.000000000,0.000000000,0.000000000,0.014962158,0.007963080,0.054539568,0.048478231,-0.020208658,0.000762089,0.014495946,-0.006515418,0.000599863,0.510184055,-0.034549853,0.652024624,0.004450389,0.000326829,0.005688553,0.999972846,0.000000000,0.000000000,0.000000000,0.000000000,0.000000000,0.000000000,0.579372585,0.000000000,4.017008781
1772683563.752607822,0.014027000,0.008447000,0.054449000,-0.015083320,-0.022143700,-0.007674490,-0.999611550,0.030529000,0.044053000,0.016027000,-0.000149961,0.001171407,-0.000601069,0.003768725,-0.017159528,-0.003731165,0.013723691,0.004603867,1.001141190,-0.000863674,-0.001136868,-0.001952808,0.000000000,0.000000000,0.000000000,0.000000000,0.014953647,0.008015550,0.054496941,0.048456241,-0.020121860,0.000604729,0.014668370,-0.004343997,0.001146593,0.510198627,-0.034067735,0.651336004,0.004450542,0.000322596,0.005682563,0.999972880,0.000000000,0.000000000,0.000000000,0.000000000,0.000000000,0.000000000,0.579372585,0.000000000,4.017008781
1772683563.762607813,0.014011000,0.008321000,0.054569000,-0.014478440,-0.023088030,-0.007883850,-0.999597500,0.029344000,0.045945000,0.016448000,-0.000224204,-0.000628283,0.001141998,-0.015898834,0.018218274,-0.002441779,0.012933810,0.005346736,1.001463058,-0.001267860,0.001676633,0.000287171,0.000000000,0.000000000,0.000000000,0.000000000,0.014953542,0.007972062,0.054543062,0.048512824,-0.020153251,0.000892078,0.013593463,-0.002475356,0.001188678,0.509674112,-0.032920722,0.651389273,0.004446021,0.000312563,0.005683073,0.999972906,0.000000000,0.000000000,0.000000000,0.000000000,0.000000000,0.000000000,0.579372585,0.000000000,4.017008781
1772683563.772607565,0.014023000,0.008281000,0.054599000,-0.013897640,-0.023807130,-0.007896970,-0.999588770,0.028195000,0.047393000,0.016468000,-0.000430284,-0.001671486,0.001864201,-0.046287502,0.064883924,0.006217052,0.012527583,0.005325205,1.002118590,-0.001312390,0.002654752,0.002230429,0.000000000,0.000000000,0.000000000,0.000000000,0.014964042,0.008008942,0.054508979,0.048459822,-0.019777328,0.000838347,0.013347931,-0.004096520,0.001800655,0.509384534,-0.032966577,0.651158353,0.004443493,0.000312940,0.005681057,0.999972939,0.000000000,0.000000000,0.000000000,0.000000000,0.000000000,0.000000000,0.579372585,0.000000000,4.017008781
1772683563.782607079,0.014022000,0.008274000,0.054617000,-0.013447920,-0.024571200,-0.007930290,-0.999576170,0.027310000,0.048928000,0.016535000,-0.000257013,-0.001992076,0.001628751,-0.065382004,0.100443507,0.007263819,0.012789364,0.005007174,1.001232690,0.000224633,0.004140199,0.001324320,0.000000000,0.000000000,0.000000000,0.000000000,0.014969175,0.007965317,0.054543748,0.048418159,-0.019816125,0.001118259,0.013726520,-0.002939367,0.001452603,0.509065890,-0.033931715,0.650241908,0.004440667,0.000321311,0.005673023,0.999972969,0.000000000,0.000000000,0.000000000,0.000000000,0.000000000,0.000000000,0.579372585,0.000000000,4.016850816
1772683563.792606831,0.014010000,0.008285000,0.054612000,-0.013344260,-0.024611310,-0.007953100,-0.999576390,0.027105000,0.049009000,0.016577000,-0.000005866,-0.001235102,0.000517153,-0.056660623,0.097482091,0.010305659,0.013048983,0.004876276,1.001237943,0.001532070,-0.001281187,0.000035283,0.000000000,0.000000000,0.000000000,0.000000000,0.014975271,0.008021062,0.054497074,0.048373206,-0.019441972,0.001015846,0.013450083,-0.003971728,0.001858249,0.508952229,-0.034248732,0.649207721,0.004439662,0.000324031,0.005663987,0.999973025,0.000000000,0.000000000,0.000000000,0.000000000,0.000000000,0.000000000,0.579372585,0.000000000,4.016361390
1772683563.802606821,0.014018000,0.008291000,0.054587000,-0.013200830,-0.025017790,-0.008014000,-0.999567720,0.026828000,0.049823000,0.016703000,-0.000008392,0.000704721,-0.001085296,-0.015839834,0.030656546,0.002209871,0.012848835,0.004639596,0.999854027,0.001555418,-0.002945435,-0.000661798,0.000000000,0.000000000,0.000000000,0.000000000,0.014969610,0.007979527,0.054541355,0.048318791,-0.019476953,0.001297664,0.013621203,-0.003455438,0.000157492,0.509062588,-0.034365993,0.648103701,0.004440623,0.000325017,0.005654348,0.999973083,0.000000000,0.000000000,0.000000000,0.000000000,0.000000000,0.000000000,0.579372585,0.000000000,4.015871952
1772683563.812607050,0.014011000,0.008286000,0.054574000,-0.013219890,-0.024898360,-0.008162370,-0.999569250,0.026871000,0.049580000,0.016998000,0.000174048,-0.000957907,0.000516978,-0.031524737,0.040621587,0.003391220,0.012583336,0.004327482,0.999958861,-0.000442585,-0.001968453,-0.001515364,0.000000000,0.000000000,0.000000000,0.000000000,0.014973390,0.007941792,0.054573977,0.048336374,-0.019461825,0.001384199,0.012720753,-0.004130259,0.000609212,0.509110817,-0.034405826,0.646983493,0.004441045,0.000325324,0.005644571,0.999973139,0.000000000,0.000000000,0.000000000,0.000000000,0.000000000,0.000000000,0.579372585,0.000000000,4.015382502
1772683563.822606325,0.014020000,0.008279000,0.054590000,-0.013206910,-0.025135000,-0.007930620,-0.999565360,0.026838000,0.050060000,0.016540000,0.000463948,0.000735432,-0.000756508,0.001509607,-0.021032788,-0.002267997,0.012838144,0.003872156,1.001091166,-0.002849811,-0.000493649,0.000165733,0.000000000,0.000000000,0.000000000,0.000000000,0.014960524,0.007924631,0.054595153,0.048248377,-0.019456950,0.001438528,0.013454019,-0.005201692,0.000920500,0.508892566,-0.034321961,0.645906261,0.004439148,0.000324540,0.005635174,0.999973191,0.000000000,0.000000000,0.000000000,0.000000000,0.000000000,0.000000000,0.579372585,0.000000000,4.014893099
1772683563.832606792,0.014022000,0.008278000,0.054598000,-0.013137090,-0.024989130,-0.008067400,-0.999568850,0.026702000,0.049765000,0.016806000,0.000540754,0.001000642,-0.000863579,0.022526545,-0.058077719,-0.008798094,0.013811418,0.003001234,1.002217818,-0.001245491,-0.000223619,-0.001127348,0.000000000,0.000000000,0.000000000,0.000000000,0.014953072,0.007913176,0.054611358,0.048250479,-0.019476586,0.001527883,0.014604025,-0.005543410,0.002391166,0.507646190,-0.035273035,0.645232280,0.004428226,0.000332752,0.005629259,0.999973261,0.000000000,0.000000000,0.000000000,0.000000000,0.000000000,0.000000000,0.579372585,0.000000000,4.014403637
1772683563.842607021,0.014026000,0.008277000,0.054604000,-0.012978310,-0.024845060,-0.007909060,-0.999575780,0.026374000,0.049484000,0.016477000,0.000199845,0.003115349,-0.002668087,0.081052215,-0.144561595,-0.019177260,0.014676314,0.002137621,1.002470975,0.001991511,-0.000702323,-0.004809709,0.000000000,0.000000000,0.000000000,0.000000000,0.014949862,0.007914489,0.054616792,0.048372425,-0.019479592,0.001695315,0.015586308,-0.006859065,0.002615065,0.505877752,-0.036692496,0.645014554,0.004412725,0.000345043,0.005627310,0.999973366,0.000000000,0.000000000,0.000000000,0.000000000,0.000000000,0.000000000,0.579372585,0.000000000,4.013914188
1772683563.852607489,0.014039000,0.008287000,0.054585000,-0.013112500,-0.024574430,-0.007950220,-0.999580390,0.026640000,0.048939000,0.016559000,-0.000185956,0.002705869,-0.002328887,0.099023749,-0.153940558,-0.024505240,0.014535335,0.002166228,1.001207714,0.000589148,-0.000161371,-0.002543623,0.000000000,0.000000000,0.000000000,0.000000000,0.014944823,0.007923098,0.054620113,0.048553074,-0.019560349,0.001832974,0.015103796,-0.006646312,0.001472062,0.505808371,-0.036539601,0.643925795,0.004412130,0.000343664,0.005617816,0.999973418,0.000000000,0.000000000,0.000000000,0.000000000,0.000000000,0.000000000,0.579372585,0.000000000,4.013424726
1772683563.862607479,0.014026000,0.008473000,0.054423000,-0.015259650,-0.021616700,-0.007603450,-0.999620950,0.030870000,0.042998000,0.015876000,-0.000390579,0.003253694,-0.002812066,0.128606470,-0.196036136,-0.025916599,0.013911590,0.003003105,1.000343508,-0.001833771,-0.002212537,-0.000492912,0.000000000,0.000000000,0.000000000,0.000000000,0.014945960,0.007921684,0.054623435,0.048712205,-0.019634436,0.001883995,0.014354444,-0.005481847,0.000134952,0.506146791,-0.035548861,0.643089107,0.004415135,0.000335003,0.005610552,0.999973468,0.000000000,0.000000000,0.000000000,0.000000000,0.000000000,0.000000000,0.579372585,0.000000000,4.012935288
1772683563.872607708,0.014023000,0.008322000,0.054543000,-0.014668530,-0.022446610,-0.007523540,-0.999612110,0.029697000,0.044670000,0.015716000,-0.000300583,0.001005867,-0.000817522,0.101077489,-0.149177608,-0.022597840,0.013923559,0.003411726,0.998794671,-0.001849199,-0.001296765,0.000775927,0.000000000,0.000000000,0.000000000,0.000000000,0.014955484,0.007912195,0.054627067,0.048860276,-0.019659608,0.001827729,0.014460754,-0.005164392,-0.000952642,0.504353328,-0.034901462,0.640929939,0.004399522,0.000329182,0.005591740,0.999973620,0.000000000,0.000000000,0.000000000,0.000000000,0.000000000,0.000000000,0.579372585,0.000000000,4.012445838
1772683563.882607937,0.014009000,0.008461000,0.054439000,-0.016037850,-0.020544850,-0.007272650,-0.999633840,0.032395000,0.040853000,0.015212000,0.000110179,0.000610529,-0.000509752,0.086440712,-0.133934987,-0.004246761,0.013478083,0.003074548,0.999228683,-0.001410949,-0.001789604,-0.001943516,0.000000000,0.000000000,0.000000000,0.000000000,0.014966621,0.007937289,0.054598846,0.048989874,-0.019550188,0.001549433,0.014339342,-0.005564069,-0.001248101,0.503698059,-0.034502598,0.639741144,0.004393826,0.000325624,0.005581383,0.999973702,0.000000000,0.000000000,0.000000000,0.000000000,0.000000000,0.000000000,0.579372585,0.000000000,4.011956388
1772683563.892607927,0.014015000,0.008315000,0.054577000,-0.015102780,-0.021894320,-0.007408230,-0.999618760,0.030552000,0.043562000,0.015487000,0.000358703,-0.000303400,0.000348990,0.051195804,-0.088217154,0.005348574,0.012856477,0.002861295,0.999002469,-0.002247651,0.001820097,0.000808705,0.000000000,0.000000000,0.000000000,0.000000000,0.014973334,0.008008466,0.054528950,0.049036114,-0.019333087,0.001089788,0.013357475,-0.005832998,-0.000661676,0.503636303,-0.034170102,0.638999613,0.004393306,0.000322691,0.005574925,0.999973756,0.000000000,0.000000000,0.000000000,0.000000000,0.000000000,0.000000000,0.579372585,0.000000000,4.012002601
1772683563.902607918,0.014036000,0.008445000,0.054451000,-0.016339190,-0.019593670,-0.007378560,-0.999647280,0.032987000,0.038942000,0.015404000,0.000825991,-0.001155188,0.000825564,0.016153516,-0.028436073,0.016333124,0.012236370,0.003977430,0.999637726,-0.001245359,-0.000490354,0.001619383,0.000000000,0.000000000,0.000000000,0.000000000,0.014976287,0.008037924,0.054498172,0.048974580,-0.019295702,0.000819047,0.013197650,-0.004339529,-0.001367459,0.502806914,-0.034512633,0.638574426,0.004386053,0.000325624,0.005571203,0.999973812,0.000000000,0.000000000,0.000000000,0.000000000,0.000000000,0.000000000,0.579372585,0.000000000,4.012509076
1772683563.912607670,0.014037000,0.008299000,0.054565000,-0.015329940,-0.021365290,-0.007682150,-0.999624680,0.031010000,0.042492000,0.016029000,0.000542697,-0.000803245,0.000399573,-0.002312001,0.017660606,0.020460823,0.012779824,0.003433047,1.000828445,0.003541344,-0.003266871,0.001828682,0.000000000,0.000000000,0.000000000,0.000000000,0.014973057,0.007983707,0.054541389,0.048899926,-0.019455988,0.000870209,0.013296544,-0.005355524,0.001101006,0.501884112,-0.033940967,0.638949344,0.004378028,0.000320604,0.005574499,0.999973834,0.000000000,0.000000000,0.000000000,0.000000000,0.000000000,0.000000000,0.579372585,0.000000000,4.013015538
1772683563.922608376,0.014047000,0.008460000,0.054429000,-0.016698770,-0.019420580,-0.007697700,-0.999642300,0.033716000,0.038580000,0.016051000,0.000043512,-0.002717971,0.002043805,-0.062580423,0.121935332,0.019891696,0.012302565,0.003107872,1.001088324,0.004138765,0.004037434,0.000708974,0.000000000,0.000000000,0.000000000,0.000000000,0.014963439,0.007944188,0.054575871,0.048832463,-0.019594327,0.001064044,0.013289868,-0.005325413,0.001408294,0.501475372,-0.032839408,0.639531974,0.004374512,0.000310994,0.005579627,0.999973796,0.000000000,0.000000000,0.000000000,0.000000000,0.000000000,0.000000000,0.579372585,0.000000000,4.013522049
1772683563.932608604,0.014029000,0.008320000,0.054559000,-0.015463550,-0.021472550,-0.007594800,-0.999620990,0.031275000,0.042707000,0.015863000,-0.000503147,-0.002196700,0.001872379,-0.094277746,0.175954475,0.013538362,0.013128112,0.004368854,1.001046926,0.001031404,0.003174583,0.001683138,0.000000000,0.000000000,0.000000000,0.000000000,0.014959997,0.007925201,0.054596456,0.048812559,-0.019660265,0.001207142,0.013701742,-0.004372609,0.001015906,0.501402890,-0.033003964,0.639220064,0.004373873,0.000312415,0.005576899,0.999973805,0.000000000,0.000000000,0.000000000,0.000000000,0.000000000,0.000000000,0.579372585,0.000000000,4.014028535
1772683563.942608356,0.014042000,0.008284000,0.054578000,-0.014783780,-0.022700010,-0.007850150,-0.999602180,0.029947000,0.045165000,0.016383000,-0.000941124,-0.002618573,0.002832112,-0.139814097,0.225946870,0.004150376,0.013818109,0.004866558,1.001875813,-0.001929442,0.000798595,0.000998431,0.000000000,0.000000000,0.000000000,0.000000000,0.014963366,0.007913133,0.054603441,0.048859111,-0.019611069,0.001281897,0.014491523,-0.003829906,0.001536033,0.501162570,-0.033876921,0.638908319,0.004371734,0.000320009,0.005574146,0.999973859,0.000000000,0.000000000,0.000000000,0.000000000,0.000000000,0.000000000,0.579372585,0.000000000,4.014534998
1772683563.952608347,0.014009000,0.008279000,0.054595000,-0.013957330,-0.023953380,-0.007967430,-0.999583890,0.028321000,0.047682000,0.016617000,-0.000998699,-0.000846621,0.001391182,-0.126577399,0.182070507,-0.003780113,0.013822482,0.003148386,1.001223954,-0.001917007,0.000522425,0.001409409,0.000000000,0.000000000,0.000000000,0.000000000,0.014969311,0.007903136,0.054610804,0.048999806,-0.019488694,0.001398842,0.014743178,-0.005315173,0.001476007,0.500791610,-0.034443730,0.638980458,0.004368469,0.000324940,0.005574755,0.999973872,0.000000000,0.000000000,0.000000000,0.000000000,0.000000000,0.000000000,0.579372585,0.000000000,4.015041473
1772683563.962607861,0.014012000,0.008278000,0.054600000,-0.013470860,-0.024550880,-0.007907900,-0.999576540,0.027355000,0.048887000,0.016491000,-0.000697670,-0.001820709,0.002114046,-0.134884763,0.188473976,-0.001537866,0.013577803,0.002297572,1.000367087,-0.002210866,0.001771045,0.000900716,0.000000000,0.000000000,0.000000000,0.000000000,0.014977583,0.007901544,0.054612933,0.049138441,-0.019483495,0.001481422,0.014295659,-0.005861523,0.000317532,0.500074655,-0.034593905,0.639077560,0.004362205,0.000326219,0.005575599,0.999973861,0.000000000,0.000000000,0.000000000,0.000000000,0.000000000,0.000000000,0.579372585,0.000000000,4.015547923
1772683563.972608089,0.014010000,0.008296000,0.054589000,-0.013060920,-0.024950180,-0.007857410,-0.999572490,0.026539000,0.049694000,0.016381000,-0.000097747,0.000763482,-0.000400428,-0.064203720,0.086650297,-0.001823846,0.013680054,0.003169394,1.000601851,-0.002203450,0.001174762,-0.001311158,0.000000000,0.000000000,0.000000000,0.000000000,0.014981812,0.007905050,0.054617069,0.049233765,-0.019528439,0.001466494,0.014367758,-0.005103135,0.000290372,0.499012580,-0.034880682,0.639391943,0.004352922,0.000328682,0.005578335,0.999973933,0.000000000,0.000000000,0.000000000,0.000000000,0.000000000,0.000000000,0.579372585,0.000000000,4.016054410
1772683563.982607603,0.013996000,0.008316000,0.054591000,-0.012935340,-0.024893980,-0.007712090,-0.999576660,0.026279000,0.049588000,0.016082000,0.000367910,0.002831840,-0.002484793,0.032737178,-0.051798249,-0.009802163,0.013731987,0.003629513,1.001322228,-0.000735989,0.001770959,-0.000188234,0.000000000,0.000000000,0.000000000,0.000000000,0.014981029,0.007907132,0.054614085,0.049340053,-0.019488360,0.001429071,0.014390340,-0.004879534,0.001713792,0.498029729,-0.035372980,0.639518109,0.004344320,0.000332935,0.005579419,0.999973898,0.000000000,0.000000000,0.000000000,0.000000000,0.000000000,0.000000000,0.579372585,0.000000000,4.016560860
1772683563.992607832,0.014011000,0.008287000,0.054593000,-0.012980250,-0.025216110,-0.007851040,-0.999566920,0.026382000,0.050228000,0.016371000,0.000939822,0.003613523,-0.003583725,0.122699398,-0.179494072,-0.011874079,0.012862671,0.004038821,1.000306536,0.000339618,0.002103439,0.002615297,0.000000000,0.000000000,0.000000000,0.000000000,0.014983287,0.007989213,0.054537428,0.049408376,-0.019179372,0.001212482,0.013322277,-0.004147292,0.000391699,0.496659488,-0.036022690,0.638220112,0.004332336,0.000338489,0.005568073,0.999974072,0.000000000,0.000000000,0.000000000,0.000000000,0.000000000,0.000000000,0.579372585,0.000000000,4.017008781
1772683564.002607822,0.014030000,0.008277000,0.054599000,-0.013026600,-0.025197010,-0.007912730,-0.999566310,0.026477000,0.050187000,0.016497000,0.000649942,0.002815096,-0.003016087,0.155946292,-0.234413004,-0.008676310,0.012720995,0.003887929,0.999790652,-0.000360745,0.002732147,0.004446474,0.000000000,0.000000000,0.000000000,0.000000000,0.014984425,0.007979610,0.054548470,0.049374208,-0.019122804,0.001229967,0.012994829,-0.004561692,-0.000219917,0.496384165,-0.036553946,0.637689262,0.004329909,0.000343091,0.005563421,0.999974090,0.000000000,0.000000000,0.000000000,0.000000000,0.000000000,0.000000000,0.579372585,0.000000000,4.017008781
1772683564.012608051,0.014032000,0.008444000,0.054445000,-0.015042730,-0.022251630,-0.007636930,-0.999610050,0.030448000,0.044271000,0.015954000,0.000270513,0.001105595,-0.001320961,0.131997759,-0.205667925,-0.004292216,0.013538158,0.001628631,0.999703544,0.000228954,0.001524969,0.000026560,0.000000000,0.000000000,0.000000000,0.000000000,0.014968001,0.007949858,0.054583365,0.049268957,-0.019170432,0.001282499,0.014248929,-0.006738449,-0.000699953,0.495701280,-0.037112716,0.638396017,0.004323921,0.000347961,0.005569569,0.999974083,0.000000000,0.000000000,0.000000000,0.000000000,0.000000000,0.000000000,0.579372585,0.000000000,4.017008781
1772683564.022607565,0.014033000,0.008489000,0.054411000,-0.016572190,-0.019677370,-0.007383410,-0.999641760,0.033455000,0.039106000,0.015426000,-0.000204546,-0.000727040,0.000542056,0.060463401,-0.101397338,0.000205410,0.012911452,0.001754084,1.000145893,0.001888684,-0.001361493,-0.001818380,0.000000000,0.000000000,0.000000000,0.000000000,0.014962311,0.007930992,0.054605265,0.049316443,-0.019368832,0.001282330,0.013018178,-0.006113270,-0.000008704,0.495194693,-0.037789083,0.638774865,0.004319466,0.000353853,0.005572850,0.999974054,0.000000000,0.000000000,0.000000000,0.000000000,0.000000000,0.000000000,0.579372585,0.000000000,4.017008781
1772683564.032607317,0.014029000,0.008317000,0.054558000,-0.015495800,-0.021248760,-0.007521380,-0.999625830,0.031333000,0.042261000,0.015710000,-0.000615424,-0.002533239,0.002395787,-0.033285129,0.043370059,0.002888871,0.012930360,0.002178433,1.000747086,0.001760420,-0.000387561,-0.001914617,0.000000000,0.000000000,0.000000000,0.000000000,0.014968109,0.007989208,0.054549510,0.049280997,-0.019268325,0.001015530,0.014288319,-0.006836980,0.001143953,0.495170930,-0.038173527,0.637421082,0.004319244,0.000357155,0.005561023,0.999974140,0.000000000,0.000000000,0.000000000,0.000000000,0.000000000,0.000000000,0.579372585,0.000000000,4.017008781
1772683564.042607069,0.014008000,0.008285000,0.054588000,-0.014586550,-0.022481050,-0.007795400,-0.999610460,0.029546000,0.044732000,0.016258000,-0.000364627,-0.003989845,0.003400683,-0.110916269,0.177306726,0.012823083,0.013619039,0.002493319,1.000343884,0.000977648,0.001407332,-0.001575432,0.000000000,0.000000000,0.000000000,0.000000000,0.014977589,0.008040516,0.054492522,0.049315728,-0.019259375,0.000827176,0.014628704,-0.005741036,0.000428713,0.494873522,-0.038264627,0.636515545,0.004316647,0.000357902,0.005553118,0.999974189,0.000000000,0.000000000,0.000000000,0.000000000,0.000000000,0.000000000,0.579372585,0.000000000,4.017008781
1772683564.052607059,0.014010000,0.008285000,0.054598000,-0.013987420,-0.023679610,-0.007842710,-0.999590980,0.028370000,0.047138000,0.016360000,0.000136092,-0.003591126,0.003103791,-0.142688535,0.234369541,0.015694547,0.012764946,0.004699031,0.998381114,0.001160253,-0.000718981,0.002730493,0.000000000,0.000000000,0.000000000,0.000000000,0.014984125,0.008071987,0.054450311,0.049334623,-0.019237653,0.000636366,0.013475496,-0.004596963,-0.001766015,0.495457994,-0.039580772,0.634525937,0.004321690,0.000369340,0.005535704,0.999974299,0.000000000,0.000000000,0.000000000,0.000000000,0.000000000,0.000000000,0.579372585,0.000000000,4.017008781
1772683564.062606812,0.014020000,0.008282000,0.054586000,-0.013575100,-0.024475640,-0.007851630,-0.999577420,0.027559000,0.048737000,0.016381000,0.000382129,-0.001699341,0.001436287,-0.116479154,0.197814393,0.016514746,0.011963079,0.003290359,0.999044713,0.001683898,0.000659114,0.000565346,0.000000000,0.000000000,0.000000000,0.000000000,0.014984691,0.008087410,0.054431068,0.049228072,-0.019194349,0.000371345,0.012709057,-0.004993977,-0.001640822,0.496010478,-0.039231467,0.634253885,0.004326529,0.000366309,0.005533342,0.999974256,0.000000000,0.000000000,0.000000000,0.000000000,0.000000000,0.000000000,0.579372585,0.000000000,4.017008781
1772683564.072606802,0.014027000,0.008272000,0.054593000,-0.013285160,-0.024929980,-0.007896920,-0.999569730,0.026989000,0.049649000,0.016470000,0.000512821,0.001754256,-0.001625643,-0.023208049,0.052995713,0.010771709,0.011736032,0.004090355,1.001194982,0.001316502,0.000822137,0.002643263,0.000000000,0.000000000,0.000000000,0.000000000,0.014985276,0.008043137,0.054465664,0.049085573,-0.019362942,0.000390041,0.012832761,-0.004805570,0.000650130,0.495636276,-0.040148250,0.633964340,0.004323220,0.000374280,0.005530782,0.999974307,0.000000000,0.000000000,0.000000000,0.000000000,0.000000000,0.000000000,0.579372585,0.000000000,4.017008781
1772683564.082606792,0.014038000,0.008277000,0.054588000,-0.013355740,-0.024800410,-0.008034090,-0.999570920,0.027135000,0.049385000,0.016745000,0.000575098,0.002297050,-0.002210006,0.033995629,-0.042559193,0.004733096,0.012231985,0.003257351,1.001129607,0.001986202,0.002869684,0.000498123,0.000000000,0.000000000,0.000000000,0.000000000,0.014977549,0.007976225,0.054529246,0.048945704,-0.019579675,0.000707233,0.012856372,-0.005170561,0.001218997,0.495705502,-0.041599220,0.635166200,0.004323750,0.000386990,0.005541214,0.999974208,0.000000000,0.000000000,0.000000000,0.000000000,0.000000000,0.000000000,0.579372585,0.000000000,4.017008781
1772683564.092607021,0.014032000,0.008288000,0.054594000,-0.013279420,-0.024903850,-0.007997480,-0.999569660,0.026982000,0.049594000,0.016671000,0.000008256,0.002444777,-0.002213852,0.065929376,-0.100385285,0.001923709,0.012674472,0.001826484,0.999867118,0.000722797,-0.004734842,0.000505713,0.000000000,0.000000000,0.000000000,0.000000000,0.014965252,0.007969848,0.054550079,0.048819962,-0.019604423,0.000860550,0.013314081,-0.006069913,0.000194803,0.496237224,-0.042513214,0.634048829,0.004328350,0.000394950,0.005531427,0.999974241,0.000000000,0.000000000,0.000000000,0.000000000,0.000000000,0.000000000,0.579372585,0.000000000,4.017008781
1772683564.102607250,0.014024000,0.008286000,0.054583000,-0.013253380,-0.025034820,-0.008187670,-0.999565190,0.026942000,0.049851000,0.017054000,-0.000583509,0.000764686,-0.000412180,0.042800121,-0.062720298,-0.004623845,0.013190934,0.001472628,0.997818125,-0.000395926,-0.004392205,0.003078410,0.000000000,0.000000000,0.000000000,0.000000000,0.014958584,0.008000510,0.054534853,0.048756228,-0.019564086,0.000785403,0.014037487,-0.007062558,-0.001338033,0.495945197,-0.041158196,0.634287755,0.004325866,0.000383120,0.005533565,0.999974251,0.000000000,0.000000000,0.000000000,0.000000000,0.000000000,0.000000000,0.579372585,0.000000000,4.017008781
1772683564.112607241,0.014030000,0.008459000,0.054426000,-0.015191180,-0.022237740,-0.007831450,-0.999606610,0.030754000,0.044234000,0.016349000,-0.000814997,0.000265132,0.000156138,0.023948773,-0.039908074,-0.008537940,0.012377151,0.001436567,0.999409141,-0.000244398,0.003305718,0.003222360,0.000000000,0.000000000,0.000000000,0.000000000,0.014960747,0.007975239,0.054552115,0.048785736,-0.019806216,0.000691584,0.012882176,-0.006855698,-0.001110974,0.495609385,-0.039817693,0.633975430,0.004323001,0.000371395,0.005530891,0.999974280,0.000000000,0.000000000,0.000000000,0.000000000,0.000000000,0.000000000,0.579372585,0.000000000,4.017008781
1772683564.122607470,0.014029000,0.008329000,0.054547000,-0.014509310,-0.023031380,-0.007788600,-0.999599110,0.029401000,0.045834000,0.016257000,-0.000511112,0.000775855,-0.000377992,0.031939736,-0.058503065,-0.008211509,0.011830872,0.001831010,1.000113059,-0.002065417,0.002324378,-0.003008920,0.000000000,0.000000000,0.000000000,0.000000000,0.014960717,0.008015708,0.054509493,0.048718170,-0.019838059,0.000378937,0.012852487,-0.006867924,0.000675625,0.494747630,-0.039581803,0.633435871,0.004315494,0.000369274,0.005526194,0.999974340,0.000000000,0.000000000,0.000000000,0.000000000,0.000000000,0.000000000,0.579372585,0.000000000,4.017008781
1772683564.132607460,0.013998000,0.008297000,0.054588000,-0.014054900,-0.023775290,-0.007872690,-0.999587520,0.028508000,0.047327000,0.016426000,0.000013908,0.001627779,-0.001548273,0.067561906,-0.116633692,-0.006138646,0.012247895,0.002923941,1.000080758,0.001592109,0.000115946,-0.003312156,0.000000000,0.000000000,0.000000000,0.000000000,0.014973192,0.007978586,0.054529468,0.048689673,-0.020088512,0.000505789,0.013643876,-0.005809466,0.000146512,0.493062318,-0.040121303,0.632029485,0.004300767,0.000373848,0.005513907,0.999974462,0.000000000,0.000000000,0.000000000,0.000000000,0.000000000,0.000000000,0.579372585,0.000000000,4.017008781
1772683564.142607450,0.014002000,0.008283000,0.054604000,-0.013677040,-0.024297670,-0.007845170,-0.999580420,0.027760000,0.048379000,0.016368000,0.000323310,0.003600023,-0.003366437,0.129608787,-0.207569371,-0.013878589,0.011943684,0.003746824,1.001041969,-0.000598724,0.001513924,0.001200049,0.000000000,0.000000000,0.000000000,0.000000000,0.015011763,0.007997953,0.054491471,0.048727308,-0.020048561,0.000329781,0.012589762,-0.005293244,0.001416113,0.492838912,-0.039977193,0.630587066,0.004298829,0.000372526,0.005501326,0.999974579,0.000000000,0.000000000,0.000000000,0.000000000,0.000000000,0.000000000,0.579372585,0.000000000,4.017008781
1772683564.152607203,0.014024000,0.008455000,0.054443000,-0.015568020,-0.021204740,-0.007777830,-0.999623680,0.031487000,0.042164000,0.016225000,0.000773058,0.003536367,-0.003897595,0.168427343,-0.255926901,-0.012564518,0.011767194,0.003985106,1.002519808,-0.002117836,0.001260187,0.004588448,0.000000000,0.000000000,0.000000000,0.000000000,0.014976581,0.007961923,0.054542302,0.048410381,-0.020117223,0.000647905,0.012870661,-0.004306373,0.002558849,0.492708547,-0.040363858,0.630384059,0.004297673,0.000375886,0.005499540,0.999974608,0.000000000,0.000000000,0.000000000,0.000000000,0.000000000,0.000000000,0.579372585,0.000000000,4.017008781
1772683564.162607670,0.014041000,0.008484000,0.054395000,-0.016856650,-0.019459520,-0.007626740,-0.999639440,0.034030000,0.038658000,0.015917000,0.000800234,0.001872010,-0.002552392,0.153027824,-0.220991478,-0.008502197,0.012364078,0.002676919,1.002027871,0.000179607,-0.000288504,0.003895922,0.000000000,0.000000000,0.000000000,0.000000000,0.014961233,0.007925583,0.054586237,0.048256063,-0.020129999,0.001031364,0.013469033,-0.005719735,0.002492261,0.491710910,-0.041194466,0.631168564,0.004288924,0.000383116,0.005506358,0.999974587,0.000000000,0.000000000,0.000000000,0.000000000,0.000000000,0.000000000,0.579372585,0.000000000,4.017008781
1772683564.172607899,0.014035000,0.008473000,0.054396000,-0.017601370,-0.018403000,-0.007414770,-0.999648210,0.035494000,0.036540000,0.015483000,0.000228691,-0.000714569,0.000484208,0.073208278,-0.098217078,-0.007848885,0.011401895,0.002253923,1.000529028,0.000802153,-0.001844209,-0.001300751,0.000000000,0.000000000,0.000000000,0.000000000,0.014960798,0.007996551,0.054519539,0.048170339,-0.019950739,0.000897983,0.012161447,-0.006773210,0.000128765,0.490936095,-0.042090942,0.632451553,0.004282116,0.000390949,0.005517523,0.999974522,0.000000000,0.000000000,0.000000000,0.000000000,0.000000000,0.000000000,0.579372585,0.000000000,4.017008781
1772683564.182607889,0.014032000,0.008478000,0.054411000,-0.017931340,-0.018010630,-0.007239350,-0.999650780,0.036142000,0.035757000,0.015130000,-0.000527642,-0.003890136,0.004028073,-0.059655698,0.086604704,-0.001144785,0.013965110,0.004050420,0.999102381,-0.003090797,0.004565683,-0.000911291,0.000000000,0.000000000,0.000000000,0.000000000,0.014945386,0.007967193,0.054550434,0.047987343,-0.020096269,0.000951863,0.014205057,-0.003536647,-0.001002948,0.491140708,-0.042241305,0.633016062,0.004283892,0.000392292,0.005522443,0.999974489,0.000000000,0.000000000,0.000000000,0.000000000,0.000000000,0.000000000,0.579372585,0.000000000,4.017008781
1772683564.192607641,0.014039000,0.008299000,0.054552000,-0.016341210,-0.020395360,-0.007668990,-0.999629020,0.033016000,0.040536000,0.016013000,-0.000905964,-0.003427567,0.004139398,-0.139410215,0.184840004,0.000035897,0.013838139,0.004065629,1.002203756,0.001675323,0.001192309,-0.000321605,0.000000000,0.000000000,0.000000000,0.000000000,0.014933868,0.007969786,0.054554613,0.048040172,-0.019908963,0.000895523,0.014884321,-0.004434140,0.001484699,0.489472231,-0.044431320,0.633566899,0.004269225,0.000411344,0.005527174,0.999974489,0.000000000,0.000000000,0.000000000,0.000000000,0.000000000,0.000000000,0.579372585,0.000000000,4.017008781
1772683564.202607155,0.014006000,0.008280000,0.054606000,-0.014939010,-0.022366090,-0.007797210,-0.999607820,0.030250000,0.044496000,0.016273000,-0.000568862,-0.001871855,0.002633550,-0.158285823,0.203068013,0.000491966,0.013730693,0.002329582,1.001025075,0.000651916,0.002114989,0.001332054,0.000000000,0.000000000,0.000000000,0.000000000,0.014939268,0.007979989,0.054548797,0.048169825,-0.019805659,0.000972233,0.014424024,-0.005353893,0.001265275,0.488927895,-0.044884157,0.633462260,0.004264453,0.000415265,0.005526246,0.999974536,0.000000000,0.000000000,0.000000000,0.000000000,0.000000000,0.000000000,0.579372585,0.000000000,4.016595657
1772683564.212607145,0.014004000,0.008438000,0.054488000,-0.015549670,-0.021127180,-0.007408650,-0.999628410,0.031434000,0.042021000,0.015483000,-0.000047397,0.000924729,-0.000566764,-0.096784807,0.123837564,-0.005198663,0.013487676,0.003588875,1.000066133,-0.004347987,-0.000313805,-0.002063146,0.000000000,0.000000000,0.000000000,0.000000000,0.014953154,0.007937959,0.054585155,0.048314026,-0.019933059,0.001179665,0.014242497,-0.005261987,-0.000202994,0.488537256,-0.044871688,0.633081582,0.004261046,0.000415123,0.005522926,0.999974605,0.000000000,0.000000000,0.000000000,0.000000000,0.000000000,0.000000000,0.579372585,0.000000000,4.016020255
1772683564.222607851,0.014019000,0.008317000,0.054568000,-0.014238900,-0.022589080,-0.007620870,-0.999614380,0.028844000,0.044959000,0.015896000,0.000139899,0.002261385,-0.002227722,-0.017134935,0.026607975,-0.012880187,0.012992351,0.003457137,1.000441850,-0.000806985,0.001783331,0.000225809,0.000000000,0.000000000,0.000000000,0.000000000,0.014957878,0.007910848,0.054612879,0.048401333,-0.019986157,0.001234193,0.013728869,-0.004403784,0.001014716,0.486554895,-0.043886729,0.631561548,0.004243800,0.000406376,0.005509705,0.999974732,0.000000000,0.000000000,0.000000000,0.000000000,0.000000000,0.000000000,0.579372585,0.000000000,4.015444812
1772683564.232607841,0.014015000,0.008454000,0.054449000,-0.015287110,-0.021410190,-0.007407810,-0.999626450,0.030913000,0.042591000,0.015479000,0.000101729,0.000531644,-0.000646660,0.008647457,0.016095925,-0.009429804,0.012531860,0.004811396,1.001619533,-0.000623570,0.004278760,0.002139882,0.000000000,0.000000000,0.000000000,0.000000000,0.014961264,0.007959429,0.054561624,0.048398223,-0.019691320,0.001036446,0.013433120,-0.003921073,0.001442486,0.485741434,-0.044876538,0.630215871,0.004236659,0.000414925,0.005497928,0.999974847,0.000000000,0.000000000,0.000000000,0.000000000,0.000000000,0.000000000,0.579372585,0.000000000,4.014869410
1772683564.242608070,0.014032000,0.008320000,0.054553000,-0.014445800,-0.023152270,-0.007506170,-0.999599390,0.029263000,0.046085000,0.015693000,0.000318279,-0.000962957,0.000424262,0.017145720,0.019525393,0.008929805,0.012903242,0.003965171,1.001207747,-0.000426073,0.003487472,0.003409193,0.000000000,0.000000000,0.000000000,0.000000000,0.014956344,0.008035837,0.054493977,0.048304661,-0.019295366,0.000801319,0.014045518,-0.004306043,0.001360861,0.485477042,-0.045766940,0.630093937,0.004234309,0.000422678,0.005496832,0.999974853,0.000000000,0.000000000,0.000000000,0.000000000,0.000000000,0.000000000,0.579372585,0.000000000,4.014293994
1772683564.252608061,0.014021000,0.008449000,0.054440000,-0.015839200,-0.021244000,-0.007423520,-0.999621280,0.032016000,0.042249000,0.015529000,0.000000913,-0.000978769,0.000871563,0.011759187,0.019016073,0.019385912,0.013771532,0.002268661,1.001137349,-0.000404332,-0.001900138,0.002421272,0.000000000,0.000000000,0.000000000,0.000000000,0.014945369,0.008010668,0.054521812,0.048272677,-0.019282069,0.001022138,0.014489669,-0.006597767,0.000939012,0.484924947,-0.046191995,0.629686185,0.004229473,0.000426345,0.005493261,0.999974906,0.000000000,0.000000000,0.000000000,0.000000000,0.000000000,0.000000000,0.579372585,0.000000000,4.013718592
1772683564.262608290,0.014008000,0.008318000,0.054577000,-0.014879520,-0.022716080,-0.007601690,-0.999602320,0.030128000,0.045203000,0.015890000,-0.000223174,-0.000887258,0.000973971,-0.005026863,0.019978856,0.021467520,0.014139557,0.000684303,1.001448152,0.000713719,-0.000845894,0.000806980,0.000000000,0.000000000,0.000000000,0.000000000,0.014947368,0.008045302,0.054481811,0.048305087,-0.019348289,0.000870725,0.014804688,-0.007779652,0.001044517,0.484416655,-0.044924105,0.629878347,0.004225097,0.000415264,0.005494986,0.999974906,0.000000000,0.000000000,0.000000000,0.000000000,0.000000000,0.000000000,0.579372585,0.000000000,4.013143176
1772683564.272608280,0.014010000,0.008277000,0.054615000,-0.014146200,-0.023829860,-0.007884670,-0.999584840,0.028693000,0.047435000,0.016456000,-0.000557537,-0.000408683,0.000679857,-0.024863332,0.017439259,0.012146231,0.013588874,0.003021597,1.001221941,0.001139204,-0.001582901,0.000491551,0.000000000,0.000000000,0.000000000,0.000000000,0.014950405,0.007978355,0.054548794,0.048399159,-0.019836309,0.001273624,0.014964929,-0.005404742,0.001626944,0.483920313,-0.044835681,0.631077759,0.004220766,0.000414513,0.005505458,0.999974876,0.000000000,0.000000000,0.000000000,0.000000000,0.000000000,0.000000000,0.579372585,0.000000000,4.012567774
1772683564.282607555,0.014031000,0.008454000,0.054437000,-0.015650400,-0.021350540,-0.007819400,-0.999618970,0.031657000,0.042453000,0.016317000,-0.000447980,0.001059908,-0.000721737,-0.008199097,-0.010058152,-0.006876939,0.011016433,0.005123844,1.000817479,0.000023908,0.000235084,0.004000120,0.000000000,0.000000000,0.000000000,0.000000000,0.014955938,0.007956824,0.054572108,0.048440504,-0.019877839,0.001465589,0.011816108,-0.003945213,0.001247187,0.483979687,-0.045020568,0.631396984,0.004221274,0.000416141,0.005508236,0.999974847,0.000000000,0.000000000,0.000000000,0.000000000,0.000000000,0.000000000,0.579372585,0.000000000,4.011992413
1772683564.292608023,0.014007000,0.008346000,0.054545000,-0.014692770,-0.022567350,-0.007762240,-0.999607220,0.029759000,0.044904000,0.016199000,0.000013151,-0.000153302,0.000116822,-0.020072142,0.023775381,-0.016379283,0.012359949,0.003617084,1.000334741,-0.002405959,0.002899714,-0.000867159,0.000000000,0.000000000,0.000000000,0.000000000,0.014963310,0.007991229,0.054539605,0.048270450,-0.019575081,0.001330244,0.013255297,-0.004862875,0.000669002,0.484467888,-0.044644653,0.631992297,0.004225550,0.000412906,0.005513443,0.999974798,0.000000000,0.000000000,0.000000000,0.000000000,0.000000000,0.000000000,0.579372585,0.000000000,4.012035812
1772683564.302607536,0.013998000,0.008302000,0.054582000,-0.014085560,-0.023595640,-0.007722490,-0.999592520,0.028559000,0.046972000,0.016122000,0.000185140,-0.001237763,0.001218707,-0.034855302,0.051445604,-0.016241568,0.012779019,0.001378529,1.001294481,0.002762269,-0.001557966,-0.002956862,0.000000000,0.000000000,0.000000000,0.000000000,0.014955974,0.007953585,0.054580951,0.048170800,-0.019651672,0.001529252,0.013608180,-0.007074268,0.001530644,0.483148827,-0.044729741,0.631782963,0.004214036,0.000413577,0.005511618,0.999974843,0.000000000,0.000000000,0.000000000,0.000000000,0.000000000,0.000000000,0.579372585,0.000000000,4.012597237
1772683564.312607527,0.013995000,0.008439000,0.054483000,-0.015097060,-0.022013330,-0.007240470,-0.999617460,0.030535000,0.043805000,0.015155000,0.000440968,-0.002496040,0.002231043,-0.063511058,0.090026049,-0.003982621,0.013030575,0.002422467,0.998631104,0.000110549,0.001189387,-0.001407321,0.000000000,0.000000000,0.000000000,0.000000000,0.014950619,0.007920491,0.054606300,0.048153752,-0.019917162,0.001682999,0.013734305,-0.005513401,-0.000936049,0.482866229,-0.045005000,0.630525846,0.004211561,0.000415919,0.005500638,0.999974906,0.000000000,0.000000000,0.000000000,0.000000000,0.000000000,0.000000000,0.579372585,0.000000000,4.013158690
1772683564.322607517,0.014034000,0.008302000,0.054574000,-0.014371530,-0.023373670,-0.007509460,-0.999595290,0.029118000,0.046529000,0.015702000,0.000645397,-0.000235781,0.000092560,-0.025595714,0.025764659,0.003002197,0.013159867,0.003512721,0.998219100,0.000759727,0.001334258,-0.000284560,0.000000000,0.000000000,0.000000000,0.000000000,0.014950191,0.007908888,0.054613649,0.048181368,-0.019917348,0.001469143,0.013876178,-0.004921634,-0.002278075,0.483222153,-0.045403390,0.629696598,0.004214651,0.000419383,0.005493386,0.999974922,0.000000000,0.000000000,0.000000000,0.000000000,0.000000000,0.000000000,0.579372585,0.000000000,4.013720142
1772683564.332607985,0.014028000,0.008278000,0.054609000,-0.013815360,-0.024079360,-0.007756450,-0.999584490,0.028029000,0.047943000,0.016191000,0.000502215,0.001749846,-0.001809462,0.025675193,-0.058904270,0.003801400,0.013622386,0.003236952,0.999145410,0.001311587,0.001127059,0.000668110,0.000000000,0.000000000,0.000000000,0.000000000,0.014952147,0.007903927,0.054611519,0.048258646,-0.019880524,0.001180044,0.014843952,-0.004981734,-0.001263060,0.483347093,-0.045148639,0.628314094,0.004215759,0.000417115,0.005481331,0.999974979,0.000000000,0.000000000,0.000000000,0.000000000,0.000000000,0.000000000,0.579372585,0.000000000,4.014281622
1772683564.342607975,0.014025000,0.008272000,0.054615000,-0.013380920,-0.024220030,-0.007829090,-0.999586440,0.027165000,0.048229000,0.016320000,-0.000065482,0.002786327,-0.002856530,0.068179447,-0.124366280,-0.000578614,0.013991571,0.004863894,0.999168628,0.000511059,0.000832893,-0.000330879,0.000000000,0.000000000,0.000000000,0.000000000,0.014955777,0.007902372,0.054612563,0.048414529,-0.019815378,0.001026109,0.015047677,-0.003676015,-0.000997639,0.483269734,-0.045029269,0.627142297,0.004215093,0.000416026,0.005471110,0.999975039,0.000000000,0.000000000,0.000000000,0.000000000,0.000000000,0.000000000,0.579372585,0.000000000,4.014843074
1772683564.352607489,0.014031000,0.008455000,0.054426000,-0.015094830,-0.021596960,-0.007644710,-0.999623570,0.030541000,0.042960000,0.015951000,-0.000479410,0.002756588,-0.002840096,0.095207243,-0.156796042,-0.002327960,0.013289659,0.003984124,0.998870003,0.000470209,-0.000279628,-0.002254868,0.000000000,0.000000000,0.000000000,0.000000000,0.014969718,0.007983983,0.054532498,0.048572674,-0.019358152,0.000536932,0.013704421,-0.004477501,-0.001161551,0.482813312,-0.045245745,0.625944032,0.004211104,0.000417849,0.005460647,0.999975109,0.000000000,0.000000000,0.000000000,0.000000000,0.000000000,0.000000000,0.579372585,0.000000000,4.015404500
1772683564.362607956,0.014013000,0.008484000,0.054424000,-0.016106370,-0.020245690,-0.007268870,-0.999638860,0.032528000,0.040253000,0.015198000,-0.000686384,0.001249399,-0.001032072,0.074493445,-0.118427095,-0.005210438,0.012543864,0.002764897,0.999210573,0.001918759,-0.000858982,-0.000067251,0.000000000,0.000000000,0.000000000,0.000000000,0.014973926,0.008057449,0.054460974,0.048548827,-0.019086050,0.000067380,0.013312942,-0.005440457,-0.000884579,0.483010539,-0.044840937,0.624569457,0.004212850,0.000414276,0.005448666,0.999975204,0.000000000,0.000000000,0.000000000,0.000000000,0.000000000,0.000000000,0.579372585,0.000000000,4.015965979
1772683564.372607946,0.014002000,0.008331000,0.054555000,-0.015065860,-0.021922270,-0.007484020,-0.999618140,0.030482000,0.043616000,0.015638000,-0.000050952,-0.000628264,0.000429760,0.036267921,-0.047541418,0.006559360,0.012767030,0.002217915,0.999718201,-0.001524512,0.001294405,-0.000608270,0.000000000,0.000000000,0.000000000,0.000000000,0.014975718,0.008086576,0.054429154,0.048456018,-0.019070222,-0.000150877,0.013668252,-0.005510006,-0.000691972,0.483226990,-0.044960988,0.624351467,0.004214734,0.000415326,0.005446759,0.999975204,0.000000000,0.000000000,0.000000000,0.000000000,0.000000000,0.000000000,0.579372585,0.000000000,4.016527431
1772683564.382607937,0.014018000,0.008459000,0.054422000,-0.016369580,-0.019954380,-0.007532420,-0.999638500,0.033060000,0.039658000,0.015726000,0.000354118,-0.001948273,0.001841688,-0.011155482,0.026002005,0.019667055,0.013728596,0.001570764,1.000423368,-0.000850333,0.003778216,-0.002698941,0.000000000,0.000000000,0.000000000,0.000000000,0.014974043,0.008014638,0.054493638,0.048434611,-0.019421215,0.000080476,0.015102390,-0.007149389,0.000597870,0.482311986,-0.045336868,0.623911636,0.004206733,0.000418546,0.005442910,0.999975246,0.000000000,0.000000000,0.000000000,0.000000000,0.000000000,0.000000000,0.579372585,0.000000000,4.017008781
1772683564.392607927,0.014018000,0.008310000,0.054574000,-0.015117680,-0.021764110,-0.007828580,-0.999618170,0.030598000,0.043288000,0.016325000,0.000454119,-0.002489882,0.002536949,-0.053674998,0.085855398,0.020988866,0.013771848,0.003173473,1.001479705,0.001217872,-0.000529519,-0.000726923,0.000000000,0.000000000,0.000000000,0.000000000,0.014967829,0.008032710,0.054475150,0.048504093,-0.019581599,0.000060001,0.014710221,-0.004551022,0.001967237,0.481575673,-0.045526958,0.622758308,0.004200303,0.000420128,0.005432841,0.999975341,0.000000000,0.000000000,0.000000000,0.000000000,0.000000000,0.000000000,0.579372585,0.000000000,4.017008781
1772683564.402608633,0.014019000,0.008279000,0.054610000,-0.014170400,-0.023132170,-0.007909120,-0.999600690,0.028730000,0.046038000,0.016486000,0.000406042,-0.001189706,0.001108218,-0.050412103,0.086231702,0.015820865,0.013241650,0.003502937,1.000325418,0.001783535,-0.003200730,0.002675889,0.000000000,0.000000000,0.000000000,0.000000000,0.014958098,0.007990316,0.054524140,0.048540835,-0.019665216,0.000421613,0.013806923,-0.004541502,-0.000956704,0.481485200,-0.044449156,0.622069582,0.004199567,0.000410693,0.005426871,0.999975366,0.000000000,0.000000000,0.000000000,0.000000000,0.000000000,0.000000000,0.579372585,0.000000000,4.017008781
1772683564.412609100,0.014040000,0.008450000,0.054437000,-0.015737250,-0.020942900,-0.007843800,-0.999626030,0.031824000,0.041635000,0.016356000,0.000012024,-0.000948583,0.001027662,-0.052769609,0.093801395,0.005881793,0.013053504,0.002305955,1.000230074,0.002829884,0.001325350,0.001412372,0.000000000,0.000000000,0.000000000,0.000000000,0.014950516,0.007945602,0.054567660,0.048542972,-0.019793436,0.000508387,0.013882482,-0.005864472,0.000605769,0.481800519,-0.042958489,0.622591779,0.004202387,0.000397719,0.005431482,0.999975324,0.000000000,0.000000000,0.000000000,0.000000000,0.000000000,0.000000000,0.579372585,0.000000000,4.017008781
1772683564.422609091,0.014027000,0.008323000,0.054569000,-0.014799460,-0.022426190,-0.007872360,-0.999607960,0.029975000,0.044617000,0.016419000,-0.000291531,-0.001948759,0.001606703,-0.078964477,0.131105422,0.001176529,0.012575407,0.002610482,0.999544429,0.001652718,0.000412615,0.000021477,0.000000000,0.000000000,0.000000000,0.000000000,0.014947498,0.007927681,0.054581414,0.048580037,-0.019904279,0.000605832,0.013453508,-0.005587374,-0.000187204,0.482122638,-0.042987267,0.621997933,0.004205199,0.000397963,0.005426297,0.999975340,0.000000000,0.000000000,0.000000000,0.000000000,0.000000000,0.000000000,0.579372585,0.000000000,4.017008781
1772683564.432608843,0.014011000,0.008289000,0.054598000,-0.014089880,-0.023649870,-0.007822940,-0.999590400,0.028574000,0.047077000,0.016325000,-0.000403885,-0.002059209,0.001532674,-0.094393848,0.150672760,-0.000817542,0.012674183,0.003077325,0.997611692,0.001276627,-0.003281491,-0.002306798,0.000000000,0.000000000,0.000000000,0.000000000,0.014948455,0.007914448,0.054591609,0.048592904,-0.019951447,0.000567558,0.013436207,-0.005167280,-0.002132220,0.482135331,-0.043316196,0.620871711,0.004205297,0.000400793,0.005416457,0.999975387,0.000000000,0.000000000,0.000000000,0.000000000,0.000000000,0.000000000,0.579372585,0.000000000,4.017008781
1772683564.442608356,0.014017000,0.008273000,0.054593000,-0.013656340,-0.024291670,-0.008037100,-0.999579320,0.027728000,0.048362000,0.016751000,-0.000133450,-0.002066164,0.001639959,-0.106772160,0.162681197,0.001603318,0.014082858,0.003326436,0.997815511,0.002336137,-0.002074581,-0.004380695,0.000000000,0.000000000,0.000000000,0.000000000,0.014955228,0.007958896,0.054548381,0.048634239,-0.019782724,0.000143660,0.014377718,-0.004196907,-0.001995963,0.481329382,-0.042399505,0.619690086,0.004198312,0.000392712,0.005406182,0.999975452,0.000000000,0.000000000,0.000000000,0.000000000,0.000000000,0.000000000,0.579372585,0.000000000,4.017008781
1772683564.452608109,0.014018000,0.008288000,0.054589000,-0.013292310,-0.024617110,-0.008021660,-0.999576390,0.027004000,0.049020000,0.016712000,0.000222261,0.000664531,-0.000754566,-0.051265162,0.078281905,0.002092710,0.014071813,0.003971999,0.999537089,-0.000248213,0.001216277,-0.002032189,0.000000000,0.000000000,0.000000000,0.000000000,0.014968933,0.007959444,0.054541296,0.048804637,-0.019702424,-0.000059979,0.014696670,-0.004561395,-0.000671268,0.481143492,-0.041478302,0.617198477,0.004196742,0.000384573,0.005384474,0.999975622,0.000000000,0.000000000,0.000000000,0.000000000,0.000000000,0.000000000,0.579372585,0.000000000,4.017008781
1772683564.462607861,0.014021000,0.008283000,0.054584000,-0.013032940,-0.025041950,-0.007919170,-0.999570070,0.026487000,0.049877000,0.016506000,0.000713365,0.005805464,-0.005520304,0.105329616,-0.152943374,-0.001426390,0.013562645,0.003752924,0.999066616,0.000256663,0.002372661,-0.001567594,0.000000000,0.000000000,0.000000000,0.000000000,0.014973851,0.007933077,0.054568591,0.048942142,-0.019739714,-0.000008447,0.014562285,-0.004883909,-0.000685041,0.481220012,-0.041282529,0.616842534,0.004197420,0.000382855,0.005381375,0.999975622,0.000000000,0.000000000,0.000000000,0.000000000,0.000000000,0.000000000,0.579372585,0.000000000,4.017008781
1772683564.472607851,0.014023000,0.008285000,0.054595000,-0.012930480,-0.025392860,-0.007980130,-0.999562070,0.026292000,0.050579000,0.016632000,0.000749088,0.004675082,-0.004277238,0.167618485,-0.239263905,-0.008309099,0.013862840,0.003583234,0.999108998,-0.003543556,0.002688869,0.003714825,0.000000000,0.000000000,0.000000000,0.000000000,0.014971095,0.007919641,0.054587547,0.049037127,-0.019721152,0.000002674,0.014677450,-0.004747756,-0.000327702,0.481061077,-0.042123328,0.616560660,0.004195995,0.000390175,0.005378885,0.999975670,0.000000000,0.000000000,0.000000000,0.000000000,0.000000000,0.000000000,0.579372585,0.000000000,4.017008781
1772683564.482607841,0.014049000,0.008474000,0.054412000,-0.015180290,-0.022038270,-0.007855960,-0.999611000,0.030729000,0.043835000,0.016391000,0.000513443,0.004095789,-0.003821993,0.208839772,-0.302952009,-0.013022109,0.012784941,0.001512258,1.002488422,0.002074259,-0.004565128,-0.007056149,0.000000000,0.000000000,0.000000000,0.000000000,0.014965413,0.007944521,0.054562712,0.049106797,-0.019602342,-0.000122985,0.014033602,-0.006140407,0.001626278,0.479358630,-0.042977331,0.616605943,0.004181098,0.000397549,0.005379254,0.999975726,0.000000000,0.000000000,0.000000000,0.000000000,0.000000000,0.000000000,0.579372585,0.000000000,4.017008781
1772683564.492608070,0.014037000,0.008495000,0.054395000,-0.016646960,-0.020046260,-0.007741960,-0.999630480,0.033625000,0.039830000,0.016159000,0.000152428,0.001989007,-0.001831626,0.188448084,-0.271969233,-0.011686165,0.011842158,0.002740174,1.003342644,0.002163886,-0.002941186,-0.003216643,0.000000000,0.000000000,0.000000000,0.000000000,0.014959572,0.007992982,0.054507772,0.049095493,-0.019529621,-0.000201569,0.012317517,-0.007290239,0.003406818,0.478544866,-0.042929972,0.614772912,0.004174005,0.000397031,0.005363263,0.999975817,0.000000000,0.000000000,0.000000000,0.000000000,0.000000000,0.000000000,0.579372585,0.000000000,4.017008781
1772683564.502607822,0.014041000,0.008480000,0.054406000,-0.017624140,-0.018551730,-0.007550250,-0.999644050,0.035547000,0.036832000,0.015760000,-0.000384266,-0.001004138,0.001194679,0.096504737,-0.143586888,-0.011015981,0.013602701,0.005176230,1.002003120,-0.000369814,-0.001205300,-0.000415036,0.000000000,0.000000000,0.000000000,0.000000000,0.014958619,0.007981568,0.054515589,0.049014946,-0.019649798,0.000111866,0.014190811,-0.002921239,0.002234156,0.478407154,-0.042525864,0.613138567,0.004172828,0.000393438,0.005349016,0.999975891,0.000000000,0.000000000,0.000000000,0.000000000,0.000000000,0.000000000,0.579372585,0.000000000,4.017008781
1772683564.512607813,0.014036000,0.008307000,0.054567000,-0.016104760,-0.020788110,-0.007560030,-0.999625600,0.032545000,0.041329000,0.015798000,-0.000870960,-0.003814009,0.003792078,-0.034118091,0.043752255,-0.007936214,0.014126616,0.004926717,1.000416326,0.001275820,-0.000657046,0.000779553,0.000000000,0.000000000,0.000000000,0.000000000,0.014956429,0.008022725,0.054483872,0.049038645,-0.019336163,0.000139327,0.015130343,-0.003494459,0.001283194,0.478359678,-0.042136446,0.612575463,0.004172434,0.000390017,0.005344116,0.999975920,0.000000000,0.000000000,0.000000000,0.000000000,0.000000000,0.000000000,0.579372585,0.000000000,4.017008781
1772683564.522607565,0.014025000,0.008441000,0.054446000,-0.017033770,-0.019213660,-0.007564030,-0.999641670,0.034378000,0.038165000,0.015789000,-0.001102585,-0.005861622,0.005712826,-0.166831489,0.244401033,0.001356621,0.013763907,0.004875419,0.999201106,0.001953518,0.002990329,-0.002097647,0.000000000,0.000000000,0.000000000,0.000000000,0.014968116,0.007969293,0.054532711,0.049211047,-0.019348052,0.000399757,0.014309017,-0.003700944,-0.000841702,0.478183414,-0.042278564,0.612785784,0.004170888,0.000391257,0.005345947,0.999975920,0.000000000,0.000000000,0.000000000,0.000000000,0.000000000,0.000000000,0.579372585,0.000000000,4.017008781
1772683564.532607555,0.014010000,0.008322000,0.054575000,-0.015660900,-0.021551400,-0.007593460,-0.999616230,0.031671000,0.042862000,0.015871000,-0.000803050,-0.002382384,0.002417640,-0.170342215,0.244430640,0.002089684,0.013980912,0.003507212,0.999827480,0.001880734,-0.000818340,-0.003510381,0.000000000,0.000000000,0.000000000,0.000000000,0.014972748,0.007935681,0.054576978,0.049295579,-0.019326212,0.000506625,0.014987977,-0.003682443,-0.000447143,0.477956462,-0.043103510,0.611931592,0.004168872,0.000398414,0.005338464,0.999975965,0.000000000,0.000000000,0.000000000,0.000000000,0.000000000,0.000000000,0.579372585,0.000000000,4.017008781
1772683564.542606831,0.014004000,0.008288000,0.054596000,-0.014481150,-0.022974000,-0.007695970,-0.999601550,0.029339000,0.045723000,0.016069000,-0.000197378,-0.000220960,0.000084208,-0.124207759,0.181459866,0.000549738,0.014314194,0.002878697,1.000403168,0.000661373,-0.001898596,-0.001023931,0.000000000,0.000000000,0.000000000,0.000000000,0.014977430,0.007919944,0.054598498,0.049445544,-0.019284739,0.000561070,0.015153229,-0.005845478,0.000852861,0.477716660,-0.043338413,0.610403443,0.004166774,0.000400397,0.005325121,0.999976052,0.000000000,0.000000000,0.000000000,0.000000000,0.000000000,0.000000000,0.579372585,0.000000000,4.017008781
1772683564.552606821,0.014003000,0.008290000,0.054587000,-0.013772270,-0.024009180,-0.007763270,-0.999586720,0.027941000,0.047803000,0.016201000,0.000492036,0.000543046,-0.000746621,-0.067713252,0.099021643,-0.007508549,0.014181166,0.003254768,1.000456786,-0.001851365,0.002218142,0.000725341,0.000000000,0.000000000,0.000000000,0.000000000,0.014976162,0.007915054,0.054602417,0.049581641,-0.019346190,0.000617427,0.014586046,-0.005542201,0.000869526,0.477274837,-0.042667670,0.609143237,0.004162954,0.000394478,0.005314150,0.999976106,0.000000000,0.000000000,0.000000000,0.000000000,0.000000000,0.000000000,0.579372585,0.000000000,4.017008781
1772683564.562607050,0.014010000,0.008284000,0.054593000,-0.013351010,-0.024780590,-0.007746880,-0.999573740,0.027111000,0.049353000,0.016169000,0.000829002,-0.001233373,0.001152701,-0.066696244,0.097820920,-0.010996635,0.014020461,0.002421220,1.001084786,-0.002546988,0.002821826,-0.001154546,0.000000000,0.000000000,0.000000000,0.000000000,0.014972027,0.007913386,0.054598751,0.049685347,-0.019342496,0.000627250,0.014910634,-0.006094840,0.000935834,0.476152953,-0.043396902,0.607470901,0.004153136,0.000400729,0.005299534,0.999976221,0.000000000,0.000000000,0.000000000,0.000000000,0.000000000,0.000000000,0.579372585,0.000000000,4.017008781
1772683564.572607040,0.014026000,0.008434000,0.054459000,-0.014799120,-0.022425490,-0.007440390,-0.999611290,0.029955000,0.044628000,0.015555000,0.000561384,0.001462414,-0.001220941,0.007710907,-0.009994091,-0.009962108,0.014659155,0.001654062,1.001814809,0.000685714,0.000726345,0.000056819,0.000000000,0.000000000,0.000000000,0.000000000,0.014969631,0.007914427,0.054595562,0.049840064,-0.019410816,0.000669723,0.015465415,-0.005883111,0.001138466,0.475307910,-0.044083917,0.606823174,0.004145733,0.000406661,0.005293860,0.999976333,0.000000000,0.000000000,0.000000000,0.000000000,0.000000000,0.000000000,0.579372585,0.000000000,4.017008781
