t,px,py,pz,qx,qy,qz,qw,roll,pitch,yaw,vx,vy,vz,wx_vicon,wy_vicon,wz_vicon,imu_acc_x,imu_acc_y,imu_acc_z,imu_gyro_x,imu_gyro_y,imu_gyro_z,motor_motor_m1,motor_motor_m2,motor_motor_m3,motor_motor_m4,est_stateEstimate_x,est_stateEstimate_y,est_stateEstimate_z,est_stateEstimate_vx,est_stateEstimate_vy,est_stateEstimate_vz,est_stateEstimate_ax,est_stateEstimate_ay,est_stateEstimate_az,att_stateEstimate_roll,att_stateEstimate_pitch,att_stateEstimate_yaw,att_stateEstimate_qx,att_stateEstimate_qy,att_stateEstimate_qz,att_stateEstimate_qw,sp_ctrltarget_x,sp_ctrltarget_y,sp_ctrltarget_z,sp_ctrltarget_yaw,pid_controller_roll,pid_controller_pitch,pid_controller_yaw,pid_controller_cmd_thrust,pwr_pm_vbat
1772682990.517960310,0.016823000,0.010834000,0.054066000,-0.002470530,0.006298880,0.040827940,0.999143280,-0.004423000,0.012789000,0.081652000,0.001281373,0.000312724,-0.000780556,0.011583677,-0.027319702,0.003604149,0.008347233,-0.002585094,0.999127396,-0.001423248,0.001708800,0.001993093,0.000000000,0.000000000,0.000000000,0.000000000,0.017004103,0.010847407,0.054064823,0.017577826,0.000721618,0.000302651,0.004828053,0.001139526,-0.000605698,-0.221262557,0.144748068,3.665491321,-0.001889489,-0.001324271,0.031979437,0.999483118,0.000000000,0.000000000,0.000000000,0.000000000,0.000000000,0.000000000,3.663581614,0.000000000,4.090909004
1772682990.527959824,0.016817000,0.010839000,0.054064000,-0.002427860,0.006130820,0.040799850,0.999145580,-0.004352000,0.012450000,0.081597000,0.000876594,0.000194775,-0.000044542,0.006663239,0.011853879,0.005417371,0.008334457,-0.002766483,0.999051275,0.000112582,0.003849332,-0.003713137,0.000000000,0.000000000,0.000000000,0.000000000,0.017003279,0.010848467,0.054067089,0.017597224,0.000845244,0.000199648,0.005615803,0.002355626,-0.000261983,-0.221096158,0.145375270,3.672395409,-0.001887783,-0.001329809,0.032039647,0.999481283,0.000000000,0.000000000,0.000000000,0.000000000,0.000000000,0.000000000,3.670285096,0.000000000,4.090909004
1772682990.537959099,0.016833000,0.010838000,0.054065000,-0.002426560,0.006220490,0.040841660,0.999143320,-0.004341000,0.012629000,0.081680000,0.000498971,0.000112374,0.000279002,0.004085309,0.026387539,0.004230227,0.007977366,-0.001967174,1.001925223,-0.001982738,0.002445642,0.001309663,0.000000000,0.000000000,0.000000000,0.000000000,0.017004772,0.010849260,0.054071293,0.017672180,0.001024328,0.000116055,0.004985522,0.002491192,0.001583417,-0.221013998,0.146295273,3.680329562,-0.001886716,-0.001337941,0.032108837,0.999478967,0.000000000,0.000000000,0.000000000,0.000000000,0.000000000,0.000000000,3.678238623,0.000000000,4.090909004
1772682990.547959089,0.016843000,0.010839000,0.054064000,-0.002389030,0.006593380,0.040892030,0.999138960,-0.004235000,0.013371000,0.081781000,0.000170183,0.000055031,0.000304060,0.003147525,0.023234100,0.001090516,0.007733232,-0.002656255,1.001737114,-0.003676477,0.003069290,-0.000082981,0.000000000,0.000000000,0.000000000,0.000000000,0.017012281,0.010845588,0.054074820,0.017728460,0.001222647,0.000236341,0.005352084,0.001640498,0.002135188,-0.221973245,0.146708379,3.685922012,-0.001894902,-0.001341905,0.032157592,0.999477194,0.000000000,0.000000000,0.000000000,0.000000000,0.000000000,0.000000000,3.684663165,0.000000000,4.090909004
1772682990.557959080,0.016850000,0.010844000,0.054068000,-0.002340090,0.006611440,0.040910750,0.999138190,-0.004136000,0.013403000,0.081819000,-0.000088093,0.000012257,0.000144619,0.003146292,0.009345279,-0.002951518,0.008300200,-0.003737327,1.000337967,-0.000321213,0.003022043,-0.003691479,0.000000000,0.000000000,0.000000000,0.000000000,0.017039043,0.010846314,0.054076883,0.017806672,0.001396124,0.000412773,0.004572313,0.001018662,0.000515871,-0.222625213,0.147094107,3.690773767,-0.001900423,-0.001345533,0.032199901,0.999476456,0.000000000,0.000000000,0.000000000,0.000000000,0.000000000,0.000000000,3.689587993,0.000000000,4.090909004
1772682990.567958355,0.016837000,0.010833000,0.054077000,-0.002376440,0.006612490,0.040844820,0.999140790,-0.004209000,0.013408000,0.081686000,-0.000254177,-0.000026437,-0.000085334,0.003378191,-0.008325959,-0.006845664,0.009628488,-0.004415780,1.000079817,-0.001367794,0.005324520,-0.000653463,0.000000000,0.000000000,0.000000000,0.000000000,0.017178166,0.010858135,0.054080040,0.018191468,0.001518579,0.000525040,0.007256777,-0.000616147,-0.000177400,-0.222786446,0.146012755,3.696141335,-0.001902071,-0.001336236,0.032246732,0.999476604,0.000000000,0.000000000,0.000000000,0.000000000,0.000000000,0.000000000,3.694765534,0.000000000,4.090909004
1772682990.577957869,0.016824000,0.010839000,0.054067000,-0.002404570,0.006240180,0.040749450,0.999147020,-0.004297000,0.012666000,0.081496000,-0.000280517,-0.000143881,-0.000083197,0.001781435,-0.015394584,-0.011002535,0.008649352,-0.003096501,1.001165676,-0.003962121,0.002413621,0.000910477,0.000000000,0.000000000,0.000000000,0.000000000,0.017018483,0.010850676,0.054072003,0.017835158,0.001479585,0.000442882,0.006197553,0.000888928,0.000926430,-0.222873409,0.146688325,3.701046220,-0.001902581,-0.001342234,0.032289499,0.999473277,0.000000000,0.000000000,0.000000000,0.000000000,0.000000000,0.000000000,3.699871083,0.000000000,4.090909004
1772682990.587958097,0.016824000,0.010844000,0.054061000,-0.002282890,0.006316150,0.040733680,0.999147470,-0.004048000,0.012808000,0.081466000,-0.000066706,-0.000240909,-0.000004448,-0.001246231,-0.010843039,-0.006581467,0.008243927,-0.003607619,1.000527800,-0.005092563,0.000472222,0.000459269,0.000000000,0.000000000,0.000000000,0.000000000,0.017001809,0.010850639,0.054070407,0.017911006,0.001480481,0.000492723,0.005561780,0.000851577,0.000528509,-0.223537232,0.147791551,3.704939928,-0.001908014,-0.001352109,0.032323433,0.999471786,0.000000000,0.000000000,0.000000000,0.000000000,0.000000000,0.000000000,3.704200627,0.000000000,4.090909004
1772682990.597957611,0.016831000,0.010839000,0.054063000,-0.002325070,0.006262500,0.040719960,0.999148270,-0.004137000,0.012704000,0.081438000,-0.000009110,-0.000151224,0.000109091,-0.002564690,-0.003142745,-0.001166425,0.008961713,-0.004122989,1.000691264,-0.000557195,0.000522908,-0.001920777,0.000000000,0.000000000,0.000000000,0.000000000,0.017009270,0.010852851,0.054070824,0.018016322,0.001501731,0.000523519,0.006092539,0.000168370,0.000743810,-0.224776425,0.148402288,3.708065132,-0.001918613,-0.001357837,0.032350664,0.999470417,0.000000000,0.000000000,0.000000000,0.000000000,0.000000000,0.000000000,3.707649782,0.000000000,4.090909004
1772682990.607958078,0.016845000,0.010827000,0.054068000,-0.002348720,0.006321620,0.040719910,0.999147840,-0.004179000,0.012824000,0.081437000,-0.000063831,0.000089219,0.000007653,-0.005021768,-0.003947947,0.002260086,0.007624409,-0.004396355,0.998532167,-0.000518852,0.002633904,-0.002755090,0.000000000,0.000000000,0.000000000,0.000000000,0.017017523,0.010855385,0.054071536,0.018111845,0.001527025,0.000543454,0.005582519,-0.000175304,-0.001039466,-0.224745341,0.149688017,3.714766930,-0.001917899,-0.001369155,0.032409101,0.999469059,0.000000000,0.000000000,0.000000000,0.000000000,0.000000000,0.000000000,3.713589131,0.000000000,4.090909004
1772682990.617957830,0.016833000,0.010832000,0.054075000,-0.002413550,0.006432540,0.040696210,0.999147940,-0.004300000,0.013051000,0.081389000,-0.000216259,0.000321582,0.000033469,-0.003247135,-0.006863658,0.003632187,0.007381876,-0.002097497,1.000785728,-0.000333294,0.000003937,-0.002119069,0.000000000,0.000000000,0.000000000,0.000000000,0.017016176,0.010851542,0.054076755,0.018116118,0.001446930,0.000546098,0.005471197,-0.000196102,-0.001302935,-0.225185958,0.150845043,3.721089242,-0.001921339,-0.001379477,0.032464217,0.999467354,0.000000000,0.000000000,0.000000000,0.000000000,0.000000000,0.000000000,3.719428413,0.000000000,4.090909004
1772682990.627957582,0.016824000,0.010839000,0.054071000,-0.002426790,0.006295030,0.040863510,0.999141960,-0.004335000,0.012778000,0.081724000,-0.000328885,0.000364763,-0.000068512,-0.001678964,-0.008489662,0.003359431,0.008185813,-0.003321551,1.000678949,0.001706368,-0.001637534,-0.000289056,0.000000000,0.000000000,0.000000000,0.000000000,0.017007157,0.010853533,0.054073406,0.018036069,0.001602483,0.000456313,0.005874683,-0.000172702,-0.000364104,-0.223827284,0.152021284,3.726779047,-0.001909086,-0.001389446,0.032513841,0.999465752,0.000000000,0.000000000,0.000000000,0.000000000,0.000000000,0.000000000,3.725522113,0.000000000,4.090909004
1772682990.637957096,0.016816000,0.010848000,0.054066000,-0.002396410,0.006080370,0.040756130,0.999147750,-0.004293000,0.012346000,0.081510000,-0.000054060,0.000161208,-0.000187432,0.003067466,0.004921683,0.007177850,0.009707719,-0.004433532,1.000609768,-0.001287302,0.001892843,0.000239259,0.000000000,0.000000000,0.000000000,0.000000000,0.017004289,0.010856267,0.054069786,0.018010400,0.001755957,0.000528555,0.006466685,-0.000097439,0.000537658,-0.223730758,0.152593850,3.730818027,-0.001908033,-0.001394480,0.032549052,0.999464494,0.000000000,0.000000000,0.000000000,0.000000000,0.000000000,0.000000000,3.729885175,0.000000000,4.090909004
1772682990.647957087,0.016824000,0.010851000,0.054053000,-0.002404010,0.006116500,0.040768780,0.999146990,-0.004306000,0.012419000,0.081535000,0.000488967,-0.000179449,-0.000119988,0.004432727,0.013840539,0.006849504,0.009833005,-0.004329448,1.000821420,-0.001292157,0.001593513,0.000070170,0.000000000,0.000000000,0.000000000,0.000000000,0.017007867,0.010854250,0.054069741,0.018095401,0.001728410,0.000586339,0.007749105,0.000089958,0.000932031,-0.224592257,0.153302456,3.735451749,-0.001915289,-0.001400982,0.032589449,0.999463240,0.000000000,0.000000000,0.000000000,0.000000000,0.000000000,0.000000000,3.734692592,0.000000000,4.090909004
1772682990.657956839,0.016836000,0.010847000,0.054070000,-0.002265730,0.006329870,0.040845060,0.999142870,-0.004011000,0.012834000,0.081689000,0.000883820,-0.000341181,-0.000038656,0.003082572,0.023421330,0.005251952,0.008566980,-0.005250230,0.999380090,-0.000789568,0.004177316,0.003062784,0.000000000,0.000000000,0.000000000,0.000000000,0.017013487,0.010849536,0.054073027,0.018341452,0.001650631,0.000641571,0.006641378,-0.000826381,-0.000336254,-0.223815235,0.153455680,3.740908796,-0.001908401,-0.001402189,0.032637052,0.999461856,0.000000000,0.000000000,0.000000000,0.000000000,0.000000000,0.000000000,3.739471293,0.000000000,4.090909004
1772682990.667956829,0.016840000,0.010825000,0.054068000,-0.002399410,0.006613720,0.040888510,0.999138940,-0.004254000,0.013413000,0.081773000,0.000482499,-0.000218065,0.000127914,-0.001918753,0.020382617,0.001891831,0.007249359,-0.005889424,0.998966510,-0.002026831,0.001944918,0.002399435,0.000000000,0.000000000,0.000000000,0.000000000,0.017012253,0.010849224,0.054076394,0.018487127,0.001639111,0.000703363,0.005499422,-0.001697112,-0.001500469,-0.224278532,0.153608914,3.745613856,-0.001912341,-0.001403736,0.032678083,0.999460474,0.000000000,0.000000000,0.000000000,0.000000000,0.000000000,0.000000000,3.744406014,0.000000000,4.090909004
1772682990.677956343,0.016853000,0.010828000,0.054064000,-0.002376970,0.006692850,0.040973420,0.999134990,-0.004202000,0.013569000,0.081943000,0.000036810,0.000026865,0.000114549,-0.006572067,0.003284051,0.002637681,0.006591348,-0.004485262,0.999664372,-0.001107992,-0.001151182,-0.000979376,0.000000000,0.000000000,0.000000000,0.000000000,0.017008293,0.010851788,0.054076762,0.018480998,0.001526801,0.000639298,0.003651553,-0.001625941,-0.000515847,-0.224717666,0.154998848,3.749579983,-0.001915725,-0.001416050,0.032712644,0.999459114,0.000000000,0.000000000,0.000000000,0.000000000,0.000000000,0.000000000,3.748672016,0.000000000,4.090909004
1772682990.687957048,0.016851000,0.010839000,0.054068000,-0.002402820,0.006473470,0.040824450,0.999142470,-0.004273000,0.013132000,0.081645000,-0.000178807,0.000167580,0.000038131,-0.008381067,-0.016868192,-0.000838051,0.006660922,-0.002375167,0.999802316,0.002071141,0.001735304,-0.000496193,0.000000000,0.000000000,0.000000000,0.000000000,0.017001911,0.010856999,0.054074027,0.018371782,0.001378830,0.000505642,0.004015203,0.001614543,0.000025837,-0.225310819,0.155715884,3.753687931,-0.001920643,-0.001422543,0.032748453,0.999458072,0.000000000,0.000000000,0.000000000,0.000000000,0.000000000,0.000000000,3.752584383,0.000000000,4.090909004
1772682990.697956324,0.016835000,0.010850000,0.054063000,-0.002473560,0.006450020,0.040861670,0.999140930,-0.004416000,0.013091000,0.081719000,-0.000239627,0.000256003,-0.000104953,-0.008748585,-0.020626564,0.000077806,0.005893210,-0.002755428,0.999391261,0.002306636,0.000981368,0.001219769,0.000000000,0.000000000,0.000000000,0.000000000,0.017002128,0.010860547,0.054066070,0.018203058,0.001400125,0.000429351,0.003195620,0.001619123,-0.000420776,-0.225195771,0.157125026,3.757757176,-0.001919186,-0.001434868,0.032783922,0.999457091,0.000000000,0.000000000,0.000000000,0.000000000,0.000000000,0.000000000,3.756726779,0.000000000,4.090909004
1772682990.707956076,0.016821000,0.010844000,0.054069000,-0.002512920,0.006153050,0.040851250,0.999143130,-0.004519000,0.012501000,0.081699000,-0.000183003,0.000095979,0.000029662,-0.005672341,-0.016283169,0.001758571,0.005664807,-0.003328387,0.999660466,-0.000430447,0.004971461,-0.000749553,0.000000000,0.000000000,0.000000000,0.000000000,0.017006683,0.010855587,0.054068068,0.018014213,0.001467413,0.000352235,0.002725024,0.000780010,-0.000061569,-0.223826157,0.158073960,3.761621571,-0.001906920,-0.001442817,0.032817631,0.999457908,0.000000000,0.000000000,0.000000000,0.000000000,0.000000000,0.000000000,3.760628202,0.000000000,4.090909004
1772682990.717956066,0.016843000,0.010839000,0.054065000,-0.002507610,0.006164590,0.040932250,0.999139760,-0.004507000,0.012524000,0.081861000,-0.000212083,-0.000274864,-0.000008353,-0.005391552,-0.010438947,0.002926958,0.005592299,-0.003427755,1.000381559,0.001914260,0.000704737,0.000475710,0.000000000,0.000000000,0.000000000,0.000000000,0.017021537,0.010850967,0.054070936,0.017837100,0.001532054,0.000280366,0.002831562,-0.000488999,-0.000024617,-0.223432590,0.157406092,3.763975432,-0.001903649,-0.001436919,0.032884398,0.999454314,0.000000000,0.000000000,0.000000000,0.000000000,0.000000000,0.000000000,3.766854867,0.000000000,4.090909004
1772682990.727955818,0.016848000,0.010832000,0.054067000,-0.002507300,0.006246490,0.040917770,0.999139850,-0.004499000,0.012688000,0.081832000,-0.000076865,-0.000118765,0.000022766,0.000387202,-0.006136467,0.001754651,0.006306641,-0.002951196,1.000674013,0.001206494,0.000332226,-0.000931410,0.000000000,0.000000000,0.000000000,0.000000000,0.017640196,0.010900048,0.054088462,0.018270026,0.001255109,0.000559573,0.002975652,-0.001786682,-0.000031650,-0.220326413,0.182010492,3.780785049,-0.001869257,-0.001650899,0.032996059,0.999450857,0.000000000,0.000000000,0.000000000,0.000000000,0.000000000,0.000000000,3.778509074,0.000000000,4.090909004
1772682990.737955093,0.016833000,0.010840000,0.054065000,-0.002552330,0.006378260,0.040947740,0.999137670,-0.004578000,0.012955000,0.081891000,-0.000070940,-0.000036810,0.000030206,0.003035783,-0.004508269,-0.004888286,0.006421177,-0.005756444,1.000310683,-0.001095013,0.004908189,0.001378191,0.000000000,0.000000000,0.000000000,0.000000000,0.017350617,0.010879778,0.054081286,0.016318589,0.001409747,0.000583036,0.003119736,-0.003084304,-0.000038682,-0.220018081,0.178719338,3.796483068,-0.001867300,-0.001622362,0.033121377,0.999447404,0.000000000,0.000000000,0.000000000,0.000000000,0.000000000,0.000000000,3.793042767,0.000000000,4.090909004
1772682990.747955084,0.016830000,0.010836000,0.054067000,-0.002526250,0.006109730,0.040862820,0.999142890,-0.004549000,0.012416000,0.081722000,-0.000087393,0.000125330,0.000056371,0.002816706,0.002236519,-0.007217206,0.006156333,-0.004829731,1.003718552,-0.001065984,0.002194263,-0.000013563,0.000000000,0.000000000,0.000000000,0.000000000,0.017166323,0.010865624,0.054076616,0.015341846,0.001361554,0.000647924,0.003814163,-0.002267103,-0.000327785,-0.218380316,0.175877552,3.807581186,-0.001853683,-0.001597282,0.033218244,0.999443961,0.000000000,0.000000000,0.000000000,0.000000000,0.000000000,0.000000000,3.809604499,0.000000000,4.090909004
1772682990.757955074,0.016825000,0.010840000,0.054066000,-0.002481510,0.006031290,0.040843170,0.999144280,-0.004466000,0.012255000,0.081683000,-0.000060315,0.000048660,0.000077661,0.000520631,0.007474696,-0.005856240,0.008438481,-0.002702111,0.999288307,-0.002170976,0.000861052,-0.000705961,0.000000000,0.000000000,0.000000000,0.000000000,0.017063379,0.010856195,0.054073883,0.015118174,0.001156662,0.000744812,0.005183969,0.001145563,-0.000963047,-0.218367686,0.173167235,3.814487614,-0.001854263,-0.001573752,0.033278529,0.999442618,0.000000000,0.000000000,0.000000000,0.000000000,0.000000000,0.000000000,3.813516395,0.000000000,4.090909004
1772682990.767955303,0.016835000,0.010850000,0.054071000,-0.002423280,0.006205430,0.040782830,0.999145830,-0.004337000,0.012598000,0.081563000,0.000192677,0.000009926,-0.000065132,-0.001364977,0.013371783,-0.001925440,0.008243100,-0.003662233,1.000395764,0.003411616,-0.003030883,0.002133991,0.000000000,0.000000000,0.000000000,0.000000000,0.016975396,0.010848774,0.054071419,0.014956331,0.001007340,0.000820489,0.005395731,0.001466225,0.000394227,-0.217886540,0.171681883,3.818449227,-0.001850444,-0.001560721,0.033313113,0.999439423,0.000000000,0.000000000,0.000000000,0.000000000,0.000000000,0.000000000,3.817476030,0.000000000,4.090909004
1772682990.777955294,0.016838000,0.010829000,0.054065000,-0.002533270,0.006350130,0.040782980,0.999144640,-0.004545000,0.012896000,0.081561000,0.000165579,-0.000026807,-0.000067949,-0.003505144,0.016989472,0.000450214,0.007287153,-0.005146498,0.999876634,0.001733949,-0.003149047,0.001255085,0.000000000,0.000000000,0.000000000,0.000000000,0.016999089,0.010854066,0.054071971,0.015197616,0.001140355,0.000790601,0.004722030,-0.001862860,0.000485486,-0.216221103,0.172800098,3.822842776,-0.001835533,-0.001570060,0.033351435,0.999438885,0.000000000,0.000000000,0.000000000,0.000000000,0.000000000,0.000000000,3.821759702,0.000000000,4.090909004
1772682990.787955046,0.016843000,0.010841000,0.054070000,-0.002550720,0.006486910,0.040842160,0.999141300,-0.004568000,0.013171000,0.081679000,-0.000119173,0.000039744,-0.000063850,-0.002971161,0.011360384,0.001203886,0.007034516,-0.004241092,0.999490554,-0.000806408,-0.000054977,-0.000122556,0.000000000,0.000000000,0.000000000,0.000000000,0.017109178,0.010862540,0.054078216,0.015561926,0.001069197,0.000829036,0.003681203,-0.000518992,-0.001117301,-0.215383806,0.173285095,3.826246841,-0.001828042,-0.001574101,0.033381127,0.999438683,0.000000000,0.000000000,0.000000000,0.000000000,0.000000000,0.000000000,3.825549246,0.000000000,4.090909004
1772682990.797954321,0.016833000,0.010838000,0.054062000,-0.002575200,0.006495000,0.040879300,0.999139660,-0.004615000,0.013190000,0.081753000,-0.000421970,0.000286364,-0.000038364,0.001138391,-0.009839341,-0.000588598,0.007731266,-0.003939184,1.000684684,-0.002642604,0.002881952,0.001176081,0.000000000,0.000000000,0.000000000,0.000000000,0.016973341,0.010856025,0.054074238,0.015244358,0.000925346,0.000761331,0.004490112,0.000185694,0.000843418,-0.215379071,0.173410020,3.827465096,-0.001827948,-0.001575209,0.033391752,0.999436496,0.000000000,0.000000000,0.000000000,0.000000000,0.000000000,0.000000000,3.827307736,0.000000000,4.090909004
1772682990.807954073,0.016826000,0.010846000,0.054062000,-0.002538010,0.006309100,0.040814010,0.999143620,-0.004557000,0.012815000,0.081623000,-0.000452506,0.000306022,-0.000011869,0.004025157,-0.020432839,-0.001929826,0.007898486,-0.004267492,1.000959701,-0.001438159,0.003071606,0.000378447,0.000000000,0.000000000,0.000000000,0.000000000,0.016973404,0.010856843,0.054073998,0.015260150,0.000931119,0.000752191,0.004992283,0.000177044,0.000636811,-0.215510105,0.173575618,3.828151251,-0.001829033,-0.001576702,0.033397733,0.999436296,0.000000000,0.000000000,0.000000000,0.000000000,0.000000000,0.000000000,3.828005029,0.000000000,4.090909004
1772682990.817953825,0.016823000,0.010845000,0.054070000,-0.002505530,0.006238820,0.040782290,0.999145440,-0.004498000,0.012672000,0.081561000,-0.000025894,0.000049165,0.000034091,0.006255744,-0.013979840,-0.003795589,0.008065705,-0.004595799,1.001234718,-0.000233713,0.003261261,-0.000419186,0.000000000,0.000000000,0.000000000,0.000000000,0.016973468,0.010857660,0.054073759,0.015275941,0.000936893,0.000743050,0.005494454,0.000168393,0.000430203,-0.215641140,0.173741217,3.828837406,-0.001830118,-0.001578196,0.033403714,0.999436096,0.000000000,0.000000000,0.000000000,0.000000000,0.000000000,0.000000000,3.828702321,0.000000000,4.090909004
1772682990.827953577,0.016824000,0.010847000,0.054067000,-0.002405430,0.006074320,0.040751370,0.999147960,-0.004312000,0.012335000,0.081500000,0.000169619,-0.000247164,0.000016822,0.003842693,0.000005838,-0.006006570,0.008232925,-0.004924106,1.001509735,0.000970732,0.003450915,-0.001216820,0.000000000,0.000000000,0.000000000,0.000000000,0.016973531,0.010858478,0.054073520,0.015291733,0.000942667,0.000733910,0.005996625,0.000159742,0.000223595,-0.215772174,0.173906815,3.829523561,-0.001831203,-0.001579689,0.033409695,0.999435896,0.000000000,0.000000000,0.000000000,0.000000000,0.000000000,0.000000000,3.829399614,0.000000000,4.090909004
1772682990.837953568,0.016824000,0.010855000,0.054065000,-0.002416410,0.006064600,0.040775490,0.999147010,-0.004334000,0.012316000,0.081549000,0.000241764,-0.000280342,0.000096504,0.001702589,0.009977588,-0.003669752,0.008400149,-0.005252421,1.001784759,0.002175206,0.003640574,-0.002014473,0.000000000,0.000000000,0.000000000,0.000000000,0.016973595,0.010859296,0.054073281,0.015307524,0.000948441,0.000724769,0.006498808,0.000151091,0.000016982,-0.215903212,0.174072417,3.830209732,-0.001832288,-0.001581183,0.033415677,0.999435696,0.000000000,0.000000000,0.000000000,0.000000000,0.000000000,0.000000000,3.830096923,0.000000000,4.090909004
1772682990.847953081,0.016840000,0.010828000,0.054066000,-0.002503520,0.006387430,0.040760700,0.999145380,-0.004482000,0.012968000,0.081517000,0.000078982,-0.000235412,0.000048135,0.001199673,0.011421793,-0.003284620,0.009341703,-0.004895874,1.000957367,0.000173260,0.004259044,-0.000500860,0.000000000,0.000000000,0.000000000,0.000000000,0.016974561,0.010858787,0.054073113,0.015335903,0.000937519,0.000729492,0.007000967,0.000142441,-0.000189621,-0.215413158,0.173235199,3.832205126,-0.001828231,-0.001573769,0.033433100,0.999435392,0.000000000,0.000000000,0.000000000,0.000000000,0.000000000,0.000000000,3.831683671,0.000000000,4.090909004
1772682990.857953310,0.016841000,0.010829000,0.054066000,-0.002456140,0.006496730,0.040723430,0.999146320,-0.004379000,0.013183000,0.081442000,0.000003205,0.000104021,-0.000024883,0.002855086,0.005627062,-0.002435753,0.010095954,-0.003648358,0.998932444,-0.003175909,0.001960368,0.000826122,0.000000000,0.000000000,0.000000000,0.000000000,0.016983214,0.010847332,0.054073577,0.015503047,0.000792672,0.000846060,0.007479120,0.000150415,-0.000416504,-0.215821373,0.171966698,3.835353918,-0.001832119,-0.001562875,0.033460578,0.999434642,0.000000000,0.000000000,0.000000000,0.000000000,0.000000000,0.000000000,3.834556315,0.000000000,4.090909004
1772682990.867952347,0.016820000,0.010848000,0.054069000,-0.002450110,0.006396770,0.040669880,0.999149160,-0.004376000,0.012982000,0.081336000,-0.000157634,0.000324690,-0.000013947,0.003044599,0.003074968,0.001108087,0.009452906,-0.002955403,0.998277521,-0.001416075,-0.001215984,-0.002157854,0.000000000,0.000000000,0.000000000,0.000000000,0.016987518,0.010843288,0.054074059,0.015794596,0.000758349,0.000858060,0.006487461,0.001174776,-0.001882203,-0.215300596,0.171136250,3.838012562,-0.001827783,-0.001555523,0.033483784,0.999434279,0.000000000,0.000000000,0.000000000,0.000000000,0.000000000,0.000000000,3.837402553,0.000000000,4.090909004
1772682990.877952099,0.016825000,0.010842000,0.054070000,-0.002404050,0.006211600,0.040758570,0.999146820,-0.004298000,0.012609000,0.081514000,-0.000112879,0.000321232,-0.000036480,0.003536240,-0.001889589,0.004470893,0.008330204,-0.003100061,0.999166937,-0.000552136,-0.000416570,-0.001793486,0.000000000,0.000000000,0.000000000,0.000000000,0.016981827,0.010849406,0.054075027,0.016045064,0.000836140,0.000672925,0.006208871,0.001298347,-0.001436154,-0.215135264,0.172037095,3.840230334,-0.001826047,-0.001563367,0.033503115,0.999434599,0.000000000,0.000000000,0.000000000,0.000000000,0.000000000,0.000000000,3.839698699,0.000000000,4.090909004
1772682990.887952089,0.016829000,0.010851000,0.054066000,-0.002350230,0.006245470,0.040696330,0.999149280,-0.004188000,0.012672000,0.081390000,0.000085528,0.000177079,0.000051923,0.001313956,-0.003468841,0.005045232,0.007242111,-0.003663035,1.000490087,-0.001910466,-0.001281923,0.002683672,0.000000000,0.000000000,0.000000000,0.000000000,0.016983410,0.010852515,0.054073990,0.016143755,0.000923870,0.000539228,0.004372537,0.000835193,-0.000588038,-0.215362363,0.171989438,3.843445267,-0.001827998,-0.001563069,0.033531150,0.999432791,0.000000000,0.000000000,0.000000000,0.000000000,0.000000000,0.000000000,3.842549083,0.000000000,4.090909004
1772682990.897952318,0.016836000,0.010854000,0.054062000,-0.002386430,0.006368740,0.040818600,0.999143430,-0.004249000,0.012922000,0.081634000,0.000405342,-0.000181158,0.000100311,-0.003386316,0.007129188,0.003306306,0.005865508,-0.003793483,1.000756868,-0.002408792,-0.000940390,0.002326009,0.000000000,0.000000000,0.000000000,0.000000000,0.016985182,0.010855203,0.054072926,0.016219745,0.000997141,0.000437477,0.002475613,0.000349632,0.000274993,-0.215615606,0.171776753,3.847119671,-0.001830219,-0.001561347,0.033563200,0.999432152,0.000000000,0.000000000,0.000000000,0.000000000,0.000000000,0.000000000,3.846829480,0.000000000,4.090909004
1772682990.907951832,0.016829000,0.010842000,0.054068000,-0.002473720,0.006503760,0.040845590,0.999141240,-0.004412000,0.013199000,0.081687000,0.000438365,-0.000260839,0.000090637,-0.006538789,0.012436789,-0.000934083,0.005249329,-0.003582807,0.999790922,0.000583321,0.001127652,0.002626017,0.000000000,0.000000000,0.000000000,0.000000000,0.016987935,0.010855710,0.054071716,0.016178137,0.000995500,0.000501211,0.002059051,0.000422243,-0.000000634,-0.215878532,0.171782282,3.850730758,-0.001832461,-0.001561530,0.033594694,0.999430152,0.000000000,0.000000000,0.000000000,0.000000000,0.000000000,0.000000000,3.849826301,0.000000000,4.090909004
1772682990.917950869,0.016842000,0.010834000,0.054072000,-0.002461760,0.006405200,0.040785140,0.999144380,-0.004397000,0.013001000,0.081566000,0.000181177,-0.000077234,-0.000040229,-0.009649336,0.004490244,-0.001879493,0.005630267,-0.001742190,1.000273716,0.000791785,-0.002974042,-0.000450220,0.000000000,0.000000000,0.000000000,0.000000000,0.016992184,0.010851997,0.054073202,0.016024227,0.000982083,0.000548291,0.002507532,0.001623044,0.000080347,-0.216063957,0.171962100,3.853912665,-0.001833982,-0.001563203,0.033622436,0.999430656,0.000000000,0.000000000,0.000000000,0.000000000,0.000000000,0.000000000,3.853240532,0.000000000,4.090909004
1772682990.927950859,0.016842000,0.010841000,0.054074000,-0.002493740,0.006399220,0.040715250,0.999147190,-0.004463000,0.012991000,0.081426000,-0.000039336,-0.000068396,-0.000157926,-0.008911864,-0.000409914,0.000919090,0.006466466,-0.002875961,1.001341668,0.000294660,0.000272297,0.002848753,0.000000000,0.000000000,0.000000000,0.000000000,0.016994939,0.010850220,0.054075764,0.015849106,0.001094435,0.000534605,0.002998230,0.001758204,0.001171405,-0.216117935,0.171573162,3.856512236,-0.001834532,-0.001559868,0.033645111,0.999428980,0.000000000,0.000000000,0.000000000,0.000000000,0.000000000,0.000000000,3.855751777,0.000000000,4.090909004
1772682990.937950611,0.016839000,0.010848000,0.054065000,-0.002566450,0.006540040,0.040761710,0.999144200,-0.004596000,0.013278000,0.081518000,-0.000117172,-0.000031721,-0.000137374,-0.005684996,0.002420305,0.004119660,0.006347093,-0.003894482,1.000186170,0.004024444,0.000938534,-0.000279603,0.000000000,0.000000000,0.000000000,0.000000000,0.016994984,0.010853079,0.054075255,0.015768422,0.001253038,0.000601421,0.003543644,0.000387491,0.000789798,-0.216263399,0.171503968,3.859164709,-0.001835785,-0.001559350,0.033668248,0.999428881,0.000000000,0.000000000,0.000000000,0.000000000,0.000000000,0.000000000,3.858215570,0.000000000,4.090909004
1772682990.947951078,0.016836000,0.010843000,0.054062000,-0.002594140,0.006413690,0.040786660,0.999143930,-0.004661000,0.013028000,0.081568000,-0.000256566,0.000103769,-0.000056100,-0.001241159,0.004382115,0.008003028,0.007840564,-0.004267618,0.998591372,0.001375287,0.001346578,0.000148689,0.000000000,0.000000000,0.000000000,0.000000000,0.016993479,0.010855598,0.054072798,0.015700041,0.001323608,0.000665894,0.004084354,-0.000332984,-0.000794615,-0.213994297,0.172855830,3.860884025,-0.001815574,-0.001570501,0.033683258,0.999428021,0.000000000,0.000000000,0.000000000,0.000000000,0.000000000,0.000000000,3.860383419,0.000000000,4.090909004
1772682990.957950354,0.016834000,0.010843000,0.054058000,-0.002595570,0.006346460,0.040921210,0.999138850,-0.004668000,0.012895000,0.081837000,-0.000289686,-0.000054662,0.000049728,0.003427960,0.007686751,0.011337445,0.008105552,-0.004624660,0.998874562,0.001607715,-0.000510985,0.000401157,0.000000000,0.000000000,0.000000000,0.000000000,0.017047324,0.010860163,0.054073062,0.015802615,0.001295089,0.000582179,0.005624398,-0.000303621,-0.001705921,-0.213952278,0.173634572,3.863781705,-0.001814938,-0.001577327,0.033708509,0.999427207,0.000000000,0.000000000,0.000000000,0.000000000,0.000000000,0.000000000,3.863089564,0.000000000,4.090909004
1772682990.967949152,0.016828000,0.010837000,0.054068000,-0.002547970,0.006660540,0.040922230,0.999136890,-0.004547000,0.013519000,0.081839000,-0.000061810,-0.000266201,0.000045785,0.006166224,0.006888642,0.009013441,0.007801131,-0.002615898,1.000783657,-0.001289536,0.002261343,0.000760659,0.000000000,0.000000000,0.000000000,0.000000000,0.017077649,0.010861399,0.054073568,0.015994514,0.001229717,0.000401821,0.004612737,0.000317160,0.000080604,-0.214078968,0.175051603,3.865279607,-0.001815606,-0.001589747,0.033721548,0.999426353,0.000000000,0.000000000,0.000000000,0.000000000,0.000000000,0.000000000,3.865094444,0.000000000,4.090909004
1772682990.977949142,0.016836000,0.010836000,0.054075000,-0.002511860,0.006626960,0.040956220,0.999135810,-0.004477000,0.013449000,0.081907000,0.000141958,-0.000105284,-0.000053127,0.008132269,0.004671447,0.004157457,0.006639837,-0.001297480,1.000792893,-0.001545148,0.000182227,0.001503833,0.000000000,0.000000000,0.000000000,0.000000000,0.016987056,0.010851149,0.054071820,0.015833737,0.001179067,0.000316967,0.004130651,0.003019153,0.001074441,-0.214168786,0.176862933,3.868177145,-0.001815815,-0.001605617,0.033746791,0.999426172,0.000000000,0.000000000,0.000000000,0.000000000,0.000000000,0.000000000,3.867529940,0.000000000,4.090909004
1772682990.987949610,0.016828000,0.010847000,0.054067000,-0.002434730,0.006503830,0.040909890,0.999138710,-0.004334000,0.013196000,0.081816000,0.000163578,0.000040210,-0.000130167,0.007559917,0.006950127,-0.000773900,0.007016831,-0.002526763,0.999529595,0.001272996,0.001122229,0.001136855,0.000000000,0.000000000,0.000000000,0.000000000,0.017027945,0.010855185,0.054074466,0.015932453,0.001311253,0.000365377,0.003664557,0.002328820,0.000085594,-0.214438820,0.176175368,3.870378136,-0.001818342,-0.001599734,0.033765995,0.999425080,0.000000000,0.000000000,0.000000000,0.000000000,0.000000000,0.000000000,3.869762001,0.000000000,4.090909004
1772682990.997949123,0.016840000,0.010833000,0.054059000,-0.002439390,0.006636110,0.041003630,0.999133980,-0.004331000,0.013461000,0.082003000,0.000244989,0.000033469,-0.000086305,0.004143881,0.004235293,-0.005509621,0.006763177,-0.004040175,0.998975685,0.001376517,0.001215293,0.003008665,0.000000000,0.000000000,0.000000000,0.000000000,0.017108456,0.010865739,0.054075567,0.016092727,0.001568857,0.000389752,0.003969972,0.000453449,-0.000965724,-0.213837229,0.177847961,3.873124731,-0.001812564,-0.001614189,0.033789927,0.999424624,0.000000000,0.000000000,0.000000000,0.000000000,0.000000000,0.000000000,3.872361941,0.000000000,4.090909004
1772682991.007949114,0.016839000,0.010835000,0.054057000,-0.002483120,0.006631340,0.040896430,0.999138300,-0.004420000,0.013455000,0.081788000,0.000091259,-0.000023038,0.000044037,0.001816099,0.004236832,-0.008402072,0.005622761,-0.003858604,0.999431053,-0.001054721,0.002310589,0.000787522,0.000000000,0.000000000,0.000000000,0.000000000,0.017071299,0.010861341,0.054069864,0.015973947,0.001640197,0.000312844,0.003213049,-0.000302961,-0.000909242,-0.213361242,0.176776073,3.875628827,-0.001808694,-0.001604739,0.033811791,0.999423524,0.000000000,0.000000000,0.000000000,0.000000000,0.000000000,0.000000000,3.875070299,0.000000000,4.090909004
1772682991.017949104,0.016840000,0.010847000,0.054062000,-0.002385730,0.006616780,0.040865200,0.999139910,-0.004227000,0.013418000,0.081727000,-0.000000777,-0.000051807,0.000084169,-0.000889822,0.006073383,-0.012004226,0.007966955,-0.002850649,0.999214706,-0.002789978,0.002409699,-0.000729052,0.000000000,0.000000000,0.000000000,0.000000000,0.016992209,0.010854392,0.054063509,0.015698570,0.001563669,0.000236216,0.002888708,0.000453380,-0.000237106,-0.212975100,0.176410713,3.879002900,-0.001805386,-0.001601492,0.033841231,0.999423032,0.000000000,0.000000000,0.000000000,0.000000000,0.000000000,0.000000000,3.878354147,0.000000000,4.090909004
1772682991.027949095,0.016834000,0.010837000,0.054072000,-0.002429260,0.006761480,0.040786570,0.999142050,-0.004303000,0.013710000,0.081568000,-0.000002817,0.000006333,0.000018162,-0.002195710,0.002406593,-0.013301462,0.009244692,-0.004111817,0.999595755,0.002769421,-0.001646368,-0.002731452,0.000000000,0.000000000,0.000000000,0.000000000,0.016990309,0.010855223,0.054068112,0.015639729,0.001591655,0.000230781,0.005733772,0.000309988,-0.000188166,-0.212564756,0.176186427,3.880971967,-0.001801846,-0.001599445,0.033858415,0.999422929,0.000000000,0.000000000,0.000000000,0.000000000,0.000000000,0.000000000,3.880766769,0.000000000,4.090909004
1772682991.037948847,0.016842000,0.010836000,0.054070000,-0.002475770,0.006698130,0.040737830,0.999144350,-0.004402000,0.013587000,0.081470000,-0.000170183,0.000122125,-0.000113889,-0.001241967,-0.006075414,-0.010075447,0.005803991,-0.004631029,0.997969115,0.000154949,0.003034875,-0.000706750,0.000000000,0.000000000,0.000000000,0.000000000,0.017137741,0.010869686,0.054070911,0.016224412,0.001635892,0.000174460,0.002678517,-0.000216306,-0.001635930,-0.211618977,0.176887805,3.884116573,-0.001793346,-0.001605332,0.033885843,0.999422284,0.000000000,0.000000000,0.000000000,0.000000000,0.000000000,0.000000000,3.883788313,0.000000000,4.090909004
1772682991.047948360,0.016830000,0.010837000,0.054064000,-0.002439690,0.006669570,0.040676050,0.999147150,-0.004333000,0.013527000,0.081347000,-0.000049631,0.000079604,-0.000348563,-0.001102151,-0.007142875,-0.002062929,0.006847056,-0.006240626,0.998427673,0.003809419,0.000792871,0.000299163,0.000000000,0.000000000,0.000000000,0.000000000,0.016989799,0.010853798,0.054064630,0.015800556,0.001573128,0.000010980,0.003956423,-0.001828253,-0.001942329,-0.210265322,0.175714312,3.885956071,-0.001781862,-0.001594726,0.033901926,0.999421399,0.000000000,0.000000000,0.000000000,0.000000000,0.000000000,0.000000000,3.885750287,0.000000000,4.090909004
1772682991.057947636,0.016841000,0.010844000,0.054049000,-0.002499380,0.006526650,0.040671540,0.999148130,-0.004464000,0.013246000,0.081338000,-0.000058936,0.000110626,-0.000232770,-0.002764917,-0.011547962,0.001659129,0.006163542,-0.003884910,1.000000483,-0.001530931,-0.002206548,-0.002802148,0.000000000,0.000000000,0.000000000,0.000000000,0.016991016,0.010856050,0.054056277,0.015738441,0.001273927,-0.000270869,0.003250356,-0.000364583,-0.000478019,-0.208665975,0.176542336,3.888804487,-0.001767628,-0.001601518,0.033926774,0.999419344,0.000000000,0.000000000,0.000000000,0.000000000,0.000000000,0.000000000,3.888734821,0.000000000,4.090909004
1772682991.067947626,0.016835000,0.010843000,0.054056000,-0.002448000,0.006573470,0.040704330,0.999146610,-0.004357000,0.013335000,0.081404000,0.000087685,0.000194872,0.000037277,-0.002022952,-0.012427882,0.005410540,0.004782888,-0.003136680,0.999649895,-0.000090053,0.000981739,-0.001133383,0.000000000,0.000000000,0.000000000,0.000000000,0.016988773,0.010855225,0.054056906,0.015696589,0.001076136,-0.000314439,0.003213322,-0.000035312,0.000101730,-0.208327548,0.176116334,3.889994852,-0.001764786,-0.001597721,0.033937167,0.999420100,0.000000000,0.000000000,0.000000000,0.000000000,0.000000000,0.000000000,3.889311311,0.000000000,4.090909004
1772682991.077946901,0.016832000,0.010843000,0.054063000,-0.002442900,0.006449610,0.040810200,0.999143110,-0.004356000,0.013088000,0.081617000,0.000131566,-0.000021329,0.000407770,-0.000936208,-0.009508615,0.007427956,0.006444497,-0.004258691,1.000045712,0.000712946,0.003597492,-0.001646530,0.000000000,0.000000000,0.000000000,0.000000000,0.016989191,0.010854891,0.054057248,0.015561088,0.001056505,-0.000322554,0.003584344,-0.000397961,0.000141910,-0.208348691,0.175701648,3.892397557,-0.001765060,-0.001594147,0.033958133,0.999418577,0.000000000,0.000000000,0.000000000,0.000000000,0.000000000,0.000000000,3.891726007,0.000000000,4.090909004
1772682991.087945938,0.016840000,0.010845000,0.054059000,-0.002485710,0.006503940,0.040807650,0.999142760,-0.004437000,0.013200000,0.081611000,0.000047883,-0.000162393,0.000361053,-0.000706005,-0.007722723,0.007408188,0.007743757,-0.004988975,0.999141463,0.000842681,0.001055698,-0.000178876,0.000000000,0.000000000,0.000000000,0.000000000,0.016971738,0.010854184,0.054056059,0.015076251,0.001024548,-0.000355150,0.003646750,-0.000310746,-0.000154656,-0.208864160,0.174979285,3.894906945,-0.001769735,-0.001588039,0.033980023,0.999418260,0.000000000,0.000000000,0.000000000,0.000000000,0.000000000,0.000000000,3.894232155,0.000000000,4.090909004
1772682991.097945929,0.016836000,0.010840000,0.054075000,-0.002527290,0.006347000,0.040790520,0.999144360,-0.004533000,0.012890000,0.081576000,-0.000216278,-0.000002292,0.000062782,0.001161590,-0.007670364,0.009699328,0.006319251,-0.003820585,0.998039882,-0.000785624,0.002570840,-0.002732703,0.000000000,0.000000000,0.000000000,0.000000000,0.016935950,0.010852735,0.054054285,0.014294110,0.000932262,-0.000414821,0.003139772,0.000606481,-0.001072560,-0.208149203,0.180590921,3.900966547,-0.001761745,-0.001636862,0.034032793,0.999419990,0.000000000,0.000000000,0.000000000,0.000000000,0.000000000,0.000000000,3.898734338,0.000000000,4.090909004
1772682991.107945919,0.016844000,0.010841000,0.054067000,-0.002479240,0.006398010,0.040863610,0.999141170,-0.004432000,0.012988000,0.081723000,-0.000157790,0.000084635,-0.000356177,0.000569011,-0.003075845,0.010871360,0.006813538,-0.004992098,0.996554162,-0.002767397,0.002657312,-0.001069013,0.000000000,0.000000000,0.000000000,0.000000000,0.016910414,0.010850545,0.054053124,0.013687441,0.000843535,-0.000511584,0.002789838,-0.001105261,-0.003516954,-0.207387756,0.186441871,3.907160274,-0.001753277,-0.001687760,0.034086730,0.999414727,0.000000000,0.000000000,0.000000000,0.000000000,0.000000000,0.000000000,3.905196605,0.000000000,4.090909004
1772682991.117945910,0.016832000,0.010837000,0.054065000,-0.002420540,0.006355520,0.040924020,0.999139120,-0.004317000,0.012899000,0.081845000,-0.000271756,0.000006061,-0.000427836,-0.002549637,0.004563834,0.009154725,0.008487069,-0.003449560,0.997504518,-0.000872323,-0.000710518,-0.000008559,0.000000000,0.000000000,0.000000000,0.000000000,0.016938627,0.010844475,0.054055170,0.014000681,0.000773470,-0.000802807,0.005156998,-0.000498524,-0.003139771,-0.207956802,0.185742737,3.910058239,-0.001758407,-0.001681877,0.034112003,0.999414374,0.000000000,0.000000000,0.000000000,0.000000000,0.000000000,0.000000000,3.909545968,0.000000000,4.090909004
1772682991.127945900,0.016823000,0.010844000,0.054049000,-0.002486420,0.006391200,0.040963790,0.999137100,-0.004445000,0.012975000,0.081924000,-0.000032731,-0.000130031,-0.000264375,-0.005990400,0.008965471,0.005479694,0.008815216,-0.002642639,0.998988423,-0.000310959,0.000235839,0.000572229,0.000000000,0.000000000,0.000000000,0.000000000,0.017001261,0.010842561,0.054053247,0.014387637,0.000760748,-0.001081032,0.005262748,0.002336198,-0.001272066,-0.207165681,0.184694673,3.906452594,-0.001751871,-0.001672445,0.034080586,0.999414563,0.000000000,0.000000000,0.000000000,0.000000000,0.000000000,0.000000000,3.907486390,0.000000000,4.090909004
1772682991.137945890,0.016830000,0.010852000,0.054052000,-0.002488050,0.006389360,0.041078070,0.999132410,-0.004447000,0.012972000,0.082152000,0.000357654,-0.000220474,-0.000133605,-0.006949501,0.011427981,-0.002683531,0.008441456,-0.003895648,0.999244697,-0.001085459,-0.001320763,-0.001708654,0.000000000,0.000000000,0.000000000,0.000000000,0.017065170,0.010848059,0.054048111,0.014764715,0.000889491,-0.001242399,0.005127710,0.001029929,-0.001177394,-0.207613577,0.184441118,3.903345930,-0.001755899,-0.001670319,0.034053487,0.999415649,0.000000000,0.000000000,0.000000000,0.000000000,0.000000000,0.000000000,3.904144490,0.000000000,4.090909004
1772682991.147945404,0.016839000,0.010833000,0.054055000,-0.002584550,0.006600910,0.040948090,0.999136130,-0.004624000,0.013402000,0.081890000,0.000296426,-0.000228011,0.000304332,-0.005150936,0.001766929,-0.011558545,0.007515563,-0.004201805,0.998863477,-0.002317649,-0.001995284,-0.003016494,0.000000000,0.000000000,0.000000000,0.000000000,0.016967462,0.010848775,0.054054648,0.014740496,0.000995201,-0.001224083,0.004790298,-0.000129542,-0.001114310,-0.207233098,0.185699583,3.898655185,-0.001752275,-0.001681111,0.034012563,0.999416767,0.000000000,0.000000000,0.000000000,0.000000000,0.000000000,0.000000000,3.899869671,0.000000000,4.090909004
1772682991.157945156,0.016836000,0.010831000,0.054063000,-0.002674660,0.006525450,0.040846660,0.999140540,-0.004812000,0.013259000,0.081686000,0.000308936,-0.000137413,0.000335490,-0.000484079,-0.000067178,-0.016203585,0.005978550,-0.003380950,0.999118520,-0.001498495,-0.000482827,-0.001757983,0.000000000,0.000000000,0.000000000,0.000000000,0.016968359,0.010851740,0.054051931,0.014866030,0.000982713,-0.001311685,0.003234542,0.000205586,-0.001069721,-0.208151279,0.184739756,3.894850576,-0.001760623,-0.001672953,0.033979382,0.999418101,0.000000000,0.000000000,0.000000000,0.000000000,0.000000000,0.000000000,3.895658418,0.000000000,4.090909004
1772682991.167945147,0.016853000,0.010832000,0.054066000,-0.002562090,0.006499870,0.040784840,0.999143530,-0.004590000,0.013198000,0.081564000,-0.000150544,0.000013695,0.000286053,0.005368412,-0.010053980,-0.017181103,0.006094794,-0.002343061,0.998473722,-0.000014866,0.002235373,-0.001449035,0.000000000,0.000000000,0.000000000,0.000000000,0.017043832,0.010858177,0.054043594,0.015047191,0.000982685,-0.001390100,0.002661934,0.001282932,-0.001189453,-0.208644735,0.184645171,3.891087481,-0.001765010,-0.001672217,0.033946554,0.999419255,0.000000000,0.000000000,0.000000000,0.000000000,0.000000000,0.000000000,3.891630346,0.000000000,4.090909004
1772682991.177945137,0.016840000,0.010838000,0.054061000,-0.002480230,0.006386970,0.040709920,0.999147520,-0.004437000,0.012965000,0.081415000,-0.000525234,0.000303808,-0.000052875,0.008084991,-0.012606609,-0.010366268,0.005782628,-0.003753478,0.998291031,-0.000091695,0.003228640,-0.000812658,0.000000000,0.000000000,0.000000000,0.000000000,0.017121995,0.010864203,0.054035380,0.015151090,0.001080051,-0.001466425,0.002757999,0.000793945,-0.001750769,-0.208339862,0.183587786,3.892800333,-0.001762639,-0.001662931,0.033961513,0.999419426,0.000000000,0.000000000,0.000000000,0.000000000,0.000000000,0.000000000,3.892275948,0.000000000,4.090909004
1772682991.187944412,0.016821000,0.010844000,0.054069000,-0.002471910,0.006260970,0.040672460,0.999149860,-0.004431000,0.012713000,0.081341000,-0.000485626,0.000447825,-0.000073757,0.007183408,-0.013778344,0.000009426,0.008551198,-0.003899676,0.999596594,0.001516359,-0.001566183,0.001558455,0.000000000,0.000000000,0.000000000,0.000000000,0.017129807,0.010864247,0.054038604,0.015094091,0.001129155,-0.001588283,0.003352559,0.000015558,-0.000294664,-0.207793206,0.181533269,3.895270449,-0.001758445,-0.001644888,0.033983099,0.999417976,0.000000000,0.000000000,0.000000000,0.000000000,0.000000000,0.000000000,3.894608684,0.000000000,4.090909004
1772682991.197943926,0.016833000,0.010843000,0.054057000,-0.002482630,0.006454140,0.040683500,0.999148150,-0.004436000,0.013100000,0.081362000,-0.000087005,0.000146892,0.000015831,0.001875242,-0.003351675,0.005014312,0.008297845,-0.003149011,1.002008940,-0.000134451,0.001403767,0.000153079,0.000000000,0.000000000,0.000000000,0.000000000,0.016991038,0.010854376,0.054050059,0.014793659,0.001078260,-0.001533224,0.004890310,0.000457739,0.002180315,-0.207122516,0.181343667,3.897509261,-0.001752620,-0.001643069,0.034002640,0.999416446,0.000000000,0.000000000,0.000000000,0.000000000,0.000000000,0.000000000,3.897125220,0.000000000,4.090909004
1772682991.207943439,0.016819000,0.010846000,0.054063000,-0.002428750,0.006171190,0.040721720,0.999148520,-0.004351000,0.012530000,0.081441000,0.000267153,-0.000048660,0.000123310,-0.000913004,0.003526166,0.010642906,0.007883110,-0.001187222,1.002355106,-0.001766669,0.003318406,0.002006977,0.000000000,0.000000000,0.000000000,0.000000000,0.016984082,0.010854474,0.054050191,0.014803703,0.001077417,-0.001510567,0.005029752,0.000783876,0.002471777,-0.206766354,0.181386813,3.898411140,-0.001749488,-0.001643354,0.034010508,0.999417637,0.000000000,0.000000000,0.000000000,0.000000000,0.000000000,0.000000000,3.898335142,0.000000000,4.090909004
1772682991.217942715,0.016833000,0.010846000,0.054060000,-0.002459530,0.006395070,0.040863690,0.999141240,-0.004393000,0.012981000,0.081724000,0.000501671,-0.000029312,0.000174340,0.001825415,0.013536144,0.013312837,0.007893894,-0.001360974,1.001911609,-0.001923751,0.003235094,0.001873464,0.000000000,0.000000000,0.000000000,0.000000000,0.016983357,0.010855028,0.054049837,0.014827604,0.001078803,-0.001490523,0.004936397,0.001090687,0.002399715,-0.206858464,0.181164614,3.898716401,-0.001750353,-0.001641448,0.034013173,0.999417315,0.000000000,0.000000000,0.000000000,0.000000000,0.000000000,0.000000000,3.898637354,0.000000000,4.090909004
1772682991.227942705,0.016844000,0.010841000,0.054073000,-0.002502690,0.006334170,0.040858230,0.999141740,-0.004484000,0.012862000,0.081712000,0.000358819,0.000013831,-0.000035567,0.003882597,0.014444018,0.011944304,0.007904680,-0.001534738,1.001468082,-0.002080844,0.003151776,0.001739940,0.000000000,0.000000000,0.000000000,0.000000000,0.016982632,0.010855581,0.054049483,0.014851508,0.001080189,-0.001470478,0.004843036,0.001397519,0.002327648,-0.206950580,0.180942398,3.899021684,-0.001751218,-0.001639542,0.034015837,0.999416993,0.000000000,0.000000000,0.000000000,0.000000000,0.000000000,0.000000000,3.898939587,0.000000000,4.090909004
1772682991.237942219,0.016849000,0.010838000,0.054068000,-0.002469030,0.006568040,0.040888430,0.999139080,-0.004397000,0.013327000,0.081772000,-0.000031741,0.000033664,-0.000170241,0.001532836,0.012918943,0.007666431,0.007915464,-0.001708494,1.001024575,-0.002237929,0.003068462,0.001606423,0.000000000,0.000000000,0.000000000,0.000000000,0.016981907,0.010856135,0.054049129,0.014875410,0.001081575,-0.001450433,0.004749679,0.001704337,0.002255584,-0.207042692,0.180720193,3.899326953,-0.001752083,-0.001637636,0.034018502,0.999416670,0.000000000,0.000000000,0.000000000,0.000000000,0.000000000,0.000000000,3.899241805,0.000000000,4.090909004
1772682991.247942209,0.016837000,0.010846000,0.054062000,-0.002375640,0.006553520,0.040996060,0.999134990,-0.004210000,0.013291000,0.081989000,-0.000112937,-0.000115598,-0.000309713,-0.003451971,0.005974264,0.002406583,0.007926249,-0.001882259,1.000581047,-0.002395022,0.002985143,0.001472900,0.000000000,0.000000000,0.000000000,0.000000000,0.016981182,0.010856688,0.054048776,0.014899313,0.001082961,-0.001430388,0.004656318,0.002011169,0.002183517,-0.207134808,0.180497978,3.899632236,-0.001752948,-0.001635730,0.034021167,0.999416348,0.000000000,0.000000000,0.000000000,0.000000000,0.000000000,0.000000000,3.899544038,0.000000000,4.090909004
1772682991.257941484,0.016829000,0.010851000,0.054060000,-0.002415940,0.006662260,0.040947350,0.999136170,-0.004283000,0.013511000,0.081891000,-0.000210820,-0.000074981,-0.000088520,-0.004794106,-0.001265701,-0.002281072,0.007937034,-0.002056011,1.000137551,-0.002552104,0.002901831,0.001339386,0.000000000,0.000000000,0.000000000,0.000000000,0.016980457,0.010857242,0.054048422,0.014923214,0.001084346,-0.001410344,0.004562963,0.002317980,0.002111455,-0.207226918,0.180275778,3.899937497,-0.001753813,-0.001633824,0.034023831,0.999416025,0.000000000,0.000000000,0.000000000,0.000000000,0.000000000,0.000000000,3.899846249,0.000000000,4.090909004
1772682991.267940760,0.016836000,0.010840000,0.054051000,-0.002494850,0.006470610,0.040932260,0.999137860,-0.004456000,0.013135000,0.081860000,-0.000159188,0.000003186,0.000106177,-0.006374699,-0.001034691,-0.002589174,0.007947818,-0.002229763,0.999694055,-0.002709185,0.002818519,0.001205873,0.000000000,0.000000000,0.000000000,0.000000000,0.016979731,0.010857796,0.054048068,0.014947116,0.001085732,-0.001390300,0.004469608,0.002624790,0.002039393,-0.207319028,0.180053579,3.900242758,-0.001754678,-0.001631918,0.034026495,0.999415703,0.000000000,0.000000000,0.000000000,0.000000000,0.000000000,0.000000000,3.900148460,0.000000000,4.090909004
1772682991.277941227,0.016832000,0.010838000,0.054061000,-0.002593470,0.006518780,0.040898080,0.999138690,-0.004650000,0.013239000,0.081790000,0.000013617,0.000074612,0.000302836,-0.006206334,-0.000022108,-0.003926573,0.007958604,-0.002403536,0.999250506,-0.002866286,0.002735197,0.001072343,0.000000000,0.000000000,0.000000000,0.000000000,0.016980836,0.010855665,0.054045124,0.015015566,0.001199240,-0.001172822,0.004585653,0.002103836,0.000570829,-0.207485890,0.179608371,3.901049560,-0.001756254,-0.001628097,0.034033538,0.999415380,0.000000000,0.000000000,0.000000000,0.000000000,0.000000000,0.000000000,3.900450708,0.000000000,4.090909004
1772682991.287941217,0.016842000,0.010836000,0.054070000,-0.002589710,0.006405210,0.040878750,0.999140230,-0.004652000,0.013011000,0.081752000,0.000211519,-0.000045921,0.000181682,-0.003257945,0.005303344,-0.003897972,0.008729054,-0.003491780,0.999260109,0.000913704,0.003752332,0.002853674,0.000000000,0.000000000,0.000000000,0.000000000,0.016981066,0.010853677,0.054045635,0.015082462,0.001337475,-0.001029874,0.004752074,0.001345626,-0.000907598,-0.207797886,0.178700602,3.902421274,-0.001759225,-0.001620294,0.034045514,0.999415907,0.000000000,0.000000000,0.000000000,0.000000000,0.000000000,0.000000000,3.902433143,0.000000000,4.090909004
1772682991.297940493,0.016840000,0.010850000,0.054074000,-0.002496780,0.006724090,0.040873600,0.999138580,-0.004440000,0.013641000,0.081742000,0.000135723,0.000045649,-0.000019639,0.000745020,0.000389807,-0.002092681,0.009425869,-0.003210097,0.998398318,-0.002657809,-0.000368785,0.001290534,0.000000000,0.000000000,0.000000000,0.000000000,0.017045294,0.010858794,0.054043365,0.015352476,0.001434160,-0.001030078,0.004824384,0.000894469,-0.001202722,-0.207910701,0.178189410,3.899722478,-0.001760399,-0.001615828,0.034021979,0.999416788,0.000000000,0.000000000,0.000000000,0.000000000,0.000000000,0.000000000,3.900422123,0.000000000,4.090909004
1772682991.307940245,0.016829000,0.010848000,0.054064000,-0.002538000,0.006581030,0.040913600,0.999137790,-0.004534000,0.013359000,0.081822000,0.000059246,0.000033722,-0.000153710,0.001829593,0.005225619,-0.000286689,0.008540048,-0.003550839,0.998178719,-0.002495798,-0.002315124,0.001989874,0.000000000,0.000000000,0.000000000,0.000000000,0.017137698,0.010866632,0.054039821,0.015783175,0.001466948,-0.001099501,0.004896697,0.000443291,-0.001497861,-0.209333812,0.178578522,3.896202081,-0.001772745,-0.001619589,0.033991249,0.999417863,0.000000000,0.000000000,0.000000000,0.000000000,0.000000000,0.000000000,3.896525861,0.000000000,4.090909004
1772682991.317940235,0.016841000,0.010844000,0.054058000,-0.002533150,0.006635130,0.040864550,0.999139450,-0.004520000,0.013466000,0.081724000,0.000091123,-0.000141123,-0.000210121,0.004248111,0.000642406,0.000358554,0.008357191,-0.004827827,0.999191195,-0.000693362,0.001835071,-0.001706959,0.000000000,0.000000000,0.000000000,0.000000000,0.017063716,0.010863144,0.054049726,0.015810799,0.001492439,-0.001177125,0.005051953,-0.000312161,-0.001389498,-0.210006537,0.179222148,3.899070153,-0.001778381,-0.001625447,0.034016247,0.999417716,0.000000000,0.000000000,0.000000000,0.000000000,0.000000000,0.000000000,3.895007123,0.000000000,4.090909004
1772682991.327939987,0.016844000,0.010832000,0.054057000,-0.002548420,0.006512390,0.040845280,0.999141010,-0.004561000,0.013222000,0.081685000,-0.000059188,-0.000062082,0.000010800,0.003575915,-0.006843030,-0.000594463,0.008164487,-0.004179446,0.997341005,0.001392705,0.001671243,-0.001473932,0.000000000,0.000000000,0.000000000,0.000000000,0.016987065,0.010859975,0.054053800,0.015750987,0.001446558,-0.001231895,0.005123652,-0.000557573,-0.001634776,-0.209701501,0.177548876,3.893527967,-0.001776295,-0.001610677,0.033967943,0.999418247,0.000000000,0.000000000,0.000000000,0.000000000,0.000000000,0.000000000,3.894032871,0.000000000,4.090909004
1772682991.337939501,0.016837000,0.010845000,0.054063000,-0.002523120,0.006424990,0.040871940,0.999140550,-0.004517000,0.013046000,0.081739000,-0.000148427,0.000030944,0.000140812,0.002812427,-0.009166067,0.000866685,0.008484375,-0.003105156,0.997633169,-0.000104340,0.000993856,-0.000541865,0.000000000,0.000000000,0.000000000,0.000000000,0.016991051,0.010857801,0.054049991,0.015865178,0.001355786,-0.001302619,0.004916185,0.000846313,-0.003323687,-0.209210305,0.177485303,3.890386569,-0.001772074,-0.001609928,0.033940554,0.999419430,0.000000000,0.000000000,0.000000000,0.000000000,0.000000000,0.000000000,3.891278192,0.000000000,4.090909004
1772682991.347939014,0.016838000,0.010840000,0.054068000,-0.002484810,0.006728060,0.040925990,0.999136440,-0.004415000,0.013648000,0.081847000,-0.000340424,0.000260490,0.000134208,0.001580170,-0.008738838,0.001261232,0.008465012,-0.002199598,0.999933391,-0.001896867,0.001350914,0.000365009,0.000000000,0.000000000,0.000000000,0.000000000,0.016994943,0.010852371,0.054047256,0.015959997,0.001291412,-0.001521466,0.006039972,0.001428149,-0.000676590,-0.209455869,0.177245325,3.887109570,-0.001774333,-0.001607857,0.033911974,0.999420455,0.000000000,0.000000000,0.000000000,0.000000000,0.000000000,0.000000000,3.887937377,0.000000000,4.090909004
1772682991.357939243,0.016834000,0.010845000,0.054069000,-0.002386340,0.006385840,0.040856550,0.999141770,-0.004247000,0.012956000,0.081710000,-0.000447495,0.000277856,0.000029274,-0.003885353,-0.014534046,0.002617251,0.007475353,-0.002248039,1.001279662,-0.000051711,0.002118893,0.000478181,0.000000000,0.000000000,0.000000000,0.000000000,0.016994390,0.010855144,0.054047545,0.016029109,0.001427445,-0.001588865,0.004413446,0.001952607,0.001048751,-0.209942185,0.177147807,3.888039029,-0.001778590,-0.001607165,0.033920073,0.999420850,0.000000000,0.000000000,0.000000000,0.000000000,0.000000000,0.000000000,3.887343234,0.000000000,4.090909004
1772682991.367938757,0.016825000,0.010854000,0.054066000,-0.002522410,0.006273590,0.040876960,0.999141310,-0.004528000,0.012743000,0.081750000,-0.000151418,0.000137762,-0.000042832,-0.005923040,-0.017089454,0.001263489,0.007634059,-0.003638881,1.001339018,-0.000914994,0.001920007,-0.002758515,0.000000000,0.000000000,0.000000000,0.000000000,0.016994712,0.010855140,0.054049877,0.016073217,0.001538510,-0.001467476,0.004335188,0.000821955,0.001490189,-0.210219039,0.177892662,3.889807464,-0.001780759,-0.001613771,0.033935480,0.999418681,0.000000000,0.000000000,0.000000000,0.000000000,0.000000000,0.000000000,3.889607979,0.000000000,4.090909004
1772682991.377938747,0.016826000,0.010845000,0.054058000,-0.002562790,0.006403370,0.040945620,0.999137570,-0.004597000,0.013006000,0.081886000,0.000189258,-0.000226943,0.000065540,-0.006345358,-0.014545832,0.000274151,0.008254876,-0.002671938,0.999234533,-0.005087486,-0.003009996,0.001448178,0.000000000,0.000000000,0.000000000,0.000000000,0.016993438,0.010857245,0.054052949,0.016071363,0.001593844,-0.001230481,0.004878220,0.001138028,-0.000112182,-0.210466287,0.179125335,3.888507755,-0.001782569,-0.001624574,0.033924121,0.999419888,0.000000000,0.000000000,0.000000000,0.000000000,0.000000000,0.000000000,3.889609171,0.000000000,4.090909004
1772682991.387938738,0.016829000,0.010846000,0.054063000,-0.002591560,0.006116250,0.040875840,0.999142150,-0.004679000,0.012434000,0.081747000,0.000427992,-0.000343959,0.000154934,-0.002994964,-0.009704360,-0.002571645,0.008687574,-0.002952282,0.998363559,0.001722352,-0.004778906,0.000872760,0.000000000,0.000000000,0.000000000,0.000000000,0.017128882,0.010871575,0.054043763,0.016484155,0.001692034,-0.001187925,0.005360826,0.001233464,-0.001435005,-0.210116800,0.180020026,3.887084615,-0.001779276,-0.001632252,0.033911702,0.999421053,0.000000000,0.000000000,0.000000000,0.000000000,0.000000000,0.000000000,3.886662279,0.000000000,4.090909004
1772682991.397938728,0.016837000,0.010842000,0.054071000,-0.002590140,0.006161930,0.040909230,0.999140510,-0.004672000,0.012526000,0.081814000,0.000403458,-0.000415987,0.000225233,0.003509703,0.004644756,-0.005558615,0.009078193,-0.003532390,0.999190668,-0.000440182,0.004103227,-0.000934005,0.000000000,0.000000000,0.000000000,0.000000000,0.017151870,0.010881321,0.054042195,0.016655405,0.001860973,-0.001256472,0.005754761,0.000697064,-0.001059244,-0.209295396,0.179618427,3.888526519,-0.001772211,-0.001628529,0.033924295,0.999420747,0.000000000,0.000000000,0.000000000,0.000000000,0.000000000,0.000000000,3.888204415,0.000000000,4.090909004
1772682991.407938719,0.016844000,0.010837000,0.054072000,-0.002493270,0.006189180,0.040857270,0.999142710,-0.004477000,0.012572000,0.081711000,0.000130595,-0.000220902,0.000147553,0.005632326,0.002248606,-0.007758402,0.009260409,-0.004147722,0.999827953,-0.001394471,-0.001068289,-0.000723058,0.000000000,0.000000000,0.000000000,0.000000000,0.016987405,0.010863452,0.054050748,0.016348664,0.001823653,-0.001281094,0.006236409,0.000301477,-0.000148890,-0.209318322,0.179149487,3.886763494,-0.001772575,-0.001624418,0.033908925,0.999420446,0.000000000,0.000000000,0.000000000,0.000000000,0.000000000,0.000000000,3.888154169,0.000000000,4.090909004
1772682991.417939425,0.016844000,0.010830000,0.054075000,-0.002503890,0.006328900,0.040831020,0.999142880,-0.004487000,0.012852000,0.081658000,-0.000200369,0.000126962,-0.000056721,0.005260372,-0.002106367,-0.004620437,0.008756406,-0.006109156,1.000659524,0.001522055,0.002058036,0.000598289,0.000000000,0.000000000,0.000000000,0.000000000,0.017125498,0.010878848,0.054039943,0.016851897,0.001877276,-0.001317129,0.005947292,-0.001484442,0.000657569,-0.208812775,0.178986492,3.886988401,-0.001768210,-0.001622850,0.033910896,0.999421415,0.000000000,0.000000000,0.000000000,0.000000000,0.000000000,0.000000000,3.885865617,0.000000000,4.090909004
