t,px,py,pz,qx,qy,qz,qw,roll,pitch,yaw,vx,vy,vz,wx_vicon,wy_vicon,wz_vicon,imu_acc_x,imu_acc_y,imu_acc_z,imu_gyro_x,imu_gyro_y,imu_gyro_z,motor_motor_m1,motor_motor_m2,motor_motor_m3,motor_motor_m4,est_stateEstimate_x,est_stateEstimate_y,est_stateEstimate_z,est_stateEstimate_vx,est_stateEstimate_vy,est_stateEstimate_vz,est_stateEstimate_ax,est_stateEstimate_ay,est_stateEstimate_az,att_stateEstimate_roll,att_stateEstimate_pitch,att_stateEstimate_yaw,att_stateEstimate_qx,att_stateEstimate_qy,att_stateEstimate_qz,att_stateEstimate_qw,sp_ctrltarget_x,sp_ctrltarget_y,sp_ctrltarget_z,sp_ctrltarget_yaw,pid_controller_roll,pid_controller_pitch,pid_controller_yaw,pid_controller_cmd_thrust,pwr_pm_vbat
1772419726.251343966,0.014530000,0.007605000,0.055548000,-0.004208170,0.005338270,0.014599530,0.999870320,-0.008260000,0.010798000,0.029156000,0.002506180,-0.002246039,0.002195049,0.005325858,0.015691469,0.001207521,0.010072851,-0.000029353,1.000856578,0.001626352,0.001714591,0.000049292,0.000000000,0.000000000,0.000000000,0.000000000,0.014897624,0.007723455,0.055527831,0.018307625,0.006761575,-0.001642215,0.005580310,0.002551003,0.000182929,-0.148577522,0.230420741,1.161491486,-0.001276132,-0.002023838,0.010133106,0.999944830,0.000000000,0.000000000,0.000000000,0.000000000,0.000000000,0.000000000,1.161119694,0.000000000,4.133137703
1772419726.261344433,0.014551000,0.007589000,0.055553000,-0.004222080,0.005283100,0.014554730,0.999871200,-0.008290000,0.010688000,0.029067000,0.000935665,-0.000805712,0.000959383,0.006152751,-0.007401100,0.005509530,0.009475897,0.001713103,0.999806287,-0.004493354,0.004069584,0.001058688,0.000000000,0.000000000,0.000000000,0.000000000,0.014903176,0.007720816,0.055533584,0.018367260,0.006849202,-0.001476820,0.005624234,0.003808191,0.001062239,-0.147379199,0.229871137,1.161022782,-0.001265732,-0.002018931,0.010129044,0.999944974,0.000000000,0.000000000,0.000000000,0.000000000,0.000000000,0.000000000,1.158714475,0.000000000,4.133137703
1772419726.271345139,0.014543000,0.007594000,0.055565000,-0.004127040,0.005316340,0.014661800,0.999869860,-0.008098000,0.010753000,0.029282000,0.000016200,0.000028322,0.000180711,0.005943022,-0.016881237,0.006532183,0.008456335,0.002556789,1.000197370,-0.002293067,-0.000479037,-0.001423592,0.000000000,0.000000000,0.000000000,0.000000000,0.014900011,0.007724275,0.055535067,0.018339520,0.007045158,-0.001369807,0.004563972,0.004952992,-0.000184492,-0.147219033,0.229663442,1.158998342,-0.001264388,-0.002017082,0.010111383,0.999945127,0.000000000,0.000000000,0.000000000,0.000000000,0.000000000,0.000000000,1.158158339,0.000000000,4.132764731
1772419726.281345129,0.014553000,0.007587000,0.055567000,-0.004113000,0.005269010,0.014704770,0.999869540,-0.008071000,0.010658000,0.029368000,-0.000392075,0.000386131,-0.000224184,0.004919823,-0.016308763,0.005157188,0.008180200,0.001943554,1.001108862,-0.000354674,0.000812190,-0.001626574,0.000000000,0.000000000,0.000000000,0.000000000,0.014894277,0.007730816,0.055532614,0.018233141,0.007323293,-0.001298403,0.004410467,0.004919881,0.001297303,-0.148208883,0.228359876,1.158128329,-0.001273156,-0.002005784,0.010103789,0.999945194,0.000000000,0.000000000,0.000000000,0.000000000,0.000000000,0.000000000,1.156701361,0.000000000,4.132234064
1772419726.291344881,0.014554000,0.007587000,0.055569000,-0.004127540,0.005051900,0.014653120,0.999871360,-0.008106000,0.010224000,0.029266000,-0.000429021,0.000397786,-0.000338520,0.003303915,-0.009243222,0.002270392,0.010511603,0.000169539,1.000174753,0.000078687,0.003134154,-0.000428173,0.000000000,0.000000000,0.000000000,0.000000000,0.014893074,0.007738056,0.055530482,0.018144824,0.007576589,-0.001155328,0.006012627,0.002910018,-0.000014050,-0.148101190,0.229282854,1.156371880,-0.001272166,-0.002013810,0.010088453,0.999945365,0.000000000,0.000000000,0.000000000,0.000000000,0.000000000,0.000000000,1.154277926,0.000000000,4.131703409
1772419726.301344395,0.014531000,0.007600000,0.055559000,-0.004107660,0.004990080,0.014650600,0.999871780,-0.008069000,0.010099000,0.029262000,-0.000234499,0.000193357,-0.000245513,0.001311137,0.000755029,-0.001240162,0.011375999,-0.000923380,0.999435032,-0.001501662,0.000552572,0.000778654,0.000000000,0.000000000,0.000000000,0.000000000,0.014896944,0.007738894,0.055535686,0.018306144,0.007631508,-0.001069366,0.007504882,0.001673831,-0.000376684,-0.147898258,0.228093419,1.153626463,-0.001270548,-0.002003382,0.010064514,0.999945604,0.000000000,0.000000000,0.000000000,0.000000000,0.000000000,0.000000000,1.152339543,0.000000000,4.131172767
1772419726.311344624,0.014541000,0.007598000,0.055550000,-0.004087620,0.005216190,0.014696810,0.999870030,-0.008021000,0.010551000,0.029353000,0.000049573,-0.000085140,-0.000023019,-0.001780473,0.005873936,-0.006025504,0.008498380,-0.001927029,0.998192134,-0.002120518,0.004356200,-0.001724647,0.000000000,0.000000000,0.000000000,0.000000000,0.014899210,0.007735621,0.055542390,0.018457164,0.007514720,-0.001073094,0.005291315,0.000518393,-0.001639516,-0.147851333,0.227161760,1.152273579,-0.001270244,-0.001995233,0.010052720,0.999945700,0.000000000,0.000000000,0.000000000,0.000000000,0.000000000,0.000000000,1.151471606,0.000000000,4.130642087
1772419726.321344614,0.014541000,0.007601000,0.055554000,-0.004082880,0.005303080,0.014660940,0.999870120,-0.008010000,0.010725000,0.029281000,0.000032284,-0.000125622,0.000286053,-0.002408570,0.011302534,-0.003661896,0.008112521,-0.001987193,0.998176049,0.001944427,-0.002390566,0.001715333,0.000000000,0.000000000,0.000000000,0.000000000,0.014899910,0.007733946,0.055545637,0.018394709,0.007376922,-0.001171018,0.004255858,0.001583052,-0.001804993,-0.148914142,0.226958971,1.151392971,-0.001279551,-0.001993547,0.010045018,0.999945781,0.000000000,0.000000000,0.000000000,0.000000000,0.000000000,0.000000000,1.150183739,0.000000000,4.130111419
1772419726.331344366,0.014554000,0.007586000,0.055566000,-0.004137410,0.005152220,0.014586850,0.999871770,-0.008124000,0.010424000,0.029133000,0.000037840,-0.000117949,0.000223640,-0.004074242,0.009358161,-0.001254847,0.009473754,-0.000798115,0.997911582,-0.000550543,0.000834727,-0.000130959,0.000000000,0.000000000,0.000000000,0.000000000,0.014897003,0.007735437,0.055542139,0.018290787,0.007271571,-0.001314606,0.005186972,0.001586543,-0.001720010,-0.149946501,0.225362720,1.149999368,-0.001288724,-0.001979692,0.010032858,0.999945907,0.000000000,0.000000000,0.000000000,0.000000000,0.000000000,0.000000000,1.149477273,0.000000000,4.129580764
1772419726.341344357,0.014541000,0.007587000,0.055571000,-0.004154160,0.005322100,0.014587620,0.999870800,-0.008153000,0.010764000,0.029133000,-0.000077972,-0.000020008,-0.000032440,-0.004375640,0.003126541,-0.000778664,0.008580265,-0.000358641,0.999404683,0.002196861,-0.003562727,0.002467702,0.000000000,0.000000000,0.000000000,0.000000000,0.015007738,0.007782012,0.055530272,0.018582256,0.007408986,-0.001481618,0.005034567,0.002631923,-0.001459560,-0.149566163,0.226202828,1.149360675,-0.001285342,-0.001986983,0.010027282,0.999945996,0.000000000,0.000000000,0.000000000,0.000000000,0.000000000,0.000000000,1.148325723,0.000000000,4.129050097
1772419726.351344347,0.014547000,0.007590000,0.055569000,-0.004181110,0.005238690,0.014575690,0.999871300,-0.008209000,0.010598000,0.029110000,-0.000187316,0.000078263,-0.000319017,-0.002680468,-0.004370904,-0.002205356,0.009966227,-0.000463723,0.998621447,0.001431974,-0.005285259,0.001490298,0.000000000,0.000000000,0.000000000,0.000000000,0.015195529,0.007857073,0.055514981,0.019067237,0.007639097,-0.001583737,0.005795967,0.002130501,-0.000594710,-0.149633586,0.224797798,1.148248635,-0.001286073,-0.001974716,0.010017593,0.999946029,0.000000000,0.000000000,0.000000000,0.000000000,0.000000000,0.000000000,1.148043433,0.000000000,4.128519429
1772419726.361344337,0.014535000,0.007599000,0.055558000,-0.004177310,0.005278620,0.014679870,0.999869590,-0.008199000,0.010679000,0.029318000,0.000138345,-0.000041434,-0.000445591,-0.001876234,-0.009703035,-0.003510545,0.010882179,0.000594723,1.000270230,0.002079536,-0.006663711,0.000606247,0.000000000,0.000000000,0.000000000,0.000000000,0.014979988,0.007768742,0.055532911,0.017367300,0.006988419,-0.001410288,0.006109232,0.003051100,-0.000347178,-0.147749159,0.229209057,1.149060263,-0.001269226,-0.002013052,0.010024661,0.999945593,0.000000000,0.000000000,0.000000000,0.000000000,0.000000000,0.000000000,1.146138385,0.000000000,4.127988762
1772419726.371344328,0.014537000,0.007599000,0.055543000,-0.004189640,0.005185250,0.014603010,0.999871150,-0.008227000,0.010492000,0.029165000,0.000352992,-0.000097028,-0.000119075,-0.001644513,-0.016202864,-0.005165600,0.008878846,-0.000476955,1.001380853,0.004191951,0.000069130,0.002809133,0.000000000,0.000000000,0.000000000,0.000000000,0.014747660,0.007674310,0.055552794,0.015198500,0.006202525,-0.001174559,0.003525089,0.001898029,0.000363728,-0.132093074,0.260835889,1.161869444,-0.001129587,-0.002287792,0.010136383,0.999944745,0.000000000,0.000000000,0.000000000,0.000000000,0.000000000,0.000000000,1.161756012,0.000000000,4.127859116
1772419726.381344318,0.014547000,0.007590000,0.055550000,-0.004162660,0.005170580,0.014541320,0.999872240,-0.008174000,0.010461000,0.029042000,0.000372766,-0.000122630,0.000294911,-0.001530615,-0.018555789,-0.004549165,0.011209035,0.001287569,1.000503880,0.000204584,-0.002115947,0.001144113,0.000000000,0.000000000,0.000000000,0.000000000,0.014747033,0.007688142,0.055537600,0.015568203,0.006542492,-0.000996394,0.006009397,0.003571821,0.000850951,-0.131139616,0.260513903,1.159851152,-0.001121336,-0.002284878,0.010118793,0.999944605,0.000000000,0.000000000,0.000000000,0.000000000,0.000000000,0.000000000,1.158807624,0.000000000,4.127859116
1772419726.391344070,0.014559000,0.007583000,0.055563000,-0.004184150,0.004955760,0.014466330,0.999874320,-0.008224000,0.010031000,0.028893000,-0.000040851,0.000108936,0.000430711,0.001173564,-0.006884422,-0.000889427,0.011178591,0.000515333,1.000564022,-0.004851930,-0.001709044,0.000410981,0.000000000,0.000000000,0.000000000,0.000000000,0.014802857,0.007706881,0.055538801,0.016073830,0.006856255,-0.000910177,0.006609296,0.002822724,0.000493375,-0.129994330,0.260767328,1.158734793,-0.001111342,-0.002286978,0.010109072,0.999944722,0.000000000,0.000000000,0.000000000,0.000000000,0.000000000,0.000000000,1.157718320,0.000000000,4.127859116
1772419726.401344299,0.014557000,0.007586000,0.055568000,-0.004228670,0.004891490,0.014517140,0.999873710,-0.008315000,0.009905000,0.028995000,-0.000355206,0.000299767,0.000220066,0.003099309,0.003404196,0.003264000,0.011230125,-0.001110472,1.002970519,-0.001367354,0.000731653,-0.004229468,0.000000000,0.000000000,0.000000000,0.000000000,0.014838622,0.007709173,0.055544705,0.016471295,0.006977308,-0.000799600,0.006617884,0.000720890,0.002058504,-0.129988801,0.261835116,1.157717004,-0.001111220,-0.002296285,0.010100180,0.999944746,0.000000000,0.000000000,0.000000000,0.000000000,0.000000000,0.000000000,1.157001125,0.000000000,4.127859116
1772419726.411343813,0.014542000,0.007599000,0.055574000,-0.004185720,0.004993700,0.014588330,0.999872350,-0.008225000,0.010108000,0.029137000,-0.000661636,0.000524534,-0.000165773,0.003715047,0.013297066,0.009160004,0.010493808,-0.002098269,1.000883098,-0.000960191,-0.002753395,0.001510585,0.000000000,0.000000000,0.000000000,0.000000000,0.014864684,0.007713824,0.055554402,0.016850334,0.006900242,-0.000448293,0.005763162,0.000526609,0.001270961,-0.130829588,0.262278830,1.156393335,-0.001118544,-0.002300218,0.010088608,0.999944952,0.000000000,0.000000000,0.000000000,0.000000000,0.000000000,0.000000000,1.154847036,0.000000000,4.127859116
1772419726.421344042,0.014529000,0.007608000,0.055559000,-0.004129920,0.005197080,0.014653940,0.999870590,-0.008107000,0.010514000,0.029267000,-0.000454002,0.000259208,-0.000448582,0.002359614,0.017480477,0.008926154,0.010546786,-0.000562481,0.997679189,0.002184572,-0.002232428,-0.002365232,0.000000000,0.000000000,0.000000000,0.000000000,0.014868433,0.007721089,0.055551087,0.017029384,0.006813253,-0.000380233,0.006020117,0.002337199,-0.002366695,-0.131033023,0.262084231,1.154540400,-0.001120374,-0.002298520,0.010072437,0.999945049,0.000000000,0.000000000,0.000000000,0.000000000,0.000000000,0.000000000,1.152774999,0.000000000,4.127859116
1772419726.431344032,0.014528000,0.007606000,0.055549000,-0.004092350,0.005315150,0.014649520,0.999870190,-0.008028000,0.010749000,0.029258000,0.000171037,-0.000249010,-0.000182032,0.000544965,0.013525279,0.002477271,0.010581262,-0.000259106,0.998115732,0.002744766,0.000703388,-0.002867538,0.000000000,0.000000000,0.000000000,0.000000000,0.014870875,0.007726730,0.055545202,0.017184529,0.006872045,-0.000606914,0.005988701,0.002496537,-0.001673346,-0.130269077,0.262868978,1.152227053,-0.001113685,-0.002305278,0.010052258,0.999945336,0.000000000,0.000000000,0.000000000,0.000000000,0.000000000,0.000000000,1.149851949,0.000000000,4.127927108
1772419726.441344738,0.014537000,0.007596000,0.055549000,-0.004150540,0.005245370,0.014639850,0.999870460,-0.008147000,0.010611000,0.029238000,0.000621329,-0.000604216,0.000164200,-0.002389657,0.001574569,-0.005394529,0.010422603,-0.001091492,1.000850039,0.002912863,-0.000750272,0.001297581,0.000000000,0.000000000,0.000000000,0.000000000,0.014868192,0.007733482,0.055538537,0.017334328,0.006938828,-0.000764215,0.006267097,0.000395732,0.000594342,-0.129001371,0.262110901,1.149611221,-0.001102742,-0.002298527,0.010029466,0.999945577,0.000000000,0.000000000,0.000000000,0.000000000,0.000000000,0.000000000,1.148728556,0.000000000,4.128328405
1772419726.451344728,0.014547000,0.007594000,0.055559000,-0.004192020,0.005221240,0.014650670,0.999870250,-0.008231000,0.010564000,0.029260000,0.000748175,-0.000634402,0.000324107,-0.005675913,-0.008291264,-0.008459765,0.009926901,-0.000720726,1.000000394,0.000617383,0.000729285,-0.002096654,0.000000000,0.000000000,0.000000000,0.000000000,0.014874032,0.007728615,0.055539025,0.017491610,0.006839112,-0.000672912,0.005311862,0.001215806,0.000170244,-0.127900636,0.261740656,1.148755593,-0.001093186,-0.002295191,0.010022025,0.999945526,0.000000000,0.000000000,0.000000000,0.000000000,0.000000000,0.000000000,1.148401663,0.000000000,4.128729674
1772419726.461345196,0.014561000,0.007575000,0.055568000,-0.004212790,0.005201930,0.014563970,0.999871530,-0.008274000,0.010525000,0.029086000,0.000279934,-0.000128613,0.000218493,-0.005787451,-0.010992574,-0.008058644,0.008661508,-0.001130119,1.000763083,-0.000665982,-0.002793898,-0.000138870,0.000000000,0.000000000,0.000000000,0.000000000,0.014882332,0.007722772,0.055546076,0.017572584,0.006790649,-0.000605981,0.003552002,0.001436575,0.001178237,-0.127337073,0.261294446,1.148307225,-0.001088316,-0.002291244,0.010018127,0.999945645,0.000000000,0.000000000,0.000000000,0.000000000,0.000000000,0.000000000,1.147356271,0.000000000,4.129130961
1772419726.471345186,0.014560000,0.007583000,0.055574000,-0.004214030,0.005091500,0.014459700,0.999873610,-0.008280000,0.010304000,0.028878000,-0.000300447,0.000314958,-0.000220008,-0.005001307,-0.003409517,-0.005701186,0.008716786,-0.000430762,1.000798777,-0.004676205,0.000948481,0.001636051,0.000000000,0.000000000,0.000000000,0.000000000,0.014884554,0.007720197,0.055552991,0.017498652,0.006740946,-0.000464056,0.003790574,0.001956611,0.000861739,-0.127437117,0.260717460,1.147392071,-0.001089258,-0.002286209,0.010010146,0.999945758,0.000000000,0.000000000,0.000000000,0.000000000,0.000000000,0.000000000,1.146517461,0.000000000,4.129532229
1772419726.481345177,0.014542000,0.007593000,0.055557000,-0.004225570,0.005121400,0.014500960,0.999872810,-0.008302000,0.010364000,0.028961000,-0.000519270,0.000437238,-0.000493687,-0.001537106,0.002410072,-0.003166152,0.007475326,-0.001117463,1.001211671,-0.001017768,-0.001279637,0.000694550,0.000000000,0.000000000,0.000000000,0.000000000,0.014883596,0.007723603,0.055553774,0.017462966,0.006762261,-0.000407714,0.003368623,0.001598126,0.000979494,-0.127867231,0.260656744,1.146634330,-0.001093032,-0.002285710,0.010003526,0.999945791,0.000000000,0.000000000,0.000000000,0.000000000,0.000000000,0.000000000,1.146056360,0.000000000,4.129933498
1772419726.491345406,0.014542000,0.007598000,0.055549000,-0.004259190,0.005139820,0.014534930,0.999872080,-0.008368000,0.010402000,0.029028000,-0.000408470,0.000187219,-0.000353944,0.000349290,0.005905629,0.001282209,0.007546790,-0.001320932,1.001432609,-0.000034629,-0.000835161,-0.000329056,0.000000000,0.000000000,0.000000000,0.000000000,0.014882336,0.007726703,0.055554000,0.017420934,0.006774374,-0.000354837,0.002690974,0.000966044,0.001268515,-0.128035057,0.259828564,1.146317841,-0.001094575,-0.002278494,0.010000769,0.999945823,0.000000000,0.000000000,0.000000000,0.000000000,0.000000000,0.000000000,1.145466143,0.000000000,4.130334775
1772419726.501345873,0.014529000,0.007608000,0.055545000,-0.004255430,0.005204110,0.014520620,0.999871970,-0.008359000,0.010531000,0.028999000,-0.000073291,-0.000025019,0.000084324,0.000501374,0.006238794,0.003858092,0.008125166,-0.001337832,1.001579437,-0.000084389,0.000641191,-0.001384376,0.000000000,0.000000000,0.000000000,0.000000000,0.014879961,0.007728676,0.055552175,0.017355527,0.006752583,-0.000314733,0.002811035,0.000986166,0.001440444,-0.128202887,0.259000365,1.146001345,-0.001096118,-0.002271279,0.009998012,0.999945860,0.000000000,0.000000000,0.000000000,0.000000000,0.000000000,0.000000000,1.144856501,0.000000000,4.130736063
1772419726.511348248,0.014540000,0.007591000,0.055551000,-0.004265740,0.005306990,0.014517960,0.999871430,-0.008377000,0.010737000,0.028993000,0.000177292,-0.000191045,0.000352836,-0.000387114,0.004680068,0.003252893,0.008703652,-0.001354735,1.001726293,-0.000134158,0.002117824,-0.002439898,0.000000000,0.000000000,0.000000000,0.000000000,0.014877585,0.007730649,0.055550349,0.017290107,0.006730787,-0.000274622,0.003307356,0.001313902,0.001557177,-0.128269876,0.259415136,1.145494950,-0.001096676,-0.002274899,0.009993588,0.999945898,0.000000000,0.000000000,0.000000000,0.000000000,0.000000000,0.000000000,1.143979589,0.000000000,4.131137427
1772419726.521348715,0.014551000,0.007585000,0.055564000,-0.004183760,0.005200710,0.014543030,0.999871970,-0.008216000,0.010522000,0.029045000,0.000109480,0.000000835,0.000406236,-0.000040951,0.005433564,0.002362055,0.009699750,-0.000903367,1.001682949,0.000311437,0.001646863,-0.002676549,0.000000000,0.000000000,0.000000000,0.000000000,0.014875155,0.007732506,0.055548589,0.017225598,0.006708263,-0.000229147,0.003803582,0.001641576,0.001673888,-0.128335150,0.259850795,1.144985449,-0.001097218,-0.002278702,0.009989136,0.999945935,0.000000000,0.000000000,0.000000000,0.000000000,0.000000000,0.000000000,1.143021205,0.000000000,4.131538714
1772419726.531347990,0.014547000,0.007585000,0.055571000,-0.004235430,0.005271080,0.014592660,0.999870660,-0.008316000,0.010665000,0.029143000,-0.000097708,0.000229487,-0.000004274,-0.001222523,0.004999464,0.003780445,0.010827081,0.000359771,1.000980744,0.000782622,-0.001487895,-0.001813224,0.000000000,0.000000000,0.000000000,0.000000000,0.014871953,0.007730913,0.055548614,0.017202070,0.006677120,-0.000047911,0.006243108,0.003195962,0.000959338,-0.128533386,0.259462669,1.143614060,-0.001099009,-0.002275319,0.009977169,0.999946163,0.000000000,0.000000000,0.000000000,0.000000000,0.000000000,0.000000000,1.141821182,0.000000000,4.131939954
1772419726.541347980,0.014543000,0.007601000,0.055564000,-0.004280930,0.005227420,0.014555260,0.999871240,-0.008409000,0.010578000,0.029068000,-0.000073971,0.000161111,-0.000272125,0.000155560,0.004088535,0.004664319,0.009930213,0.001020081,0.999163388,-0.001247851,-0.002109197,-0.000823129,0.000000000,0.000000000,0.000000000,0.000000000,0.014877336,0.007724408,0.055549965,0.017386203,0.006782780,0.000042729,0.005420094,0.003154726,0.000196113,-0.128353240,0.258700209,1.141584309,-0.001097544,-0.002268631,0.009959468,0.999946289,0.000000000,0.000000000,0.000000000,0.000000000,0.000000000,0.000000000,1.140236559,0.000000000,4.132341222
1772419726.551348209,0.014532000,0.007607000,0.055549000,-0.004270070,0.005325340,0.014603230,0.999870070,-0.008384000,0.010774000,0.029163000,-0.000055517,-0.000074981,-0.000232459,0.002375655,0.003004306,0.004438461,0.009884830,-0.000854986,0.998729114,-0.000084636,-0.001222686,0.002849872,0.000000000,0.000000000,0.000000000,0.000000000,0.014884272,0.007715915,0.055558916,0.017466133,0.006884386,0.000040901,0.005195601,0.001916233,-0.001242641,-0.127788984,0.259090460,1.140071968,-0.001092616,-0.002271973,0.009946278,0.999946410,0.000000000,0.000000000,0.000000000,0.000000000,0.000000000,0.000000000,1.139123769,0.000000000,4.132742500
1772419726.561348677,0.014535000,0.007601000,0.055551000,-0.004217770,0.005433620,0.014642300,0.999869140,-0.008276000,0.010990000,0.029241000,0.000240521,-0.000374359,-0.000015035,0.004181415,-0.000722121,0.003605443,0.009962431,-0.000624013,0.999055978,0.002565898,-0.002636906,0.002301956,0.000000000,0.000000000,0.000000000,0.000000000,0.014885852,0.007716305,0.055564353,0.017513218,0.006867082,-0.000049111,0.005442693,0.001522882,-0.000429407,-0.127462007,0.259675720,1.139078744,-0.001089731,-0.002277042,0.009937612,0.999946463,0.000000000,0.000000000,0.000000000,0.000000000,0.000000000,0.000000000,1.138778241,0.000000000,4.133137703
1772419726.571348906,0.014547000,0.007589000,0.055550000,-0.004229290,0.005263180,0.014650410,0.999869880,-0.008304000,0.010649000,0.029258000,0.000196290,-0.000329604,0.000244367,0.005676297,-0.005040931,0.005829970,0.009851137,-0.000304496,1.000983436,0.000160703,-0.002278403,-0.000733992,0.000000000,0.000000000,0.000000000,0.000000000,0.014884776,0.007724871,0.055561983,0.017568446,0.006872639,-0.000107078,0.004961663,0.001071806,-0.000060544,-0.126773973,0.259982575,1.138771474,-0.001083707,-0.002279657,0.009934942,0.999946431,0.000000000,0.000000000,0.000000000,0.000000000,0.000000000,0.000000000,1.138970688,0.000000000,4.133137703
1772419726.581348896,0.014553000,0.007575000,0.055566000,-0.004123190,0.005277670,0.014661890,0.999870080,-0.008091000,0.010675000,0.029282000,-0.000001476,-0.000065288,0.000291123,0.003479740,-0.005784360,0.005053048,0.010197630,-0.002953930,0.999214056,-0.000265038,0.003716850,0.004476539,0.000000000,0.000000000,0.000000000,0.000000000,0.014876222,0.007732636,0.055557157,0.017561429,0.006838314,-0.000100766,0.006325825,-0.000076567,-0.000340416,-0.125374247,0.260270273,1.138908147,-0.001071465,-0.002282047,0.009936158,0.999946503,0.000000000,0.000000000,0.000000000,0.000000000,0.000000000,0.000000000,1.138411421,0.000000000,4.133137703
1772419726.591349125,0.014549000,0.007583000,0.055571000,-0.004166490,0.005225610,0.014686550,0.999869810,-0.008179000,0.010572000,0.029332000,-0.000124068,0.000335742,0.000052176,0.000083534,-0.003664688,0.002546276,0.011883090,-0.001239862,1.000660723,-0.001068852,0.000049022,0.002055787,0.000000000,0.000000000,0.000000000,0.000000000,0.014879275,0.007731820,0.055552873,0.017717081,0.006641020,-0.000150094,0.007252459,0.001304933,0.000618514,-0.124771739,0.259362835,1.138411579,-0.001066296,-0.002274072,0.009931847,0.999946535,0.000000000,0.000000000,0.000000000,0.000000000,0.000000000,0.000000000,1.138386152,0.000000000,4.133137703
1772419726.601348877,0.014543000,0.007602000,0.055560000,-0.004180210,0.005188700,0.014700740,0.999869740,-0.008207000,0.010499000,0.029360000,-0.000221173,0.000431896,-0.000257421,-0.002399215,0.000686380,-0.000334245,0.009998807,0.000904533,1.001559724,0.003473427,0.000146280,-0.000902363,0.000000000,0.000000000,0.000000000,0.000000000,0.014887000,0.007726324,0.055551435,0.017934682,0.006604333,-0.000075882,0.006000070,0.002814558,0.001038119,-0.124933451,0.259363430,1.138390734,-0.001067707,-0.002274091,0.009931662,0.999946570,0.000000000,0.000000000,0.000000000,0.000000000,0.000000000,0.000000000,1.138103152,0.000000000,4.133137703
1772419726.611348391,0.014526000,0.007607000,0.055554000,-0.004196600,0.005292900,0.014756730,0.999868300,-0.008236000,0.010708000,0.029471000,0.000033974,0.000092444,-0.000354682,-0.002083052,0.001871487,-0.004784931,0.009339873,0.001068042,1.000633885,-0.001883792,-0.001220652,-0.003010181,0.000000000,0.000000000,0.000000000,0.000000000,0.014893913,0.007718902,0.055553243,0.018012488,0.006680699,0.000031341,0.004744955,0.003018640,0.000628468,-0.125528644,0.257731500,1.138067348,-0.001073049,-0.002259899,0.009928844,0.999946626,0.000000000,0.000000000,0.000000000,0.000000000,0.000000000,0.000000000,1.137369766,0.000000000,4.133137703
1772419726.621348619,0.014543000,0.007599000,0.055550000,-0.004196040,0.005255550,0.014621420,0.999870480,-0.008238000,0.010633000,0.029201000,0.000231857,-0.000284771,-0.000187782,-0.000840148,-0.004337518,-0.009212016,0.009956570,-0.000027396,1.000544413,-0.003219335,0.001363856,-0.001691745,0.000000000,0.000000000,0.000000000,0.000000000,0.014899196,0.007714071,0.055556349,0.018019602,0.006800386,0.000114355,0.005648812,0.002062803,0.000422285,-0.124402047,0.257206777,1.137305970,-0.001063279,-0.002255216,0.009922226,0.999946711,0.000000000,0.000000000,0.000000000,0.000000000,0.000000000,0.000000000,1.136154270,0.000000000,4.133137703
1772419726.631347895,0.014552000,0.007590000,0.055552000,-0.004205100,0.005283470,0.014629380,0.999870180,-0.008255000,0.010689000,0.029216000,0.000439958,-0.000578575,0.000093298,0.001773115,-0.008101723,-0.010863748,0.011469245,-0.002058032,0.998807312,0.000093853,0.000768592,-0.000059047,0.000000000,0.000000000,0.000000000,0.000000000,0.014899030,0.007716093,0.055560288,0.018102447,0.006798299,0.000156583,0.006614042,-0.000060648,-0.001295830,-0.125157650,0.256493685,1.135993640,-0.001069960,-0.002249046,0.009910766,0.999946831,0.000000000,0.000000000,0.000000000,0.000000000,0.000000000,0.000000000,1.134784718,0.000000000,4.133137703
1772419726.641347885,0.014553000,0.007580000,0.055557000,-0.004193100,0.005146030,0.014540740,0.999872240,-0.008236000,0.010413000,0.029040000,0.000413501,-0.000408489,0.000183936,0.001894192,-0.015021693,-0.007325064,0.010935962,-0.000814349,0.998147558,0.002488501,-0.000995890,0.000595032,0.000000000,0.000000000,0.000000000,0.000000000,0.014900899,0.007719724,0.055558814,0.018266176,0.006673027,0.000006798,0.005737180,0.000855317,-0.002478170,-0.125381050,0.256093514,1.134587029,-0.001071971,-0.002245560,0.009898493,0.999946922,0.000000000,0.000000000,0.000000000,0.000000000,0.000000000,0.000000000,1.133852098,0.000000000,4.133137703
1772419726.651347876,0.014557000,0.007578000,0.055559000,-0.004148010,0.005053050,0.014495650,0.999873560,-0.008149000,0.010225000,0.028951000,0.000139647,0.000050000,0.000000097,0.000315321,-0.016958351,-0.003481689,0.010494747,-0.000734029,0.998243962,0.002274054,-0.002048139,-0.000709752,0.000000000,0.000000000,0.000000000,0.000000000,0.014902614,0.007722212,0.055553840,0.018371311,0.006615504,-0.000198966,0.005707007,0.001070964,-0.001349922,-0.126074059,0.256156696,1.133771198,-0.001078029,-0.002246164,0.009891359,0.999946981,0.000000000,0.000000000,0.000000000,0.000000000,0.000000000,0.000000000,1.133348019,0.000000000,4.133137703
1772419726.661348343,0.014544000,0.007592000,0.055563000,-0.004159200,0.005001030,0.014511900,0.999873540,-0.008173000,0.010122000,0.028984000,-0.000373971,0.000430964,-0.000039200,-0.000773420,-0.012203140,0.002590914,0.010847801,-0.001722615,0.999842290,0.002589479,-0.001776589,0.001078190,0.000000000,0.000000000,0.000000000,0.000000000,0.014901065,0.007724053,0.055550944,0.018438474,0.006580306,-0.000314828,0.005841257,0.000848509,-0.000413806,-0.124172438,0.257012517,1.133279762,-0.001061371,-0.002253463,0.009887101,0.999947034,0.000000000,0.000000000,0.000000000,0.000000000,0.000000000,0.000000000,1.132891600,0.000000000,4.133137703
1772419726.671348333,0.014555000,0.007592000,0.055551000,-0.004191020,0.004981700,0.014559320,0.999872810,-0.008236000,0.010084000,0.029079000,-0.000353439,0.000499787,0.000003127,-0.001194327,-0.003801088,0.004206608,0.010030059,-0.000958414,1.000012189,0.000103518,-0.000455457,0.001636761,0.000000000,0.000000000,0.000000000,0.000000000,0.014898859,0.007724905,0.055551432,0.018497314,0.006516042,-0.000330793,0.005636179,0.000485170,0.000851319,-0.122873061,0.257124615,1.132941361,-0.001050030,-0.002254326,0.009884172,0.999947092,0.000000000,0.000000000,0.000000000,0.000000000,0.000000000,0.000000000,1.132043042,0.000000000,4.133137703
1772419726.681348324,0.014547000,0.007598000,0.055551000,-0.004182960,0.004892360,0.014614850,0.999872480,-0.008222000,0.009906000,0.029191000,-0.000218454,0.000279857,0.000054487,-0.001245261,0.006601308,0.006040122,0.009166450,-0.000596453,0.999126176,-0.002717233,0.000739071,0.001754728,0.000000000,0.000000000,0.000000000,0.000000000,0.014897352,0.007724752,0.055555427,0.018537359,0.006429903,-0.000255971,0.005214134,0.000787169,-0.001788974,-0.122652425,0.256881629,1.132173346,-0.001048140,-0.002252180,0.009877477,0.999947186,0.000000000,0.000000000,0.000000000,0.000000000,0.000000000,0.000000000,1.131585108,0.000000000,4.133137703
1772419726.691348076,0.014540000,0.007599000,0.055554000,-0.004219200,0.005018210,0.014560570,0.999872490,-0.008292000,0.010158000,0.029081000,-0.000136305,0.000037821,0.000088326,-0.000264819,0.011102352,0.004666213,0.009105150,-0.001245813,0.998343208,-0.003568617,0.000860449,0.001904249,0.000000000,0.000000000,0.000000000,0.000000000,0.014903098,0.007720629,0.055555474,0.018530924,0.006380877,-0.000373159,0.005089821,0.000793148,-0.001548254,-0.123175948,0.256262981,1.131590755,-0.001052773,-0.002246821,0.009872389,0.999947190,0.000000000,0.000000000,0.000000000,0.000000000,0.000000000,0.000000000,1.131173173,0.000000000,4.133137703
1772419726.701348066,0.014536000,0.007599000,0.055566000,-0.004168740,0.005082100,0.014643720,0.999871170,-0.008188000,0.010285000,0.029247000,0.000035528,-0.000146018,0.000064452,0.002043869,0.014669597,0.002953133,0.010131108,-0.000197295,1.000038558,-0.000217761,-0.001262658,-0.000440646,0.000000000,0.000000000,0.000000000,0.000000000,0.014903726,0.007717222,0.055551166,0.018503880,0.006303941,-0.000511496,0.005796440,0.001762905,-0.000492039,-0.123771447,0.255956453,1.131115168,-0.001058006,-0.002244193,0.009868230,0.999947290,0.000000000,0.000000000,0.000000000,0.000000000,0.000000000,0.000000000,1.130079042,0.000000000,4.133137703
1772419726.711348295,0.014550000,0.007593000,0.055562000,-0.004170240,0.005203740,0.014616680,0.999870930,-0.008188000,0.010528000,0.029192000,-0.000018726,-0.000086150,0.000063015,0.003842750,0.014707525,0.002348468,0.012058937,-0.001490993,0.999424408,0.003399500,0.003101587,-0.001081441,0.000000000,0.000000000,0.000000000,0.000000000,0.014902447,0.007718809,0.055547563,0.018568978,0.006336292,-0.000527114,0.006288279,0.001098268,0.000054989,-0.123776913,0.256999836,1.129973511,-0.001057986,-0.002253288,0.009858257,0.999947357,0.000000000,0.000000000,0.000000000,0.000000000,0.000000000,0.000000000,1.128913743,0.000000000,4.133137703
1772419726.721348286,0.014546000,0.007591000,0.055555000,-0.004165570,0.005224480,0.014639260,0.999870510,-0.008178000,0.010570000,0.029237000,0.000060762,-0.000006896,-0.000072417,0.002750610,0.012393779,0.001290079,0.010680851,-0.001916751,1.000214676,0.000633915,0.003535684,0.002114285,0.000000000,0.000000000,0.000000000,0.000000000,0.014904551,0.007717794,0.055546792,0.018721006,0.006256544,-0.000529658,0.006410991,0.000171716,0.000372296,-0.123405847,0.258124576,1.128829053,-0.001054674,-0.002263060,0.009848267,0.999947458,0.000000000,0.000000000,0.000000000,0.000000000,0.000000000,0.000000000,1.127736619,0.000000000,4.133137703
1772419726.731348515,0.014542000,0.007598000,0.055554000,-0.004148770,0.005232600,0.014646480,0.999870440,-0.008144000,0.010586000,0.029252000,0.000014103,-0.000015831,-0.000031760,0.002196793,0.007411871,0.000024502,0.011450723,-0.003050347,0.998484453,0.002266960,0.003078702,-0.000848276,0.000000000,0.000000000,0.000000000,0.000000000,0.014903462,0.007717450,0.055548635,0.018819008,0.006118047,-0.000487985,0.006598363,0.000066228,-0.000910750,-0.123046641,0.257716068,1.127726312,-0.001051596,-0.002259454,0.009838655,0.999947488,0.000000000,0.000000000,0.000000000,0.000000000,0.000000000,0.000000000,1.127565353,0.000000000,4.133137703
1772419726.741348267,0.014546000,0.007594000,0.055556000,-0.004121690,0.005323920,0.014642660,0.999870120,-0.008087000,0.010767000,0.029243000,-0.000125874,-0.000028730,0.000023563,0.000269874,0.002379497,-0.004066739,0.010662686,-0.000321748,0.998627978,-0.000962144,-0.000248638,-0.002937302,0.000000000,0.000000000,0.000000000,0.000000000,0.014905175,0.007715269,0.055549226,0.018953633,0.005946761,-0.000601670,0.006783096,0.001754574,-0.001434441,-0.123823990,0.256704655,1.127477827,-0.001058471,-0.002250693,0.009836481,0.999947573,0.000000000,0.000000000,0.000000000,0.000000000,0.000000000,0.000000000,1.126813323,0.000000000,4.133137703
1772419726.751349211,0.014538000,0.007598000,0.055561000,-0.004117060,0.005292210,0.014627440,0.999870530,-0.008079000,0.010704000,0.029213000,-0.000125156,-0.000022533,0.000024553,0.000900256,-0.004680271,-0.005638765,0.011805536,-0.000986625,0.997079560,0.003100161,0.000274351,-0.001089341,0.000000000,0.000000000,0.000000000,0.000000000,0.014909273,0.007708377,0.055548004,0.019103067,0.005979476,-0.000721360,0.006971791,0.001284870,-0.002715833,-0.123748529,0.255889077,1.126381304,-0.001057904,-0.002243560,0.009826922,0.999947754,0.000000000,0.000000000,0.000000000,0.000000000,0.000000000,0.000000000,1.124972699,0.000000000,4.133137703
1772419726.761349440,0.014542000,0.007596000,0.055560000,-0.004169120,0.005303170,0.014573120,0.999871050,-0.008183000,0.010727000,0.029104000,0.000029021,-0.000088462,-0.000103516,0.001456430,-0.008799264,-0.005987092,0.011487134,-0.000682605,0.997397270,-0.001193624,0.000096674,-0.001646140,0.000000000,0.000000000,0.000000000,0.000000000,0.014811809,0.007678232,0.055545870,0.018512301,0.005707824,-0.000977153,0.006772208,0.001764531,-0.002167011,-0.122190174,0.258217003,1.126266617,-0.001044107,-0.002263739,0.009825930,0.999947349,0.000000000,0.000000000,0.000000000,0.000000000,0.000000000,0.000000000,1.126190388,0.000000000,4.133137703
1772419726.771349430,0.014545000,0.007586000,0.055560000,-0.004117240,0.005236950,0.014559620,0.999871810,-0.008081000,0.010593000,0.029078000,0.000097863,-0.000142366,-0.000238695,0.001978238,-0.008577565,-0.002575565,0.011840550,0.000432094,0.999220237,-0.001390604,-0.001841733,0.002932373,0.000000000,0.000000000,0.000000000,0.000000000,0.014776145,0.007667014,0.055542486,0.018343148,0.005643359,-0.001110681,0.007120665,0.002816665,-0.000959354,-0.120343866,0.263503695,1.129268524,-0.001027483,-0.002309740,0.009852111,0.999947355,0.000000000,0.000000000,0.000000000,0.000000000,0.000000000,0.000000000,1.129354192,0.000000000,4.133137703
1772419726.781350613,0.014540000,0.007594000,0.055551000,-0.004130410,0.005106580,0.014511640,0.999873130,-0.008112000,0.010332000,0.028983000,-0.000032751,0.000066628,-0.000152215,0.002125056,-0.006001115,0.002138266,0.011272670,-0.001312970,0.999565620,-0.000345524,-0.001173764,0.000731680,0.000000000,0.000000000,0.000000000,0.000000000,0.014749100,0.007657450,0.055542690,0.018386632,0.005673720,-0.001120935,0.007278556,0.002661259,-0.000382920,-0.120387200,0.262737959,1.127963959,-0.001027953,-0.002303050,0.009840734,0.999947450,0.000000000,0.000000000,0.000000000,0.000000000,0.000000000,0.000000000,1.127407500,0.000000000,4.132684249
1772419726.791351318,0.014546000,0.007595000,0.055547000,-0.004080620,0.005088810,0.014550110,0.999872870,-0.008013000,0.010295000,0.029061000,0.000220163,-0.000077467,0.000019406,0.000156048,-0.004087489,0.003980284,0.010874323,-0.001641070,0.999059225,0.000352351,0.001049235,-0.000817705,0.000000000,0.000000000,0.000000000,0.000000000,0.014765967,0.007662534,0.055543999,0.018685252,0.005734115,-0.001087771,0.006110053,0.000233869,-0.000801624,-0.119762369,0.264387605,1.126445487,-0.001022390,-0.002317378,0.009827481,0.999947525,0.000000000,0.000000000,0.000000000,0.000000000,0.000000000,0.000000000,1.125460900,0.000000000,4.132152413
1772419726.801352739,0.014544000,0.007592000,0.055554000,-0.004093040,0.005149590,0.014620420,0.999871480,-0.008035000,0.010418000,0.029201000,0.000245066,0.000051884,0.000156333,-0.004829477,-0.005749157,0.004366003,0.010649745,-0.000381139,0.999357128,0.000815962,0.002376397,-0.001492844,0.000000000,0.000000000,0.000000000,0.000000000,0.014841464,0.007684869,0.055541824,0.019143625,0.005768260,-0.001134835,0.006546636,0.002197784,-0.000944552,-0.118767176,0.264228329,1.124971277,-0.001013749,-0.002315890,0.009814638,0.999947685,0.000000000,0.000000000,0.000000000,0.000000000,0.000000000,0.000000000,1.123945457,0.000000000,4.131620538
1772419726.811353207,0.014547000,0.007592000,0.055557000,-0.004126330,0.005211630,0.014651870,0.999870560,-0.008099000,0.010543000,0.029263000,0.000117832,0.000109596,0.000178322,-0.007515259,-0.003338587,0.002546047,0.010101944,0.000318324,1.000598677,0.001273040,-0.000540996,-0.001289518,0.000000000,0.000000000,0.000000000,0.000000000,0.014888460,0.007693218,0.055537575,0.019454547,0.005870943,-0.001175331,0.005329063,0.002619978,0.000663451,-0.118556059,0.263344482,1.123875737,-0.001012004,-0.002308150,0.009805090,0.999947795,0.000000000,0.000000000,0.000000000,0.000000000,0.000000000,0.000000000,1.122916511,0.000000000,4.131088715
1772419726.821353674,0.014542000,0.007599000,0.055563000,-0.004172750,0.005094080,0.014633600,0.999871240,-0.008196000,0.010309000,0.029227000,-0.000124184,0.000079293,0.000027972,-0.004867563,-0.004080480,0.000781095,0.008900580,-0.000291472,0.999250040,0.001095203,-0.002926564,-0.001013572,0.000000000,0.000000000,0.000000000,0.000000000,0.014903530,0.007706723,0.055533712,0.019550876,0.006019860,-0.001101083,0.003445737,0.002221336,-0.001398534,-0.118238043,0.262605128,1.122860116,-0.001009313,-0.002301662,0.009796241,0.999947903,0.000000000,0.000000000,0.000000000,0.000000000,0.000000000,0.000000000,1.121663204,0.000000000,4.130556891
1772419726.831354380,0.014564000,0.007583000,0.055557000,-0.004242270,0.004972220,0.014566210,0.999872540,-0.008339000,0.010067000,0.029092000,-0.000144134,0.000135334,-0.000214064,-0.001955402,-0.006998863,-0.003134970,0.008034749,-0.000682198,0.997456246,-0.000503697,0.000506898,-0.003102456,0.000000000,0.000000000,0.000000000,0.000000000,0.014907649,0.007712127,0.055531388,0.019438023,0.006087543,-0.001181891,0.003201191,0.001573850,-0.001937031,-0.117548580,0.263412816,1.121423869,-0.001003257,-0.002308638,0.009783716,0.999948021,0.000000000,0.000000000,0.000000000,0.000000000,0.000000000,0.000000000,1.119928895,0.000000000,4.130025055
1772419726.841355085,0.014541000,0.007606000,0.055552000,-0.004249430,0.004988600,0.014609080,0.999871810,-0.008353000,0.010100000,0.029178000,-0.000144017,0.000242017,-0.000221815,0.002794584,-0.002875713,-0.002112235,0.009863374,-0.000466312,0.999003042,-0.002146812,0.002470612,-0.000009061,0.000000000,0.000000000,0.000000000,0.000000000,0.014911579,0.007714293,0.055527672,0.019276164,0.006089145,-0.001345691,0.004862197,0.002089394,-0.000624728,-0.117414650,0.264183635,1.119825586,-0.001002054,-0.002315339,0.009769765,0.999948188,0.000000000,0.000000000,0.000000000,0.000000000,0.000000000,0.000000000,1.118421918,0.000000000,4.129493219
1772419726.851355553,0.014533000,0.007599000,0.055551000,-0.004128400,0.005112440,0.014600550,0.999871810,-0.008107000,0.010344000,0.029161000,-0.000123058,0.000148077,-0.000006974,0.005493291,0.002835780,0.000782685,0.008525521,0.000324717,0.998524460,-0.001414281,0.001631890,0.004800692,0.000000000,0.000000000,0.000000000,0.000000000,0.014919516,0.007715335,0.055529196,0.019293980,0.006133069,-0.001337921,0.004132686,0.001807080,-0.000717306,-0.117866949,0.263288669,1.118442021,-0.001006105,-0.002307556,0.009757690,0.999948299,0.000000000,0.000000000,0.000000000,0.000000000,0.000000000,0.000000000,1.117368414,0.000000000,4.128961396
1772419726.861356258,0.014540000,0.007598000,0.055548000,-0.004101410,0.005016640,0.014603060,0.999872370,-0.008056000,0.010152000,0.029167000,0.000096756,-0.000053361,0.000224068,0.004396367,0.003414622,0.000229412,0.007934421,-0.001522714,0.998527129,-0.000552448,-0.001709852,0.000329338,0.000000000,0.000000000,0.000000000,0.000000000,0.014917606,0.007718779,0.055533956,0.019154116,0.006174060,-0.001360346,0.003795043,0.000404035,-0.001670995,-0.118541131,0.262986188,1.117382909,-0.001012035,-0.002304964,0.009748436,0.999948323,0.000000000,0.000000000,0.000000000,0.000000000,0.000000000,0.000000000,1.117403183,0.000000000,4.128429560
1772419726.871356487,0.014555000,0.007598000,0.055556000,-0.004138040,0.005040460,0.014564530,0.999872660,-0.008129000,0.010200000,0.029089000,0.000064647,-0.000157304,0.000352021,0.001732257,0.002670560,-0.000534504,0.009226451,-0.001471092,0.997647338,-0.000756825,-0.002161159,0.000547539,0.000000000,0.000000000,0.000000000,0.000000000,0.014917097,0.007715524,0.055534091,0.019047487,0.006089840,-0.001432582,0.004201640,0.000496829,-0.001336527,-0.118574339,0.263109466,1.117222219,-0.001012318,-0.002306041,0.009747033,0.999948362,0.000000000,0.000000000,0.000000000,0.000000000,0.000000000,0.000000000,1.116221745,0.000000000,4.127897749
1772419726.881356716,0.014542000,0.007603000,0.055565000,-0.004120310,0.005157060,0.014650310,0.999870890,-0.008089000,0.010434000,0.029260000,0.000184518,-0.000311772,0.000146989,0.000399622,0.000232449,-0.001379441,0.009816037,-0.002173755,0.999145865,0.001910964,0.000428029,0.005099797,0.000000000,0.000000000,0.000000000,0.000000000,0.014917081,0.007710880,0.055533234,0.018950898,0.005980699,-0.001514103,0.004766437,0.000874077,-0.000755303,-0.118366780,0.263912429,1.116481388,-0.001010453,-0.002313024,0.009740564,0.999948425,0.000000000,0.000000000,0.000000000,0.000000000,0.000000000,0.000000000,1.114674211,0.000000000,4.128202726
1772419726.891357183,0.014549000,0.007589000,0.055563000,-0.004138590,0.005045070,0.014588550,0.999872290,-0.008129000,0.010210000,0.029137000,0.000059654,-0.000115288,-0.000119231,-0.000353575,-0.001620185,-0.002013308,0.009979952,-0.002166433,0.999111750,0.001380343,-0.000012242,0.004969922,0.000000000,0.000000000,0.000000000,0.000000000,0.014916302,0.007708231,0.055532196,0.018897446,0.005901345,-0.001565997,0.005435342,0.000169778,-0.000963682,-0.118319556,0.263832513,1.116021958,-0.001010057,-0.002312319,0.009736557,0.999948495,0.000000000,0.000000000,0.000000000,0.000000000,0.000000000,0.000000000,1.114795361,0.000000000,4.128573263
1772419726.901356697,0.014551000,0.007588000,0.055559000,-0.004159310,0.004989690,0.014515510,0.999873540,-0.008173000,0.010099000,0.028991000,0.000020163,-0.000155536,-0.000255478,0.002770984,0.002159464,-0.003458574,0.010122909,-0.002124182,0.999002236,0.000692417,-0.000601515,0.004609706,0.000000000,0.000000000,0.000000000,0.000000000,0.014914498,0.007708259,0.055530916,0.018901868,0.005861958,-0.001578138,0.006104183,-0.000534453,-0.001172041,-0.118272337,0.263752604,1.115562573,-0.001009661,-0.002311614,0.009732550,0.999948502,0.000000000,0.000000000,0.000000000,0.000000000,0.000000000,0.000000000,1.114916499,0.000000000,4.128943764
1772419726.911356688,0.014536000,0.007595000,0.055552000,-0.004095300,0.005151420,0.014592760,0.999871860,-0.008040000,0.010421000,0.029145000,0.000144988,-0.000032615,-0.000245707,0.002203333,0.000169290,-0.003373457,0.010265873,-0.002081929,0.998892716,0.000004457,-0.001190817,0.004249472,0.000000000,0.000000000,0.000000000,0.000000000,0.014912695,0.007708286,0.055529636,0.018906291,0.005822570,-0.001590279,0.005681706,-0.000356289,-0.000962664,-0.118225115,0.263672692,1.115103165,-0.001009265,-0.002310908,0.009728543,0.999948502,0.000000000,0.000000000,0.000000000,0.000000000,0.000000000,0.000000000,1.115037642,0.000000000,4.129314283
1772419726.921356916,0.014550000,0.007594000,0.055547000,-0.004049680,0.005066140,0.014567740,0.999872850,-0.007951000,0.010249000,0.029096000,0.000291142,0.000054623,0.000054584,0.000717987,-0.000186449,-0.001221951,0.010408840,-0.002039675,0.998783194,-0.000683518,-0.001780132,0.003889230,0.000000000,0.000000000,0.000000000,0.000000000,0.014910891,0.007708314,0.055528356,0.018910713,0.005783180,-0.001602421,0.005092437,-0.000043267,-0.000689440,-0.118181845,0.263605020,1.114678998,-0.001008902,-0.002310310,0.009724843,0.999948502,0.000000000,0.000000000,0.000000000,0.000000000,0.000000000,0.000000000,1.115158789,0.000000000,4.129684810
1772419726.931356668,0.014559000,0.007592000,0.055554000,-0.004118820,0.005056740,0.014507390,0.999873490,-0.008090000,0.010232000,0.028975000,-0.000081002,0.000239103,0.000283275,-0.000032065,0.005535414,0.003637324,0.010527127,-0.001924376,0.998728373,-0.001191263,-0.001873586,0.003337939,0.000000000,0.000000000,0.000000000,0.000000000,0.014909088,0.007708341,0.055527076,0.018915135,0.005743793,-0.001614563,0.004503196,0.000269741,-0.000416230,-0.118222907,0.263798507,1.115006899,-0.001009237,-0.002312005,0.009727702,0.999948502,0.000000000,0.000000000,0.000000000,0.000000000,0.000000000,0.000000000,1.115039972,0.000000000,4.130055320
1772419726.941357136,0.014551000,0.007592000,0.055561000,-0.004085950,0.005182850,0.014541470,0.999872490,-0.008021000,0.010483000,0.029043000,-0.000434383,0.000257401,0.000212588,-0.001396832,0.006657384,0.005536008,0.010337610,-0.000888679,0.999363790,0.000571118,0.004264366,0.000383164,0.000000000,0.000000000,0.000000000,0.000000000,0.014911916,0.007706481,0.055521744,0.018911242,0.005638513,-0.001637754,0.005877247,0.001542565,-0.000758701,-0.118140666,0.263946038,1.115002082,-0.001008507,-0.002313285,0.009727661,0.999948547,0.000000000,0.000000000,0.000000000,0.000000000,0.000000000,0.000000000,1.113986061,0.000000000,4.130425857
1772419726.951356888,0.014548000,0.007600000,0.055563000,-0.004151580,0.005069210,0.014603240,0.999871900,-0.008155000,0.010259000,0.029166000,-0.000501768,0.000197669,-0.000108664,-0.000515014,0.008732013,0.005452480,0.011739166,-0.000187236,1.000259488,0.001342739,0.000373304,0.000227848,0.000000000,0.000000000,0.000000000,0.000000000,0.014917561,0.007704385,0.055521759,0.019000402,0.005646447,-0.001637959,0.006843161,0.001785488,-0.000068711,-0.117701086,0.263817497,1.113981457,-0.001004703,-0.002312117,0.009718764,0.999948638,0.000000000,0.000000000,0.000000000,0.000000000,0.000000000,0.000000000,1.113288056,0.000000000,4.130796367
1772419726.961357117,0.014540000,0.007597000,0.055563000,-0.004099750,0.005169450,0.014653880,0.999870860,-0.008047000,0.010458000,0.029267000,-0.000387918,0.000061441,-0.000365463,0.000723523,0.009608352,0.004398482,0.010731966,-0.001307715,0.999594442,-0.001029683,-0.001108803,0.000095913,0.000000000,0.000000000,0.000000000,0.000000000,0.014919734,0.007703287,0.055525201,0.019130827,0.005665657,-0.001551894,0.006252240,0.001038529,-0.000135572,-0.117491788,0.262789950,1.113245424,-0.001002978,-0.002303127,0.009712355,0.999948712,0.000000000,0.000000000,0.000000000,0.000000000,0.000000000,0.000000000,1.112679447,0.000000000,4.131166894
1772419726.971355915,0.014524000,0.007606000,0.055550000,-0.004102430,0.005341380,0.014658450,0.999869880,-0.008048000,0.010802000,0.029275000,0.000161519,-0.000049456,-0.000393474,0.000873091,0.005033125,0.000930129,0.009636119,-0.001586833,0.998350199,-0.001021123,0.000190159,0.000819218,0.000000000,0.000000000,0.000000000,0.000000000,0.014919783,0.007705052,0.055529189,0.019192197,0.005626166,-0.001516611,0.005190557,0.000260679,-0.001654925,-0.116815155,0.263409464,1.112627544,-0.000997034,-0.002308470,0.009706972,0.999948740,0.000000000,0.000000000,0.000000000,0.000000000,0.000000000,0.000000000,1.112374036,0.000000000,4.131537369
1772419726.981356621,0.014533000,0.007601000,0.055543000,-0.004101340,0.005267410,0.014645740,0.999870460,-0.008048000,0.010654000,0.029250000,0.000471368,-0.000245163,-0.000074359,-0.002029169,-0.000084691,-0.002584878,0.010620460,-0.002184837,0.998987990,-0.000253974,-0.000172014,0.000093905,0.000000000,0.000000000,0.000000000,0.000000000,0.014917268,0.007705801,0.055531289,0.019170233,0.005518929,-0.001587346,0.005429529,0.000038192,-0.001369226,-0.116931772,0.262607810,1.112351595,-0.000998125,-0.002301482,0.009704569,0.999948764,0.000000000,0.000000000,0.000000000,0.000000000,0.000000000,0.000000000,1.111765509,0.000000000,4.131907914
1772419726.991356850,0.014557000,0.007590000,0.055543000,-0.004085020,0.005268290,0.014598450,0.999871210,-0.008016000,0.010655000,0.029156000,0.000391667,-0.000245882,0.000247320,-0.004779110,-0.001862996,-0.004858685,0.010747329,-0.001050671,1.000042819,0.001613236,0.000768062,0.000066650,0.000000000,0.000000000,0.000000000,0.000000000,0.014908793,0.007707080,0.055527804,0.019185991,0.005400550,-0.001614419,0.006512499,0.000910722,0.000482012,-0.116645349,0.262811351,1.111280566,-0.000995630,-0.002303225,0.009695226,0.999948848,0.000000000,0.000000000,0.000000000,0.000000000,0.000000000,0.000000000,1.110234259,0.000000000,4.132278442
1772419727.001357079,0.014558000,0.007590000,0.055557000,-0.004174230,0.005174760,0.014558720,0.999871910,-0.008197000,0.010470000,0.029076000,0.000204196,-0.000050447,0.000264278,-0.007512981,-0.001511966,-0.003772246,0.010633475,-0.001778089,0.999761477,0.002544988,0.003489779,0.000814060,0.000000000,0.000000000,0.000000000,0.000000000,0.014904676,0.007707465,0.055521011,0.019259884,0.005364560,-0.001554282,0.006185746,0.001235161,0.000120599,-0.116295189,0.263093986,1.110143529,-0.000992573,-0.002305651,0.009685308,0.999948976,0.000000000,0.000000000,0.000000000,0.000000000,0.000000000,0.000000000,1.109268860,0.000000000,4.132648969
1772419727.011357069,0.014553000,0.007598000,0.055562000,-0.004186670,0.005216590,0.014601060,0.999871030,-0.008220000,0.010554000,0.029160000,-0.000301729,0.000193182,0.000020591,-0.007020071,0.000948590,0.000072194,0.008449665,-0.002070773,0.999169857,0.000497011,0.001953716,0.000360828,0.000000000,0.000000000,0.000000000,0.000000000,0.014911076,0.007703128,0.055519869,0.019250933,0.005270862,-0.001542982,0.005083859,0.000171778,-0.000846275,-0.115181916,0.263009606,1.109125660,-0.000982886,-0.002304812,0.009676450,0.999949065,0.000000000,0.000000000,0.000000000,0.000000000,0.000000000,0.000000000,1.108642046,0.000000000,4.133019488
1772419727.021356821,0.014537000,0.007592000,0.055562000,-0.004231690,0.005205680,0.014596440,0.999870960,-0.008311000,0.010534000,0.029151000,-0.000512704,0.000341958,-0.000303885,-0.004398181,0.001677604,0.002434985,0.008138171,-0.001735012,0.998644395,-0.001329459,0.000559338,0.000409383,0.000000000,0.000000000,0.000000000,0.000000000,0.014920862,0.007697181,0.055521551,0.019195818,0.005123618,-0.001560820,0.003079174,-0.000012071,-0.001654379,-0.114098009,0.262119190,1.108613111,-0.000973513,-0.002296946,0.009672007,0.999949098,0.000000000,0.000000000,0.000000000,0.000000000,0.000000000,0.000000000,1.108649094,0.000000000,4.133137703
1772419727.031356335,0.014536000,0.007603000,0.055549000,-0.004256430,0.005287980,0.014559450,0.999870960,-0.008358000,0.010699000,0.029076000,-0.000189666,0.000170532,-0.000383703,-0.000771861,-0.004733256,0.002106411,0.008496111,-0.000099049,0.999744343,-0.001347336,0.001715383,-0.001287152,0.000000000,0.000000000,0.000000000,0.000000000,0.014924220,0.007695135,0.055524897,0.019094121,0.005063121,-0.001564559,0.003818567,0.001655322,-0.000326224,-0.114755056,0.261224105,1.108646744,-0.000979322,-0.002289191,0.009672294,0.999949162,0.000000000,0.000000000,0.000000000,0.000000000,0.000000000,0.000000000,1.107860859,0.000000000,4.133137703
1772419727.041356325,0.014540000,0.007604000,0.055537000,-0.004225980,0.005328360,0.014628620,0.999869870,-0.008296000,0.010779000,0.029214000,0.000282867,-0.000134538,-0.000083120,0.001681537,-0.007829682,-0.000898381,0.008762186,-0.000587401,1.000263954,-0.003232535,0.003600646,0.000434237,0.000000000,0.000000000,0.000000000,0.000000000,0.014919773,0.007694567,0.055528812,0.018950716,0.005080478,-0.001525212,0.004123682,0.001622771,0.000055101,-0.114603773,0.259886849,1.107807184,-0.000978131,-0.002277502,0.009664984,0.999949307,0.000000000,0.000000000,0.000000000,0.000000000,0.000000000,0.000000000,1.106489782,0.000000000,4.133137703
1772419727.051356316,0.014537000,0.007603000,0.055541000,-0.004222910,0.005116180,0.014642580,0.999870780,-0.008295000,0.010355000,0.029244000,0.000482537,-0.000334441,0.000316104,0.001827317,-0.008594272,-0.003580520,0.010050493,-0.001771434,1.000283658,0.000089457,0.002234760,0.002300004,0.000000000,0.000000000,0.000000000,0.000000000,0.014910867,0.007694498,0.055529100,0.018837944,0.005098303,-0.001447004,0.005497731,0.000922935,0.000108626,-0.114556695,0.258226046,1.106329448,-0.000977890,-0.002262993,0.009652105,0.999949435,0.000000000,0.000000000,0.000000000,0.000000000,0.000000000,0.000000000,1.105247511,0.000000000,4.133137703
1772419727.061356783,0.014561000,0.007590000,0.055555000,-0.004179540,0.005047750,0.014570800,0.999872360,-0.008211000,0.010216000,0.029101000,0.000361908,-0.000314219,0.000422553,0.002139830,-0.006081428,-0.003640553,0.011054622,-0.001344252,1.000385696,0.005506021,-0.000334235,0.002101043,0.000000000,0.000000000,0.000000000,0.000000000,0.014906196,0.007698219,0.055523778,0.018852349,0.005056089,-0.001400139,0.006615824,0.000606613,0.000192072,-0.114941793,0.256401858,1.105220421,-0.000981426,-0.002247098,0.009642436,0.999949574,0.000000000,0.000000000,0.000000000,0.000000000,0.000000000,0.000000000,1.104734279,0.000000000,4.133137703
1772419727.071357012,0.014557000,0.007588000,0.055564000,-0.004200860,0.005045050,0.014529160,0.999872890,-0.008255000,0.010211000,0.029018000,0.000003749,-0.000170571,0.000181682,0.001102656,0.000551798,-0.004086175,0.010474393,-0.001049762,1.000267674,0.003462782,0.000250786,0.001737591,0.000000000,0.000000000,0.000000000,0.000000000,0.014905605,0.007700173,0.055517786,0.018957668,0.005014997,-0.001335412,0.005879994,0.000970606,0.001340973,-0.114375075,0.255199849,1.104716778,-0.000976591,-0.002236557,0.009638063,0.999949574,0.000000000,0.000000000,0.000000000,0.000000000,0.000000000,0.000000000,1.104767106,0.000000000,4.133137703
1772419727.081356764,0.014547000,0.007590000,0.055566000,-0.004220060,0.005182350,0.014517840,0.999872280,-0.008289000,0.010486000,0.028994000,-0.000190696,0.000114977,-0.000203458,0.000631498,0.006705747,-0.002786716,0.009955042,-0.001035410,1.000672205,0.000070567,0.001857881,-0.000797556,0.000000000,0.000000000,0.000000000,0.000000000,0.014889041,0.007694418,0.055519926,0.018868755,0.004949733,-0.001197016,0.005309876,0.000803522,0.000523399,-0.113131598,0.254803388,1.104816149,-0.000965772,-0.002232993,0.009638958,0.999949544,0.000000000,0.000000000,0.000000000,0.000000000,0.000000000,0.000000000,1.104919434,0.000000000,4.133137703
1772419727.091356754,0.014546000,0.007592000,0.055550000,-0.004188260,0.005207140,0.014544920,0.999871890,-0.008225000,0.010535000,0.029048000,-0.000226224,0.000154682,-0.000288734,0.002086421,0.008440837,0.002542944,0.009313475,-0.001089418,1.000630665,-0.000905839,0.002090079,0.000470212,0.000000000,0.000000000,0.000000000,0.000000000,0.014820849,0.007668814,0.055531102,0.018312296,0.004745601,-0.001032274,0.004921012,0.001647987,0.000466344,-0.111920989,0.257423445,1.106229235,-0.000954959,-0.002255767,0.009651290,0.999949288,0.000000000,0.000000000,0.000000000,0.000000000,0.000000000,0.000000000,1.105814474,0.000000000,4.133137703
1772419727.101356268,0.014542000,0.007599000,0.055541000,-0.004182160,0.005176240,0.014561340,0.999871830,-0.008213000,0.010473000,0.029081000,-0.000192832,0.000141842,-0.000127564,0.002858325,0.000980194,0.005507729,0.008592153,-0.000423183,0.999417177,0.000790388,0.001125630,-0.000106602,0.000000000,0.000000000,0.000000000,0.000000000,0.014858164,0.007673118,0.055537714,0.018437123,0.004807746,-0.000936927,0.004394100,0.002108605,-0.000233126,-0.110988717,0.260765772,1.107822772,-0.000946511,-0.002284867,0.009665185,0.999949258,0.000000000,0.000000000,0.000000000,0.000000000,0.000000000,0.000000000,1.107505063,0.000000000,4.133137703
1772419727.111356735,0.014545000,0.007601000,0.055542000,-0.004175160,0.005249740,0.014554310,0.999871580,-0.008197000,0.010620000,0.029067000,0.000179371,-0.000051224,0.000127040,0.002731463,-0.003635614,0.003000340,0.008452292,-0.000116055,1.000751634,-0.001357089,0.000157855,-0.002780627,0.000000000,0.000000000,0.000000000,0.000000000,0.014887504,0.007680292,0.055543830,0.018495178,0.004948110,-0.000920405,0.004169326,0.001470139,0.000209709,-0.110578734,0.260730273,1.107340610,-0.000942946,-0.002284519,0.009660986,0.999949276,0.000000000,0.000000000,0.000000000,0.000000000,0.000000000,0.000000000,1.106857603,0.000000000,4.133137703
1772419727.121356726,0.014550000,0.007592000,0.055557000,-0.004148360,0.005136520,0.014607320,0.999871510,-0.008146000,0.010393000,0.029174000,0.000105381,-0.000103399,0.000211344,0.000348054,-0.003660312,-0.001674241,0.010259455,-0.000546549,1.000700964,0.000190356,0.003004514,0.000222667,0.000000000,0.000000000,0.000000000,0.000000000,0.014895750,0.007684167,0.055539274,0.018463481,0.004986658,-0.000845882,0.004948452,0.001147009,0.000013219,-0.109475147,0.260790170,1.106790010,-0.000933322,-0.002284944,0.009656203,0.999949363,0.000000000,0.000000000,0.000000000,0.000000000,0.000000000,0.000000000,1.106310982,0.000000000,4.133137703
1772419727.131357193,0.014550000,0.007587000,0.055568000,-0.004132230,0.005137130,0.014623510,0.999871340,-0.008114000,0.010394000,0.029207000,-0.000061480,0.000007071,0.000151379,-0.001377186,0.001136326,-0.004242460,0.012275952,-0.000883105,0.999121360,0.002855998,-0.001195226,-0.001280624,0.000000000,0.000000000,0.000000000,0.000000000,0.014899091,0.007690836,0.055532079,0.018621511,0.005033808,-0.000776465,0.005949593,0.001251656,-0.001090863,-0.109438021,0.260195280,1.106246730,-0.000933059,-0.002279745,0.009651468,0.999949396,0.000000000,0.000000000,0.000000000,0.000000000,0.000000000,0.000000000,1.105670988,0.000000000,4.133137703
1772419727.141357899,0.014547000,0.007596000,0.055555000,-0.004170930,0.005115830,0.014545590,0.999872420,-0.008192000,0.010352000,0.029050000,-0.000248058,0.000236422,-0.000191958,-0.002253689,0.006364523,-0.003525531,0.009369968,-0.000618287,0.997426911,-0.003335476,0.000903713,-0.002199180,0.000000000,0.000000000,0.000000000,0.000000000,0.014903197,0.007695279,0.055529126,0.018787892,0.005053714,-0.000865194,0.004253646,0.001849588,-0.002087097,-0.109098015,0.260135548,1.105482724,-0.000930112,-0.002279189,0.009644808,0.999949494,0.000000000,0.000000000,0.000000000,0.000000000,0.000000000,0.000000000,1.104361971,0.000000000,4.133137703
1772419727.151358366,0.014548000,0.007595000,0.055547000,-0.004206060,0.005221740,0.014473600,0.999872770,-0.008260000,0.010564000,0.028905000,-0.000071465,0.000128943,-0.000362607,-0.003940359,0.003677919,-0.003690615,0.007426677,-0.000233468,0.999074261,-0.001039011,-0.002524637,-0.000705521,0.000000000,0.000000000,0.000000000,0.000000000,0.014908576,0.007692858,0.055534994,0.018685312,0.005100211,-0.001038547,0.003401745,0.000969151,-0.001012390,-0.109392406,0.259619330,1.104022950,-0.000932753,-0.002274698,0.009632068,0.999949626,0.000000000,0.000000000,0.000000000,0.000000000,0.000000000,0.000000000,1.102794513,0.000000000,4.133137703
