t,px,py,pz,qx,qy,qz,qw,roll,pitch,yaw,vx,vy,vz,wx_vicon,wy_vicon,wz_vicon,imu_acc_x,imu_acc_y,imu_acc_z,imu_gyro_x,imu_gyro_y,imu_gyro_z,motor_motor_m1,motor_motor_m2,motor_motor_m3,motor_motor_m4,est_stateEstimate_x,est_stateEstimate_y,est_stateEstimate_z,est_stateEstimate_vx,est_stateEstimate_vy,est_stateEstimate_vz,est_stateEstimate_ax,est_stateEstimate_ay,est_stateEstimate_az,att_stateEstimate_roll,att_stateEstimate_pitch,att_stateEstimate_yaw,att_stateEstimate_qx,att_stateEstimate_qy,att_stateEstimate_qz,att_stateEstimate_qw,sp_ctrltarget_x,sp_ctrltarget_y,sp_ctrltarget_z,sp_ctrltarget_yaw,pid_controller_roll,pid_controller_pitch,pid_controller_yaw,pid_controller_cmd_thrust,pwr_pm_vbat
1772682540.385919094,0.015872000,0.005099000,0.054569000,-0.001886680,0.014864750,-0.004631930,0.999877000,-0.003912000,0.029713000,-0.009323000,0.001854106,0.005122854,-0.008069256,0.155646375,-0.224670313,0.090142193,0.013976418,0.002954496,0.999323070,-0.001845996,0.001197225,-0.000039706,0.000000000,0.000000000,0.000000000,0.000000000,0.016623300,0.005216101,0.054529575,0.039665559,0.006248636,-0.001881417,0.012778536,0.002330662,-0.001786595,0.021214153,0.052801234,-0.362195451,0.000183671,-0.000461361,-0.003160657,0.999993867,0.000000000,0.000000000,0.000000000,0.000000000,0.000000000,0.000000000,-0.362080979,0.000000000,4.003993350
1772682540.395918846,0.015857000,0.005107000,0.054577000,-0.001950750,0.014954960,-0.004635330,0.999875520,-0.004041000,0.029893000,-0.009332000,0.000031217,0.000752000,-0.001699634,0.022130900,-0.033520444,0.016595325,0.013743578,0.003137595,0.999759194,-0.001774377,-0.000515073,-0.000404646,0.000000000,0.000000000,0.000000000,0.000000000,0.016626263,0.005220173,0.054526353,0.039754188,0.006291826,-0.001926450,0.012898140,0.002121337,-0.000159092,0.020445527,0.051903336,-0.361546363,0.000176991,-0.000453503,-0.003154998,0.999993920,0.000000000,0.000000000,0.000000000,0.000000000,0.000000000,0.000000000,-0.361461400,0.000000000,4.003489732
1772682540.405918837,0.015854000,0.005108000,0.054572000,-0.002049150,0.015027630,-0.004637580,0.999874220,-0.004239000,0.030037000,-0.009340000,-0.000785237,-0.001434185,0.001609422,-0.049378408,0.071364351,-0.022690338,0.012423069,0.004081893,0.999077802,-0.000278725,-0.000117358,0.000982783,0.000000000,0.000000000,0.000000000,0.000000000,0.016629666,0.005218425,0.054522326,0.039817212,0.006336391,-0.001870952,0.011044180,0.003124479,-0.000874938,0.020239828,0.051265016,-0.361010926,0.000175215,-0.000447926,-0.003150327,0.999993920,0.000000000,0.000000000,0.000000000,0.000000000,0.000000000,0.000000000,-0.360895133,0.000000000,4.002986102
1772682540.415918350,0.015859000,0.005103000,0.054548000,-0.001965800,0.015100090,-0.004587320,0.999873530,-0.004071000,0.030183000,-0.009237000,-0.000881277,-0.001974175,0.002611079,-0.073932594,0.109886085,-0.036251200,0.011872354,0.003414633,0.997279778,0.002635667,-0.001481413,0.000495376,0.000000000,0.000000000,0.000000000,0.000000000,0.016639827,0.005212211,0.054517235,0.039730568,0.006425957,-0.001941359,0.011498980,0.002992210,-0.002445992,0.020216319,0.051483311,-0.360611934,0.000175006,-0.000449830,-0.003146845,0.999993920,0.000000000,0.000000000,0.000000000,0.000000000,0.000000000,0.000000000,-0.360571097,0.000000000,4.002482496
1772682540.425917149,0.015878000,0.005093000,0.054548000,-0.001988090,0.014960660,-0.004667780,0.999875210,-0.004117000,0.029903000,-0.009398000,-0.000542923,-0.001406445,0.002058501,-0.066612704,0.101946700,-0.032563356,0.012440628,0.001562838,0.998071342,-0.001820971,0.000453281,0.001552878,0.000000000,0.000000000,0.000000000,0.000000000,0.016646383,0.005210221,0.054517296,0.039712269,0.006444609,-0.002093294,0.011527215,0.001825086,-0.002225395,0.019890333,0.052183681,-0.360173334,0.000172144,-0.000455932,-0.003143018,0.999993965,0.000000000,0.000000000,0.000000000,0.000000000,0.000000000,0.000000000,-0.360074742,0.000000000,4.001978926
1772682540.435918093,0.015876000,0.005085000,0.054558000,-0.002088200,0.015153500,-0.004643040,0.999872220,-0.004319000,0.030288000,-0.009353000,-0.000056198,-0.000269471,0.000704854,-0.042425952,0.067471348,-0.020182797,0.012585659,0.000717133,0.998335742,-0.001002235,-0.000666013,-0.003046080,0.000000000,0.000000000,0.000000000,0.000000000,0.016647778,0.005207357,0.054527008,0.039663952,0.006348739,-0.002144911,0.010509987,0.000040361,-0.001701751,0.019635974,0.052086258,-0.360051871,0.000169927,-0.000455075,-0.003141959,0.999993980,0.000000000,0.000000000,0.000000000,0.000000000,0.000000000,0.000000000,-0.360237162,0.000000000,4.001475248
1772682540.445917606,0.015796000,0.005034000,0.054709000,-0.003825930,0.017848230,-0.005453440,0.999818520,-0.007850000,0.035656000,-0.011049000,-0.000725115,0.000158104,0.001013545,-0.048182580,0.061856122,-0.025446134,0.011814984,0.000754080,0.999680821,0.000779483,-0.002488557,0.001873600,0.000000000,0.000000000,0.000000000,0.000000000,0.016638979,0.005212841,0.054530606,0.039493362,0.006183493,-0.002166834,0.011586671,0.000202898,-0.000687207,0.019320644,0.052685303,-0.360670247,0.000167156,-0.000460295,-0.003147356,0.999993938,0.000000000,0.000000000,0.000000000,0.000000000,0.000000000,0.000000000,-0.360596665,0.000000000,4.001173019
1772682540.455918074,0.015846000,0.005089000,0.054607000,-0.003269360,0.016815370,-0.005281240,0.999839320,-0.006719000,0.033597000,-0.010677000,-0.000896215,0.000560717,0.000460132,-0.050050642,0.050697745,-0.029765658,0.014087206,0.002249395,0.999227121,0.000899929,-0.000918781,-0.003588811,0.000000000,0.000000000,0.000000000,0.000000000,0.016627364,0.005216369,0.054529138,0.039468311,0.006077401,-0.002113931,0.012655206,0.001564457,-0.000579850,0.018809673,0.054820805,-0.360005450,0.000162641,-0.000478916,-0.003141553,0.999993967,0.000000000,0.000000000,0.000000000,0.000000000,0.000000000,0.000000000,-0.359880427,0.000000000,4.001173019
1772682540.465917110,0.015848000,0.005110000,0.054570000,-0.002804180,0.016314400,-0.005005520,0.999850450,-0.005774000,0.032602000,-0.010107000,-0.000293850,0.000598810,-0.000741588,-0.030163795,0.024469229,-0.024160007,0.013759381,0.002115812,0.998234962,-0.001058231,-0.000980357,-0.001344869,0.000000000,0.000000000,0.000000000,0.000000000,0.016666097,0.005223911,0.054512518,0.039676785,0.006089869,-0.002188554,0.012088699,0.001561679,-0.001358020,0.018407429,0.055706397,-0.359231376,0.000159110,-0.000486632,-0.003134798,0.999993980,0.000000000,0.000000000,0.000000000,0.000000000,0.000000000,0.000000000,-0.359182928,0.000000000,4.001173019
1772682540.475917101,0.015872000,0.005112000,0.054541000,-0.002539160,0.015532950,-0.004943480,0.999863910,-0.005234000,0.031042000,-0.009969000,0.000832635,0.000428293,-0.001650663,0.009493530,-0.027304385,-0.006238007,0.013803718,0.002653027,0.998594368,-0.001819446,0.001307475,-0.003128456,0.000000000,0.000000000,0.000000000,0.000000000,0.016651029,0.005217053,0.054514673,0.039585959,0.006026754,-0.002245100,0.013151708,0.002618819,-0.001615589,0.018932591,0.056011652,-0.359973396,0.000163682,-0.000489311,-0.003141271,0.999993921,0.000000000,0.000000000,0.000000000,0.000000000,0.000000000,0.000000000,-0.360151054,0.000000000,4.001173019
1772682540.485916615,0.015783000,0.005072000,0.054667000,-0.004162270,0.017636710,-0.005836730,0.999818760,-0.008534000,0.035226000,-0.011826000,0.000884676,-0.000050293,-0.000911619,0.023899489,-0.031799654,0.005429215,0.014162314,0.002715310,0.999969985,-0.002117461,0.001391338,-0.000698198,0.000000000,0.000000000,0.000000000,0.000000000,0.016645250,0.005213018,0.054520248,0.039645007,0.006096054,-0.002209901,0.013422447,0.002258339,0.000604468,0.018873792,0.054737831,-0.359756341,0.000163204,-0.000478193,-0.003139379,0.999993979,0.000000000,0.000000000,0.000000000,0.000000000,0.000000000,0.000000000,-0.359644688,0.000000000,4.001173019
1772682540.495916367,0.015855000,0.005093000,0.054569000,-0.003428790,0.016868310,-0.005508620,0.999836670,-0.007046000,0.033700000,-0.011138000,0.000145808,-0.000669461,0.000706098,0.011119423,0.006976264,0.004364495,0.014175680,0.001523050,0.999279265,-0.002658888,0.000662736,-0.001315211,0.000000000,0.000000000,0.000000000,0.000000000,0.016637951,0.005209376,0.054533948,0.039730334,0.006036067,-0.002019447,0.013111722,0.000962119,-0.001067426,0.018716835,0.053768642,-0.359117052,0.000161864,-0.000469730,-0.003133802,0.999993980,0.000000000,0.000000000,0.000000000,0.000000000,0.000000000,0.000000000,-0.359069758,0.000000000,4.001173019
1772682540.505915880,0.015880000,0.005085000,0.054559000,-0.002772870,0.016265360,-0.005179720,0.999850450,-0.005716000,0.032503000,-0.010454000,0.000471962,-0.000186232,-0.000147012,0.036851008,-0.023335236,0.017711725,0.014036298,0.001326655,0.998701906,-0.001112961,0.001215060,-0.001101705,0.000000000,0.000000000,0.000000000,0.000000000,0.016634751,0.005209134,0.054535589,0.039802443,0.005951455,-0.002041990,0.012912580,0.000645050,-0.001467743,0.018293083,0.054191099,-0.358875694,0.000158155,-0.000473405,-0.003131697,0.999993992,0.000000000,0.000000000,0.000000000,0.000000000,0.000000000,0.000000000,-0.358818832,0.000000000,4.001173019
1772682540.515916348,0.015878000,0.005093000,0.054570000,-0.002344750,0.015693410,-0.004897140,0.999862110,-0.004845000,0.031365000,-0.009872000,0.000571518,0.000216458,-0.000886716,0.061851372,-0.060283519,0.032455372,0.013992795,0.001274278,0.999013101,-0.001319005,0.002499526,0.001244651,0.000000000,0.000000000,0.000000000,0.000000000,0.016634758,0.005209855,0.054530090,0.039862139,0.005859004,-0.002093355,0.013852146,0.001662491,-0.000429089,0.017625945,0.053552760,-0.358068470,0.000152354,-0.000467815,-0.003124657,0.999994039,0.000000000,0.000000000,0.000000000,0.000000000,0.000000000,0.000000000,-0.357871006,0.000000000,4.001173019
1772682540.525916338,0.015837000,0.005087000,0.054609000,-0.002773890,0.016423950,-0.005090920,0.999848310,-0.005717000,0.032821000,-0.010277000,0.000581813,0.000229551,-0.001038954,0.064203541,-0.076856088,0.034599070,0.013673451,0.002716947,0.999441391,-0.003276346,0.003809898,0.001025511,0.000000000,0.000000000,0.000000000,0.000000000,0.016637313,0.005211221,0.054522054,0.039980359,0.005865708,-0.002089663,0.013060731,0.001880301,-0.000683811,0.016940936,0.052762526,-0.357779976,0.000146399,-0.000460900,-0.003122143,0.999993988,0.000000000,0.000000000,0.000000000,0.000000000,0.000000000,0.000000000,-0.357817738,0.000000000,4.001173019
1772682540.535916328,0.015858000,0.005092000,0.054560000,-0.002285300,0.015741410,-0.004897270,0.999861490,-0.004727000,0.031461000,-0.009870000,-0.000484200,-0.000066202,0.000224928,0.026501680,-0.038368218,0.015055519,0.012500752,0.002416789,1.000373537,-0.002695636,0.000014506,0.002267522,0.000000000,0.000000000,0.000000000,0.000000000,0.016644567,0.005207919,0.054518502,0.040009949,0.005874764,-0.002037204,0.011569790,0.001138259,-0.000178907,0.016457938,0.052557847,-0.357969731,0.000142189,-0.000459101,-0.003123801,0.999993980,0.000000000,0.000000000,0.000000000,0.000000000,0.000000000,0.000000000,-0.357997057,0.000000000,4.001173019
1772682540.545915842,0.015869000,0.005092000,0.054553000,-0.002074480,0.015311500,-0.004858900,0.999868810,-0.004299000,0.030604000,-0.009785000,-0.000065425,0.000220305,-0.000346609,0.024380614,-0.043842898,0.014648996,0.012369467,0.000203830,0.999543640,0.000576016,0.001706358,-0.001973684,0.000000000,0.000000000,0.000000000,0.000000000,0.016653267,0.005204203,0.054518067,0.039967111,0.005772061,-0.001968854,0.011346648,0.000403151,-0.000273291,0.016114894,0.052725979,-0.358087919,0.000139190,-0.000460559,-0.003124833,0.999993980,0.000000000,0.000000000,0.000000000,0.000000000,0.000000000,0.000000000,-0.358120716,0.000000000,4.001345217
1772682540.555915594,0.015874000,0.005093000,0.054553000,-0.001882240,0.015023480,-0.004675310,0.999874440,-0.003906000,0.030030000,-0.009410000,0.000081354,0.000291363,-0.000335828,0.027184211,-0.044737802,0.014802275,0.013066197,0.001445649,0.999211184,-0.001053551,-0.002277089,-0.003269537,0.000000000,0.000000000,0.000000000,0.000000000,0.016659383,0.005199259,0.054523677,0.039951538,0.005642306,-0.001906217,0.011729121,0.001085039,-0.000411661,0.015397459,0.053439808,-0.358205562,0.000132910,-0.000466769,-0.003125862,0.999993980,0.000000000,0.000000000,0.000000000,0.000000000,0.000000000,0.000000000,-0.358199325,0.000000000,4.001856567
1772682540.565916061,0.015867000,0.005090000,0.054566000,-0.001866140,0.015149590,-0.004609070,0.999872870,-0.003873000,0.030283000,-0.009278000,0.000107734,0.000222092,-0.000162689,0.021772324,-0.035727967,0.012501091,0.012292273,0.002537923,1.000463023,0.000638897,-0.005180817,0.000652094,0.000000000,0.000000000,0.000000000,0.000000000,0.016653554,0.005200763,0.054530638,0.039889056,0.005655641,-0.001802021,0.011438287,0.002807759,0.000150666,0.014727650,0.053961074,-0.358100763,0.000127051,-0.000471299,-0.003124950,0.999994005,0.000000000,0.000000000,0.000000000,0.000000000,0.000000000,0.000000000,-0.357889944,0.000000000,4.002367953
1772682540.575915813,0.015850000,0.005101000,0.054572000,-0.001839660,0.014885050,-0.004620760,0.999876840,-0.003818000,0.029754000,-0.009299000,-0.000038268,-0.000002564,0.000076789,0.002209038,-0.008346885,0.002522731,0.013122588,0.001920831,0.998743791,0.000360890,-0.000953381,0.003226732,0.000000000,0.000000000,0.000000000,0.000000000,0.016642742,0.005206140,0.054532130,0.039800754,0.005733841,-0.001728402,0.011890491,0.002165211,-0.000532893,0.015336894,0.054101975,-0.356769847,0.000132369,-0.000472544,-0.003113333,0.999994040,0.000000000,0.000000000,0.000000000,0.000000000,0.000000000,0.000000000,-0.356659888,0.000000000,4.002879303
1772682540.585915804,0.015863000,0.005105000,0.054560000,-0.001809120,0.014793300,-0.004617110,0.999878280,-0.003756000,0.029571000,-0.009291000,0.000447214,-0.000310614,-0.000186621,-0.002217950,-0.005000486,-0.002053795,0.013515171,0.000430072,0.998402918,-0.001770687,-0.004351675,-0.003278432,0.000000000,0.000000000,0.000000000,0.000000000,0.016638720,0.005207997,0.054528440,0.039828324,0.005710193,-0.001785247,0.013008829,0.000994651,-0.001665063,0.015452872,0.055161445,-0.355872860,0.000133356,-0.000481791,-0.003105503,0.999994040,0.000000000,0.000000000,0.000000000,0.000000000,0.000000000,0.000000000,-0.355937784,0.000000000,4.003390665
1772682540.595915556,0.015866000,0.005095000,0.054554000,-0.001761440,0.014915860,-0.004672710,0.999876280,-0.003663000,0.029816000,-0.009401000,0.000672025,-0.000388355,-0.000058956,-0.007118764,-0.006814660,-0.004916033,0.013653817,0.000555853,0.999679955,-0.002016351,-0.001195211,-0.002191252,0.000000000,0.000000000,0.000000000,0.000000000,0.016641265,0.005206039,0.054524984,0.039906837,0.005577046,-0.001838609,0.012336270,-0.000602330,-0.000828633,0.014796873,0.055143013,-0.356611029,0.000127629,-0.000481614,-0.003111948,0.999994040,0.000000000,0.000000000,0.000000000,0.000000000,0.000000000,0.000000000,-0.356668775,0.000000000,4.003902014
1772682540.605915070,0.015885000,0.005082000,0.054547000,-0.001870800,0.014862500,-0.004651460,0.999876980,-0.003881000,0.029708000,-0.009362000,0.000450477,-0.000281631,0.000283612,-0.008337671,-0.003960062,-0.003365110,0.013392974,0.002268578,1.000765836,-0.001296388,0.001431441,0.001093944,0.000000000,0.000000000,0.000000000,0.000000000,0.016649676,0.005198928,0.054525365,0.039990051,0.005453676,-0.001753769,0.012923303,0.001693302,0.001008873,0.013861184,0.056146845,-0.355946463,0.000119439,-0.000490348,-0.003106151,0.999994057,0.000000000,0.000000000,0.000000000,0.000000000,0.000000000,0.000000000,-0.355855040,0.000000000,4.004413352
1772682540.615915537,0.015887000,0.005085000,0.054557000,-0.001913710,0.014765360,-0.004658870,0.999878300,-0.003966000,0.029514000,-0.009377000,-0.000081820,-0.000017716,0.000327125,-0.008520188,0.006273482,-0.002744010,0.012945057,0.004310738,1.000744833,-0.000714536,0.002589136,-0.000344465,0.000000000,0.000000000,0.000000000,0.000000000,0.016655406,0.005193103,0.054532720,0.040062239,0.005530159,-0.001558535,0.012450856,0.003254088,0.000984526,0.013990792,0.056322603,-0.355500584,0.000120567,-0.000491884,-0.003102260,0.999994082,0.000000000,0.000000000,0.000000000,0.000000000,0.000000000,0.000000000,-0.355528610,0.000000000,4.004924738
1772682540.625915289,0.015883000,0.005081000,0.054578000,-0.001979160,0.014855760,-0.004707920,0.999876600,-0.004100000,0.029694000,-0.009478000,-0.000503451,0.000345211,0.000198645,-0.005654636,0.005699281,-0.002879885,0.012352399,0.004794740,1.001384237,0.000000528,-0.000430077,-0.000141851,0.000000000,0.000000000,0.000000000,0.000000000,0.016650592,0.005197749,0.054543299,0.040044210,0.005777218,-0.001354221,0.011362400,0.005865367,0.000941238,0.013301367,0.056118089,-0.356076320,0.000114554,-0.000490082,-0.003107287,0.999994051,0.000000000,0.000000000,0.000000000,0.000000000,0.000000000,0.000000000,-0.356151261,0.000000000,4.005436088
1772682540.635915518,0.015864000,0.005101000,0.054574000,-0.001983470,0.014814520,-0.004669890,0.999877390,-0.004107000,0.029611000,-0.009402000,-0.000403157,0.000507608,-0.000200879,-0.000083027,0.011547474,-0.001649351,0.013734823,0.004261598,1.000857713,-0.000561957,-0.001380057,0.001767336,0.000000000,0.000000000,0.000000000,0.000000000,0.016641425,0.005209845,0.054546621,0.039995961,0.006125714,-0.001136496,0.012214769,0.003850148,0.001275273,0.013811987,0.056464509,-0.355572182,0.000119003,-0.000493118,-0.003102885,0.999994099,0.000000000,0.000000000,0.000000000,0.000000000,0.000000000,0.000000000,-0.355475423,0.000000000,4.005947462
1772682540.645915031,0.015856000,0.005101000,0.054567000,-0.001939400,0.015035760,-0.004715080,0.999873960,-0.004022000,0.030054000,-0.009492000,-0.000227375,0.000292451,-0.000239808,0.001452075,0.018972499,-0.001459105,0.014171668,0.002007023,0.999366311,-0.001628102,0.001234258,0.002271518,0.000000000,0.000000000,0.000000000,0.000000000,0.016640040,0.005215214,0.054541396,0.040103561,0.006271597,-0.001098143,0.013535245,0.002445773,-0.001179368,0.014937452,0.056593508,-0.354762215,0.000128824,-0.000494273,-0.003095812,0.999994099,0.000000000,0.000000000,0.000000000,0.000000000,0.000000000,0.000000000,-0.354625280,0.000000000,4.006444457
1772682540.655915260,0.015865000,0.005102000,0.054542000,-0.001923260,0.015080020,-0.004727510,0.999873260,-0.003990000,0.030143000,-0.009516000,0.000093359,-0.000065852,-0.000051788,-0.000528928,0.019652165,-0.000316349,0.013468373,0.000452822,0.998923372,0.002627997,-0.000423239,-0.002798040,0.000000000,0.000000000,0.000000000,0.000000000,0.016644895,0.005214605,0.054533769,0.040237317,0.006186214,-0.001186517,0.012574737,0.000271236,-0.000504246,0.014243702,0.056436872,-0.354290791,0.000122776,-0.000492887,-0.003091701,0.999994099,0.000000000,0.000000000,0.000000000,0.000000000,0.000000000,0.000000000,-0.354324518,0.000000000,4.005936136
1772682540.665915489,0.015878000,0.005096000,0.054557000,-0.001926390,0.015052920,-0.004712760,0.999873740,-0.003996000,0.030088000,-0.009487000,0.000198490,-0.000263759,0.000312887,-0.001590061,0.009724355,-0.000691366,0.013351700,0.001996550,1.001007269,-0.002582199,0.000707877,0.001064298,0.000000000,0.000000000,0.000000000,0.000000000,0.016650069,0.005214452,0.054534239,0.040314642,0.006072481,-0.001157232,0.012042591,0.001244242,0.000296157,0.013684318,0.057261466,-0.354396806,0.000117872,-0.000500068,-0.003092628,0.999994099,0.000000000,0.000000000,0.000000000,0.000000000,0.000000000,0.000000000,-0.354319296,0.000000000,4.005427816
1772682540.675915956,0.015878000,0.005093000,0.054564000,-0.001938930,0.015278870,-0.004688400,0.999870400,-0.004023000,0.030540000,-0.009439000,0.000091650,-0.000253619,0.000533366,-0.002624003,0.001404029,-0.000861576,0.014149547,0.004212319,1.002249424,0.000070043,-0.001825513,0.000960942,0.000000000,0.000000000,0.000000000,0.000000000,0.016654144,0.005212119,0.054545952,0.040386091,0.006136186,-0.000914681,0.012493039,0.002964060,0.002332125,0.012648445,0.056751379,-0.353742404,0.000108849,-0.000495588,-0.003086922,0.999994099,0.000000000,0.000000000,0.000000000,0.000000000,0.000000000,0.000000000,-0.353720602,0.000000000,4.004919483
1772682540.685915709,0.015868000,0.005089000,0.054586000,-0.002053830,0.015201530,-0.004719990,0.999871200,-0.004253000,0.030384000,-0.009506000,-0.000167992,-0.000001943,0.000303038,0.000002360,-0.009139086,-0.000481533,0.014367273,0.004839715,1.000734356,-0.000604634,0.002407104,0.001889954,0.000000000,0.000000000,0.000000000,0.000000000,0.016656223,0.005212300,0.054558596,0.040500281,0.006319837,-0.000675164,0.013461867,0.004314061,0.001505414,0.013274940,0.057234536,-0.353557431,0.000114304,-0.000499821,-0.003085305,0.999994124,0.000000000,0.000000000,0.000000000,0.000000000,0.000000000,0.000000000,-0.353490558,0.000000000,4.004411187
1772682540.695914745,0.015865000,0.005092000,0.054579000,-0.001968010,0.015124500,-0.004727000,0.999872510,-0.004080000,0.030231000,-0.009517000,-0.000082966,0.000076206,-0.000218751,0.002833335,-0.011224641,-0.000412047,0.013500921,0.004254621,1.000363302,-0.000914686,0.002493690,0.002282298,0.000000000,0.000000000,0.000000000,0.000000000,0.016654262,0.005216910,0.054562591,0.040600071,0.006556385,-0.000580699,0.012862781,0.004106860,-0.000016181,0.013867085,0.054740007,-0.353040927,0.000119541,-0.000478068,-0.003080797,0.999994159,0.000000000,0.000000000,0.000000000,0.000000000,0.000000000,0.000000000,-0.352907161,0.000000000,4.003902927
1772682540.705915451,0.015866000,0.005096000,0.054565000,-0.001931100,0.014937050,-0.004738680,0.999875340,-0.004005000,0.029857000,-0.009538000,0.000448690,-0.000070709,-0.000643781,0.004587334,-0.004253607,0.001118071,0.013711427,0.001349393,1.000378609,0.000525177,-0.002484017,0.002390861,0.000000000,0.000000000,0.000000000,0.000000000,0.016651999,0.005221045,0.054557513,0.040652641,0.006651946,-0.000562067,0.011920779,0.001277169,0.000250658,0.013118736,0.054281982,-0.352102220,0.000113026,-0.000474050,-0.003072609,0.999994174,0.000000000,0.000000000,0.000000000,0.000000000,0.000000000,0.000000000,-0.351974524,0.000000000,4.003394582
1772682540.715915203,0.015871000,0.005100000,0.054553000,-0.001913150,0.015034110,-0.004701070,0.999874100,-0.003969000,0.030051000,-0.009463000,0.000670937,-0.000111522,-0.000427691,0.004531544,-0.001952787,0.002000994,0.013723386,0.001746300,0.997559241,-0.000428510,-0.001355523,0.005530428,0.000000000,0.000000000,0.000000000,0.000000000,0.016655357,0.005220482,0.054551250,0.040712538,0.006528682,-0.000616423,0.012974322,-0.000287429,-0.000787710,0.013073201,0.054885903,-0.350986803,0.000112618,-0.000479317,-0.003062875,0.999994230,0.000000000,0.000000000,0.000000000,0.000000000,0.000000000,0.000000000,-0.350853043,0.000000000,4.002886286
1772682540.725915670,0.015882000,0.005091000,0.054553000,-0.001870630,0.014995760,-0.004715900,0.999874690,-0.003884000,0.029975000,-0.009491000,0.000446942,-0.000070573,-0.000059772,0.001356057,0.005146495,0.001691295,0.013175582,0.004013662,0.997212879,-0.000290343,0.000641250,0.003010182,0.000000000,0.000000000,0.000000000,0.000000000,0.016660869,0.005218178,0.054549125,0.040786951,0.006493011,-0.000811915,0.012809767,0.003674915,-0.003257970,0.012719221,0.056419497,-0.348673765,0.000109497,-0.000492689,-0.003042690,0.999994278,0.000000000,0.000000000,0.000000000,0.000000000,0.000000000,0.000000000,-0.348350548,0.000000000,4.002377954
1772682540.735915422,0.015896000,0.005087000,0.054556000,-0.001930610,0.015131420,-0.004665650,0.999872760,-0.004004000,0.030246000,-0.009393000,-0.000063211,0.000043202,0.000300454,-0.004187663,0.006667711,0.002123072,0.012570117,0.004635131,0.998971350,0.000806498,-0.000900156,-0.000849596,0.000000000,0.000000000,0.000000000,0.000000000,0.016659968,0.005220324,0.054547428,0.040813734,0.006748807,-0.000987484,0.011212986,0.004058558,-0.001314879,0.012846219,0.057220826,-0.347667149,0.000110589,-0.000499684,-0.003033905,0.999994278,0.000000000,0.000000000,0.000000000,0.000000000,0.000000000,0.000000000,-0.347650655,0.000000000,4.001869657
1772682540.745915890,0.015894000,0.005083000,0.054572000,-0.001921380,0.015277580,-0.004662580,0.999870570,-0.003987000,0.030538000,-0.009387000,-0.000458131,0.000216886,0.000247597,-0.001755576,0.005882594,0.004043340,0.012457541,0.004012124,0.999541934,0.000898183,-0.001719557,0.000403365,0.000000000,0.000000000,0.000000000,0.000000000,0.016651666,0.005225321,0.054555485,0.040706505,0.006929715,-0.000986363,0.011642751,0.003618757,-0.000743525,0.013487105,0.058539849,-0.346850535,0.000116150,-0.000511211,-0.003026774,0.999994278,0.000000000,0.000000000,0.000000000,0.000000000,0.000000000,0.000000000,-0.346558725,0.000000000,4.001361325
1772682540.755915880,0.015865000,0.005102000,0.054572000,-0.001935540,0.014971100,-0.004696290,0.999875020,-0.004013000,0.029925000,-0.009454000,-0.000396882,0.000141806,-0.000077741,0.002874712,0.002925963,0.005311158,0.013000285,0.004301817,1.000211316,0.001045286,0.000111733,-0.000269243,0.000000000,0.000000000,0.000000000,0.000000000,0.016649680,0.005230748,0.054559279,0.040704688,0.007084866,-0.000965206,0.011661842,0.003397932,-0.000094107,0.013846770,0.059122173,-0.346076511,0.000119277,-0.000516301,-0.003020017,0.999994326,0.000000000,0.000000000,0.000000000,0.000000000,0.000000000,0.000000000,-0.346054673,0.000000000,4.001173019
1772682540.765915632,0.015864000,0.005100000,0.054563000,-0.001956360,0.015124720,-0.004659480,0.999872840,-0.004055000,0.030232000,-0.009381000,-0.000077838,-0.000078246,-0.000146255,0.005099551,0.001656729,0.007542515,0.012459909,0.004387815,1.000043241,-0.002182534,-0.001096463,-0.001177551,0.000000000,0.000000000,0.000000000,0.000000000,0.016650390,0.005231615,0.054553219,0.040656005,0.007254633,-0.000924398,0.011661556,0.004150472,0.000246744,0.013673310,0.058461392,-0.346435909,0.000117779,-0.000510531,-0.003023155,0.999994288,0.000000000,0.000000000,0.000000000,0.000000000,0.000000000,0.000000000,-0.346561671,0.000000000,4.001173019
1772682540.775915861,0.015869000,0.005099000,0.054554000,-0.001907350,0.015157310,-0.004554620,0.999872930,-0.003954000,0.030298000,-0.009170000,0.000153092,-0.000235243,0.000029585,0.005324477,-0.006710836,0.006884279,0.014383491,0.002944953,0.999427436,0.002306807,0.000114783,-0.000454783,0.000000000,0.000000000,0.000000000,0.000000000,0.016658811,0.005232147,0.054547083,0.040751693,0.007437268,-0.000929655,0.013480047,0.002716828,-0.001316441,0.013925332,0.058367837,-0.347164844,0.000119978,-0.000509722,-0.003029515,0.999994278,0.000000000,0.000000000,0.000000000,0.000000000,0.000000000,0.000000000,-0.347207799,0.000000000,4.001173019
1772682540.785915852,0.015881000,0.005091000,0.054557000,-0.001772970,0.015164870,-0.004536450,0.999873140,-0.003685000,0.030314000,-0.009130000,0.000227511,-0.000136542,0.000316908,0.004036744,-0.009030575,0.004975977,0.014123523,0.002265266,0.999601790,0.000475100,0.003727163,0.002511169,0.000000000,0.000000000,0.000000000,0.000000000,0.016665895,0.005230326,0.054543702,0.040999093,0.007399240,-0.000971241,0.013606420,0.000937573,-0.000119384,0.015544845,0.058621180,-0.347170311,0.000134104,-0.000511975,-0.003029555,0.999994299,0.000000000,0.000000000,0.000000000,0.000000000,0.000000000,0.000000000,-0.347104631,0.000000000,4.001173019
1772682540.795915604,0.015894000,0.005078000,0.054563000,-0.001808410,0.015118260,-0.004552940,0.999873710,-0.003756000,0.030221000,-0.009164000,0.000028866,-0.000021931,0.000406712,0.000949913,-0.008504825,-0.001452385,0.012757627,0.003238592,0.999141312,0.000518523,-0.006328535,-0.000731133,0.000000000,0.000000000,0.000000000,0.000000000,0.016662762,0.005232628,0.054549082,0.041060287,0.007366006,-0.000965501,0.012338920,0.002607837,-0.001315278,0.015054541,0.056117722,-0.346127245,0.000129896,-0.000490115,-0.003020458,0.999994338,0.000000000,0.000000000,0.000000000,0.000000000,0.000000000,0.000000000,-0.345956287,0.000000000,4.001173019
1772682540.805915117,0.015880000,0.005087000,0.054583000,-0.001905400,0.014961260,-0.004537520,0.999875960,-0.003948000,0.029906000,-0.009135000,-0.000366462,0.000233436,0.000100236,-0.004819299,-0.011008601,-0.008167454,0.014133555,0.002381921,0.996375865,0.000503623,-0.005397310,-0.004810965,0.000000000,0.000000000,0.000000000,0.000000000,0.016661866,0.005237045,0.054551161,0.041126777,0.007417349,-0.001130723,0.012739314,0.002554814,-0.002552279,0.014372640,0.056252478,-0.345420943,0.000123944,-0.000491272,-0.003014297,0.999994304,0.000000000,0.000000000,0.000000000,0.000000000,0.000000000,0.000000000,-0.345623578,0.000000000,4.001173019
1772682540.815915108,0.015861000,0.005104000,0.054577000,-0.001901800,0.014830360,-0.004615280,0.999877560,-0.003942000,0.029644000,-0.009290000,-0.000437229,0.000354982,-0.000393425,-0.009271300,0.001541389,-0.009985432,0.012717669,0.001277980,0.998154204,0.000653009,0.003930137,-0.000732187,0.000000000,0.000000000,0.000000000,0.000000000,0.016660617,0.005240389,0.054550808,0.041174094,0.007389913,-0.001307141,0.012192915,0.001225096,-0.002232439,0.014127298,0.057240832,-0.346639336,0.000121772,-0.000499892,-0.003024929,0.999994309,0.000000000,0.000000000,0.000000000,0.000000000,0.000000000,0.000000000,-0.346630070,0.000000000,4.001173019
1772682540.825914860,0.015862000,0.005106000,0.054567000,-0.001883060,0.015002790,-0.004667780,0.999874780,-0.003907000,0.029989000,-0.009395000,-0.000203696,0.000229473,-0.000531928,-0.010920415,0.010643904,-0.006914826,0.012218784,0.001478955,0.999220332,0.003326067,-0.003742817,0.001487132,0.000000000,0.000000000,0.000000000,0.000000000,0.016662723,0.005239449,0.054545363,0.041149215,0.007263303,-0.001414778,0.011731768,0.001110217,-0.001003925,0.013884866,0.055954020,-0.346433981,0.000119691,-0.000488656,-0.003023140,0.999994338,0.000000000,0.000000000,0.000000000,0.000000000,0.000000000,0.000000000,-0.346258798,0.000000000,4.001173019
1772682540.835915089,0.015870000,0.005094000,0.054548000,-0.001999420,0.015075470,-0.004743940,0.999873110,-0.004143000,0.030133000,-0.009551000,0.000233223,-0.000062317,-0.000156511,-0.007880700,0.010410618,-0.003744955,0.014134846,0.004358657,1.000078436,0.000555549,0.000129446,0.001696629,0.000000000,0.000000000,0.000000000,0.000000000,0.016667282,0.005236314,0.054541198,0.041201268,0.007272586,-0.001420408,0.012524870,0.002786871,-0.000073996,0.014238031,0.057718724,-0.345215339,0.000122732,-0.000504063,-0.003012502,0.999994365,0.000000000,0.000000000,0.000000000,0.000000000,0.000000000,0.000000000,-0.345075898,0.000000000,4.001173019
1772682540.845915079,0.015876000,0.005094000,0.054550000,-0.002051640,0.015144760,-0.004702250,0.999872150,-0.004247000,0.030271000,-0.009470000,0.000409412,-0.000260943,0.000326387,-0.006372326,0.000861279,-0.001549678,0.012654394,0.002554980,1.000276176,-0.002070462,0.001585370,0.001881337,0.000000000,0.000000000,0.000000000,0.000000000,0.016669959,0.005233950,0.054540934,0.041255581,0.007321611,-0.001357785,0.012531109,0.003147507,0.000576093,0.014815904,0.058245085,-0.344423451,0.000127765,-0.000508671,-0.003005588,0.999994416,0.000000000,0.000000000,0.000000000,0.000000000,0.000000000,0.000000000,-0.344064435,0.000000000,4.001173019
1772682540.855915308,0.015877000,0.005098000,0.054562000,-0.002040710,0.015233650,-0.004662960,0.999871010,-0.004225000,0.030449000,-0.009391000,0.000122050,-0.000144040,0.000611379,-0.003148923,-0.010072439,0.001654279,0.012387296,0.001539516,1.000243067,-0.000283784,0.001573192,0.000742476,0.000000000,0.000000000,0.000000000,0.000000000,0.016669966,0.005231613,0.054541465,0.041232616,0.007283918,-0.001270741,0.010713536,0.001174915,0.000287580,0.013680157,0.056869778,-0.342380327,0.000117898,-0.000496637,-0.002987765,0.999994444,0.000000000,0.000000000,0.000000000,0.000000000,0.000000000,0.000000000,-0.342085687,0.000000000,4.001718696
1772682540.865914822,0.015880000,0.005089000,0.054585000,-0.002071990,0.014998830,-0.004663360,0.999874490,-0.004285000,0.029979000,-0.009392000,-0.000110279,0.000012899,0.000460831,0.004761326,-0.010569999,0.002710367,0.012700143,0.002163765,0.999502375,0.001042940,-0.000257661,-0.001270554,0.000000000,0.000000000,0.000000000,0.000000000,0.016666015,0.005228785,0.054541796,0.041173068,0.007206886,-0.001224674,0.012174838,0.002165036,-0.000675225,0.012795015,0.055212275,-0.342082173,0.000110219,-0.000482150,-0.002985169,0.999994408,0.000000000,0.000000000,0.000000000,0.000000000,0.000000000,0.000000000,-0.342091217,0.000000000,4.002278713
1772682540.875915051,0.015875000,0.005095000,0.054587000,-0.002012380,0.014832360,-0.004696370,0.999876940,-0.004165000,0.029647000,-0.009456000,-0.000072146,0.000028886,-0.000075934,0.009390203,-0.001613097,0.001915131,0.012586720,0.002721599,0.999898632,0.001183441,-0.001446087,-0.001498139,0.000000000,0.000000000,0.000000000,0.000000000,0.016659454,0.005227740,0.054544972,0.041148401,0.007214824,-0.001229029,0.011587746,0.003320857,-0.000815781,0.012963207,0.055199692,-0.341838579,0.000111688,-0.000482044,-0.002983042,0.999994457,0.000000000,0.000000000,0.000000000,0.000000000,0.000000000,0.000000000,-0.341784784,0.000000000,4.002838770
1772682540.885914326,0.015863000,0.005100000,0.054569000,-0.001990850,0.014871910,-0.004701260,0.999876370,-0.004123000,0.029726000,-0.009465000,-0.000127839,-0.000065114,-0.000464328,0.007522052,0.012637636,-0.000272220,0.012536941,0.002268768,1.000845489,0.001874446,-0.001228588,-0.001405409,0.000000000,0.000000000,0.000000000,0.000000000,0.016658327,0.005231297,0.054550369,0.041112752,0.007298336,-0.001126263,0.011646553,0.002219002,0.001345687,0.013091590,0.056305854,-0.341326509,0.000112781,-0.000491700,-0.002978572,0.999994457,0.000000000,0.000000000,0.000000000,0.000000000,0.000000000,0.000000000,-0.341252701,0.000000000,4.003398773
1772682540.895914316,0.015869000,0.005095000,0.054555000,-0.001897430,0.015107490,-0.004645080,0.999873290,-0.003937000,0.030198000,-0.009351000,-0.000197169,0.000048661,-0.000313936,0.004492499,0.016675702,0.000164067,0.012559930,0.002255869,0.998281840,0.000352581,0.000302257,-0.001066040,0.000000000,0.000000000,0.000000000,0.000000000,0.016664732,0.005232041,0.054547917,0.041093595,0.007235634,-0.001023105,0.011865259,0.001647039,-0.001198291,0.013296334,0.056181051,-0.341129411,0.000114572,-0.000490616,-0.002976851,0.999994457,0.000000000,0.000000000,0.000000000,0.000000000,0.000000000,0.000000000,-0.341139654,0.000000000,4.003958817
1772682540.905913830,0.015881000,0.005089000,0.054560000,-0.001862070,0.015311690,-0.004655760,0.999870200,-0.003868000,0.030607000,-0.009372000,-0.000270034,0.000104859,-0.000015832,-0.002021080,0.016795269,0.000226072,0.012715093,0.003434320,0.997737856,0.000547195,0.002956962,0.001245524,0.000000000,0.000000000,0.000000000,0.000000000,0.016666471,0.005235231,0.054540669,0.041105018,0.007307760,-0.001340250,0.011718609,0.003037462,-0.002941912,0.013855003,0.055028385,-0.340887247,0.000119478,-0.000480571,-0.002974737,0.999994457,0.000000000,0.000000000,0.000000000,0.000000000,0.000000000,0.000000000,-0.340825904,0.000000000,4.004518834
1772682540.915913820,0.015873000,0.005094000,0.054560000,-0.001978210,0.015244640,-0.004687760,0.999870850,-0.004101000,0.030472000,-0.009439000,-0.000208630,0.000053983,0.000376524,-0.007738710,0.000095743,-0.001335439,0.012444355,0.002304436,0.995774601,-0.001214721,0.002439804,-0.000211153,0.000000000,0.000000000,0.000000000,0.000000000,0.016657784,0.005238807,0.054540796,0.041059842,0.007351808,-0.001546579,0.011876490,0.002145564,-0.002707535,0.015428630,0.054254700,-0.339814014,0.000133235,-0.000473859,-0.002965365,0.999994480,0.000000000,0.000000000,0.000000000,0.000000000,0.000000000,0.000000000,-0.339707876,0.000000000,4.005078877
1772682540.925913572,0.015856000,0.005098000,0.054582000,-0.002013160,0.015269680,-0.004690320,0.999870380,-0.004171000,0.030521000,-0.009445000,-0.000001418,0.000015035,0.000262982,-0.011848157,-0.018029700,-0.004266525,0.012438839,0.000278934,0.997579877,0.000910096,0.004173808,0.002706195,0.000000000,0.000000000,0.000000000,0.000000000,0.016652773,0.005242932,0.054538725,0.041039662,0.007266239,-0.001886218,0.011306110,0.000811466,-0.003359237,0.014931398,0.053635365,-0.338818909,0.000128916,-0.000468441,-0.002956684,0.999994551,0.000000000,0.000000000,0.000000000,0.000000000,0.000000000,0.000000000,-0.338633430,0.000000000,4.005638907
1772682540.935913086,0.015861000,0.005102000,0.054582000,-0.002035540,0.014932340,-0.004677770,0.999875490,-0.004212000,0.029846000,-0.009420000,0.000160649,-0.000112007,-0.000095030,-0.010762956,-0.022999165,-0.001887984,0.012055043,0.003009815,0.998282318,0.000581211,0.002419537,-0.001342563,0.000000000,0.000000000,0.000000000,0.000000000,0.016647407,0.005239540,0.054533314,0.040928678,0.007119263,-0.002045359,0.011014125,0.002746479,-0.001884092,0.014155206,0.051711292,-0.337316816,0.000122198,-0.000451628,-0.002943582,0.999994576,0.000000000,0.000000000,0.000000000,0.000000000,0.000000000,0.000000000,-0.337042764,0.000000000,4.006198924
1772682540.945912838,0.015866000,0.005093000,0.054564000,-0.002150150,0.015026160,-0.004710780,0.999873690,-0.004443000,0.030033000,-0.009489000,0.000288605,-0.000246024,-0.000336566,-0.007094870,-0.013170921,0.002588883,0.013519380,0.002604911,0.997415440,0.001441580,0.003878217,0.003497055,0.000000000,0.000000000,0.000000000,0.000000000,0.016654449,0.005235797,0.054526386,0.040946430,0.007186552,-0.002235968,0.012755687,0.002117604,-0.002375105,0.013604819,0.050518683,-0.336256982,0.000117430,-0.000441206,-0.002934336,0.999994625,0.000000000,0.000000000,0.000000000,0.000000000,0.000000000,0.000000000,-0.336167117,0.000000000,4.006159569
1772682540.955911636,0.015877000,0.005092000,0.054562000,-0.002109110,0.014798320,-0.004719580,0.999877140,-0.004359000,0.029577000,-0.009505000,0.000406828,-0.000254727,-0.000294646,-0.002366600,-0.003105849,0.005351333,0.014113429,0.002319337,1.000336907,-0.000018776,0.000475397,0.002289095,0.000000000,0.000000000,0.000000000,0.000000000,0.016661195,0.005233407,0.054525761,0.041112478,0.007152664,-0.002249190,0.013229279,0.001324808,-0.000335062,0.014339586,0.049801282,-0.335491325,0.000123863,-0.000434963,-0.002927653,0.999994636,0.000000000,0.000000000,0.000000000,0.000000000,0.000000000,0.000000000,-0.335351061,0.000000000,4.005627487
1772682540.965911627,0.015885000,0.005085000,0.054554000,-0.002164330,0.014892790,-0.004687440,0.999875770,-0.004470000,0.029766000,-0.009443000,0.000074322,-0.000003089,-0.000027914,0.000889837,0.001495338,0.006578689,0.013396861,0.002038491,0.999795919,-0.002088707,-0.001996986,0.000326465,0.000000000,0.000000000,0.000000000,0.000000000,0.016669887,0.005231405,0.054526961,0.041237499,0.007090853,-0.002140882,0.012739093,0.001755765,-0.000177935,0.014780972,0.050876629,-0.334510875,0.000127692,-0.000444357,-0.002919094,0.999994636,0.000000000,0.000000000,0.000000000,0.000000000,0.000000000,0.000000000,-0.334406747,0.000000000,4.005095341
1772682540.975911140,0.015874000,0.005087000,0.054568000,-0.002068090,0.015060370,-0.004549960,0.999874100,-0.004275000,0.030103000,-0.009165000,-0.000294219,0.000229415,0.000304922,0.006851446,0.005244885,0.004701631,0.012793842,0.001568508,1.000588997,-0.000525934,0.001709925,-0.000641466,0.000000000,0.000000000,0.000000000,0.000000000,0.016661107,0.005231433,0.054528887,0.041272809,0.007041974,-0.002040951,0.011985527,0.001153550,0.000587371,0.013988093,0.051081285,-0.333832001,0.000120770,-0.000446122,-0.002913172,0.999994687,0.000000000,0.000000000,0.000000000,0.000000000,0.000000000,0.000000000,-0.333781252,0.000000000,4.004563221
1772682540.985911131,0.015864000,0.005096000,0.054573000,-0.002113770,0.015063320,-0.004593600,0.999873760,-0.004367000,0.030108000,-0.009254000,-0.000297540,0.000336081,0.000305641,0.010898006,0.002555481,0.000281870,0.012342143,0.001765708,1.000251965,-0.001175758,0.002794659,-0.000040062,0.000000000,0.000000000,0.000000000,0.000000000,0.016659322,0.005228873,0.054529592,0.041227967,0.006882634,-0.001873907,0.011502224,0.001370002,-0.000011377,0.012878486,0.050101478,-0.333458662,0.000111113,-0.000437543,-0.002909919,0.999994695,0.000000000,0.000000000,0.000000000,0.000000000,0.000000000,0.000000000,-0.333420475,0.000000000,4.004031075
1772682540.995910645,0.015869000,0.005100000,0.054573000,-0.002018900,0.014899710,-0.004609890,0.999876330,-0.004177000,0.029782000,-0.009283000,-0.000118573,0.000214380,0.000100779,0.010917709,0.007402190,-0.003786557,0.013099085,0.002705199,1.000052018,0.001279763,0.001131224,-0.000197141,0.000000000,0.000000000,0.000000000,0.000000000,0.016662285,0.005226316,0.054529157,0.041239911,0.006875110,-0.001795346,0.012241465,0.002943829,-0.000572147,0.012497421,0.049305610,-0.333012984,0.000107810,-0.000430588,-0.002906032,0.999994695,0.000000000,0.000000000,0.000000000,0.000000000,0.000000000,0.000000000,-0.332944121,0.000000000,4.003498954
1772682541.005910635,0.015862000,0.005102000,0.054574000,-0.001951440,0.014955300,-0.004633250,0.999875520,-0.004043000,0.029893000,-0.009328000,0.000212593,0.000003846,-0.000126421,0.009597592,0.009674862,-0.004705243,0.013368472,0.002505698,0.999241675,0.001080156,-0.001787193,0.000786166,0.000000000,0.000000000,0.000000000,0.000000000,0.016662661,0.005225970,0.054528904,0.041294312,0.006929203,-0.001784818,0.012157625,0.001873955,-0.000541200,0.012208159,0.048176062,-0.332898133,0.000105314,-0.000420724,-0.002905032,0.999994695,0.000000000,0.000000000,0.000000000,0.000000000,0.000000000,0.000000000,-0.332913652,0.000000000,4.002966809
1772682541.015909910,0.015874000,0.005095000,0.054562000,-0.001872090,0.015070400,-0.004710580,0.999873590,-0.003887000,0.030124000,-0.009481000,0.000249695,-0.000322541,-0.000312401,0.006097278,0.014171232,-0.003017319,0.013572642,0.003802644,0.998657655,0.001917547,-0.001177987,0.000086990,0.000000000,0.000000000,0.000000000,0.000000000,0.016665367,0.005227779,0.054529860,0.041321685,0.006942628,-0.001824779,0.012773855,0.003392658,-0.001021565,0.012524992,0.047038810,-0.332303573,0.000108110,-0.000410807,-0.002899843,0.999994695,0.000000000,0.000000000,0.000000000,0.000000000,0.000000000,0.000000000,-0.332189043,0.000000000,4.002434701
1772682541.025909662,0.015878000,0.005092000,0.054565000,-0.001895350,0.015169470,-0.004702040,0.999872080,-0.003935000,0.030322000,-0.009465000,-0.000085045,-0.000370444,-0.000032207,0.003953832,0.013145488,0.001062318,0.013510105,0.005140677,0.999250185,0.000817347,-0.000692594,-0.003532845,0.000000000,0.000000000,0.000000000,0.000000000,0.016668653,0.005232644,0.054530692,0.041454087,0.007209478,-0.001837326,0.013332171,0.005003767,-0.000779105,0.012767427,0.046494073,-0.331891406,0.000110241,-0.000406059,-0.002896246,0.999994695,0.000000000,0.000000000,0.000000000,0.000000000,0.000000000,0.000000000,-0.331884884,0.000000000,4.001902568
1772682541.035909176,0.015875000,0.005090000,0.054569000,-0.001896320,0.015286580,-0.004631150,0.999870630,-0.003936000,0.030556000,-0.009324000,-0.000262283,-0.000240585,0.000187126,0.000900197,0.003207954,0.003016364,0.012982444,0.004122653,0.998982520,0.001954204,-0.001659410,-0.000972063,0.000000000,0.000000000,0.000000000,0.000000000,0.016669827,0.005236190,0.054532597,0.041519688,0.007459672,-0.001800636,0.011869303,0.004307737,-0.000894423,0.012662181,0.046915294,-0.332315504,0.000109310,-0.000409732,-0.002899947,0.999994695,0.000000000,0.000000000,0.000000000,0.000000000,0.000000000,0.000000000,-0.332462874,0.000000000,4.001370447
1772682541.045908451,0.015870000,0.005086000,0.054564000,-0.001910520,0.015275500,-0.004618360,0.999870830,-0.003964000,0.030534000,-0.009298000,-0.000117893,-0.000037083,0.000144992,0.000341599,-0.013164810,0.000696713,0.013164033,0.002429279,0.997397365,-0.000499488,0.001988943,0.002383784,0.000000000,0.000000000,0.000000000,0.000000000,0.016667711,0.005238491,0.054533106,0.041540556,0.007523188,-0.001887105,0.012209164,0.002737919,-0.002244410,0.012414626,0.047051420,-0.332141707,0.000107147,-0.000410914,-0.002898431,0.999994695,0.000000000,0.000000000,0.000000000,0.000000000,0.000000000,0.000000000,-0.331966735,0.000000000,4.001511154
1772682541.055908680,0.015856000,0.005086000,0.054571000,-0.001865860,0.015095540,-0.004659440,0.999873460,-0.003874000,0.030174000,-0.009378000,-0.000052799,0.000161406,-0.000014317,0.000734422,-0.019445913,-0.004127994,0.011342381,0.002889503,0.997556163,0.001681553,-0.000469774,-0.002083460,0.000000000,0.000000000,0.000000000,0.000000000,0.016671127,0.005238408,0.054529893,0.041516353,0.007537855,-0.002090338,0.010804329,0.002639345,-0.003040923,0.012723707,0.046363394,-0.330764502,0.000109867,-0.000404916,-0.002886413,0.999994747,0.000000000,0.000000000,0.000000000,0.000000000,0.000000000,0.000000000,-0.330547958,0.000000000,4.002048806
1772682541.065907717,0.015861000,0.005095000,0.054579000,-0.001869740,0.014950730,-0.004673150,0.999875560,-0.003880000,0.029885000,-0.009405000,-0.000006274,0.000222208,-0.000126557,0.001357397,-0.010336038,-0.009453856,0.011677804,0.003605493,0.998626053,-0.000608224,0.001621502,0.001964219,0.000000000,0.000000000,0.000000000,0.000000000,0.016672861,0.005240706,0.054525211,0.041374832,0.007629204,-0.002246846,0.010996892,0.003200150,-0.001185692,0.013034333,0.045381395,-0.330346511,0.000112604,-0.000396354,-0.002882765,0.999994755,0.000000000,0.000000000,0.000000000,0.000000000,0.000000000,0.000000000,-0.330443891,0.000000000,4.002586394
1772682541.075907946,0.015877000,0.005093000,0.054566000,-0.001858720,0.014921180,-0.004696300,0.999875920,-0.003859000,0.029826000,-0.009451000,0.000036403,0.000361489,-0.000120458,-0.001165752,0.003452439,-0.010281666,0.012451971,0.003687101,0.998146179,-0.001826387,-0.002130116,-0.001033530,0.000000000,0.000000000,0.000000000,0.000000000,0.016668138,0.005244960,0.054516421,0.041309891,0.007716950,-0.002303139,0.011316143,0.003650306,-0.001877578,0.012611192,0.044785466,-0.331489718,0.000108922,-0.000391144,-0.002892743,0.999994706,0.000000000,0.000000000,0.000000000,0.000000000,0.000000000,0.000000000,-0.331674222,0.000000000,4.003124046
1772682541.085907459,0.015877000,0.005097000,0.054557000,-0.001898890,0.014947690,-0.004837790,0.999874770,-0.003944000,0.029878000,-0.009736000,-0.000234097,0.000349659,-0.000026399,-0.005458895,0.020083794,-0.006223455,0.012808638,0.004096836,0.999566285,-0.003494444,0.000461775,-0.000023243,0.000000000,0.000000000,0.000000000,0.000000000,0.016665601,0.005246723,0.054521741,0.041273914,0.007856068,-0.002337487,0.011782551,0.003760713,-0.000867696,0.012119496,0.044787677,-0.331747933,0.000104630,-0.000391151,-0.002894998,0.999994738,0.000000000,0.000000000,0.000000000,0.000000000,0.000000000,0.000000000,-0.331574127,0.000000000,4.003661659
1772682541.095906734,0.015862000,0.005099000,0.054564000,-0.001895700,0.015201780,-0.004825970,0.999871000,-0.003939000,0.030386000,-0.009713000,-0.000376777,0.000185358,-0.000092291,-0.005045235,0.023889111,-0.000971299,0.013356184,0.001915483,1.001009707,0.000616660,-0.003500085,0.000776917,0.000000000,0.000000000,0.000000000,0.000000000,0.016656242,0.005248352,0.054526481,0.041259894,0.007908777,-0.002205985,0.012453787,0.002440701,0.001001905,0.011546048,0.045015223,-0.330334776,0.000099625,-0.000393121,-0.002882668,0.999994796,0.000000000,0.000000000,0.000000000,0.000000000,0.000000000,0.000000000,-0.330101320,0.000000000,4.004199260
1772682541.105906248,0.015852000,0.005101000,0.054574000,-0.001927460,0.015426830,-0.004798390,0.999867630,-0.004004000,0.030836000,-0.009660000,-0.000420465,0.000009946,0.000005731,-0.001272568,0.015484376,0.004122726,0.013753946,0.002729088,1.001147520,0.001330540,-0.002951509,-0.003331377,0.000000000,0.000000000,0.000000000,0.000000000,0.016658039,0.005249162,0.054527192,0.041324913,0.007853225,-0.001931041,0.012951776,0.001979384,0.001089210,0.010992889,0.046192502,-0.330226354,0.000094769,-0.000403381,-0.002881723,0.999994766,0.000000000,0.000000000,0.000000000,0.000000000,0.000000000,0.000000000,-0.330498403,0.000000000,4.004736873
1772682541.115906000,0.015859000,0.005107000,0.054567000,-0.001976090,0.015339330,-0.004743660,0.999869140,-0.004099000,0.030661000,-0.009551000,0.000130831,-0.000124731,0.000115387,0.002280351,0.002911504,0.010129552,0.014321085,0.004057652,0.999806044,-0.002147240,-0.001758940,-0.000632753,0.000000000,0.000000000,0.000000000,0.000000000,0.016657524,0.005251117,0.054526831,0.041456432,0.007872700,-0.001792898,0.013698667,0.003890470,0.000079816,0.011457834,0.047796809,-0.331671403,0.000098781,-0.000417394,-0.002894330,0.999994704,0.000000000,0.000000000,0.000000000,0.000000000,0.000000000,0.000000000,-0.331728669,0.000000000,4.005274500
1772682541.125905514,0.015850000,0.005097000,0.054568000,-0.001970580,0.015369650,-0.004692120,0.999868930,-0.004087000,0.030722000,-0.009448000,0.000478470,-0.000230969,0.000025719,0.003881442,-0.000514859,0.011203029,0.012494044,0.004032468,0.999567814,-0.002002151,-0.000675177,-0.002285630,0.000000000,0.000000000,0.000000000,0.000000000,0.016669533,0.005249595,0.054524628,0.041584793,0.008054572,-0.001751163,0.011843514,0.003383555,-0.000204202,0.010688923,0.048852682,-0.331524110,0.000092045,-0.000426589,-0.002893047,0.999994752,0.000000000,0.000000000,0.000000000,0.000000000,0.000000000,0.000000000,-0.331444098,0.000000000,4.005812113
1772682541.135904789,0.015871000,0.005094000,0.054560000,-0.001815970,0.015162110,-0.004660550,0.999872540,-0.003775000,0.030308000,-0.009379000,0.000434121,-0.000220538,-0.000029974,0.003603114,-0.007351041,0.007778249,0.012203207,0.003813171,0.999587270,-0.000778660,0.000671302,-0.003402411,0.000000000,0.000000000,0.000000000,0.000000000,0.016671710,0.005249152,0.054529271,0.041494150,0.008140004,-0.001677941,0.010918225,0.004012402,-0.000484739,0.010055369,0.049256798,-0.329631103,0.000086513,-0.000430098,-0.002876530,0.999994805,0.000000000,0.000000000,0.000000000,0.000000000,0.000000000,0.000000000,-0.329133223,0.000000000,4.006349714
1772682541.145904303,0.015875000,0.005093000,0.054568000,-0.001841240,0.015206170,-0.004612990,0.999872040,-0.003824000,0.030396000,-0.009285000,0.000198024,-0.000182269,0.000041920,0.003753072,-0.008143676,0.006427345,0.012767322,0.002602084,0.999589721,-0.001569885,0.001329528,-0.001336408,0.000000000,0.000000000,0.000000000,0.000000000,0.016673637,0.005248423,0.054535468,0.041422473,0.008222946,-0.001627073,0.011791156,0.002977174,-0.000896526,0.009166114,0.048578577,-0.330235285,0.000078767,-0.000424157,-0.002881806,0.999994755,0.000000000,0.000000000,0.000000000,0.000000000,0.000000000,0.000000000,-0.330527876,0.000000000,4.006451607
1772682541.155904293,0.015883000,0.005092000,0.054570000,-0.001864300,0.015286760,-0.004564430,0.999870990,-0.003869000,0.030557000,-0.009189000,-0.000102508,-0.000111056,0.000072224,0.004402671,-0.006712014,0.002288466,0.013695072,0.001743272,1.000148430,0.000883227,-0.000983523,0.000731967,0.000000000,0.000000000,0.000000000,0.000000000,0.016672163,0.005249808,0.054537902,0.041397780,0.008165650,-0.001584284,0.012290095,0.000980847,0.000394123,0.010047467,0.049496049,-0.330913694,0.000086433,-0.000432186,-0.002887722,0.999994755,0.000000000,0.000000000,0.000000000,0.000000000,0.000000000,0.000000000,-0.330946662,0.000000000,4.006451607
1772682541.165904284,0.015854000,0.005096000,0.054570000,-0.001891980,0.015393880,-0.004628550,0.999869000,-0.003928000,0.030771000,-0.009319000,-0.000214419,0.000000622,-0.000041221,0.003852027,-0.007827541,-0.001830219,0.014475279,0.001821010,0.998038263,-0.001038884,0.000230635,-0.003163597,0.000000000,0.000000000,0.000000000,0.000000000,0.016666179,0.005255193,0.054535288,0.041456107,0.008067190,-0.001559443,0.013724366,0.001810760,-0.000878478,0.010074033,0.049357911,-0.329546863,0.000086673,-0.000430981,-0.002875794,0.999994755,0.000000000,0.000000000,0.000000000,0.000000000,0.000000000,0.000000000,-0.329368136,0.000000000,4.006451607
1772682541.175904036,0.015860000,0.005093000,0.054568000,-0.001841260,0.015008150,-0.004590630,0.999875140,-0.003822000,0.030000000,-0.009240000,-0.000252143,0.000030692,-0.000115232,0.000764788,-0.005489048,-0.003266743,0.013124795,0.000876585,0.999019616,0.000933741,0.002377108,-0.004312107,0.000000000,0.000000000,0.000000000,0.000000000,0.016648159,0.005251098,0.054556509,0.041490618,0.007936178,-0.001537197,0.012736368,0.000908156,-0.002567832,0.010460477,0.049115424,-0.329684108,0.000090051,-0.000428874,-0.002876991,0.999994755,0.000000000,0.000000000,0.000000000,0.000000000,0.000000000,0.000000000,-0.329732941,0.000000000,4.006451607
1772682541.185903549,0.015869000,0.005091000,0.054564000,-0.001783850,0.015080910,-0.004591120,0.999874140,-0.003707000,0.030146000,-0.009239000,0.000089474,0.000087998,-0.000171430,0.000843611,-0.000230871,-0.002507826,0.011992419,0.002546872,0.998398086,0.000745823,0.002639524,-0.001213444,0.000000000,0.000000000,0.000000000,0.000000000,0.016625371,0.005240611,0.054589783,0.041389428,0.007782814,-0.001458770,0.011115599,0.000908312,-0.000726100,0.010870205,0.048625870,-0.331054303,0.000093634,-0.000424613,-0.002888947,0.999994755,0.000000000,0.000000000,0.000000000,0.000000000,0.000000000,0.000000000,-0.331258598,0.000000000,4.006451607
1772682541.195903063,0.015865000,0.005092000,0.054562000,-0.001758890,0.015138190,-0.004697820,0.999872830,-0.003661000,0.030261000,-0.009452000,0.000191613,0.000146371,-0.000012355,-0.004008798,0.010725997,-0.002343839,0.013044368,0.002293284,0.997747213,-0.001949106,0.003220162,0.000328167,0.000000000,0.000000000,0.000000000,0.000000000,0.016641036,0.005241333,0.054572099,0.041375898,0.007786343,-0.001675899,0.011383188,0.003609541,-0.003021088,0.009938133,0.047704415,-0.330381413,0.000085526,-0.000416548,-0.002883078,0.999994755,0.000000000,0.000000000,0.000000000,0.000000000,0.000000000,0.000000000,-0.330212703,0.000000000,4.006451607
1772682541.205902815,0.015870000,0.005096000,0.054565000,-0.001854000,0.015221910,-0.004664100,0.999871540,-0.003851000,0.030427000,-0.009388000,0.000236272,0.000109463,0.000100255,-0.007436873,0.017813092,-0.002340052,0.013860369,0.002042112,0.999273711,-0.000292208,0.001963289,-0.001964982,0.000000000,0.000000000,0.000000000,0.000000000,0.016656127,0.005242991,0.054554938,0.041454004,0.007751170,-0.001845939,0.013604873,0.000529091,-0.000638611,0.009876348,0.047158208,-0.330113381,0.000085001,-0.000411780,-0.002880740,0.999994755,0.000000000,0.000000000,0.000000000,0.000000000,0.000000000,0.000000000,-0.330109830,0.000000000,4.006451607
1772682541.215902328,0.015872000,0.005100000,0.054566000,-0.001966590,0.015340540,-0.004610650,0.999869760,-0.004076000,0.030664000,-0.009285000,0.000033140,0.000074730,0.000178190,-0.009488280,0.017951482,-0.001990992,0.013816355,0.003435895,0.999964935,-0.000119275,0.002341587,-0.000804691,0.000000000,0.000000000,0.000000000,0.000000000,0.016666515,0.005243025,0.054544180,0.041578299,0.007700975,-0.001832958,0.012942172,0.003836120,-0.000100837,0.009687498,0.047434218,-0.330403277,0.000083345,-0.000414184,-0.002883270,0.999994763,0.000000000,0.000000000,0.000000000,0.000000000,0.000000000,0.000000000,-0.330445418,0.000000000,4.006451607
1772682541.225902081,0.015870000,0.005098000,0.054569000,-0.001916630,0.015486230,-0.004640210,0.999867480,-0.003978000,0.030956000,-0.009343000,0.000003108,0.000033082,-0.000086133,-0.007891167,-0.002678855,-0.000013215,0.012866617,0.003122289,0.999895418,-0.000795733,-0.000424226,-0.004647596,0.000000000,0.000000000,0.000000000,0.000000000,0.016673952,0.005241663,0.054535808,0.041636609,0.007804078,-0.001783283,0.012758929,0.003655526,-0.000386362,0.009136184,0.046593033,-0.329214155,0.000078560,-0.000406829,-0.002872896,0.999994799,0.000000000,0.000000000,0.000000000,0.000000000,0.000000000,0.000000000,-0.329022184,0.000000000,4.006451607
1772682541.235902071,0.015863000,0.005097000,0.054569000,-0.001995330,0.015392430,-0.004718360,0.999868410,-0.004137000,0.030767000,-0.009502000,0.000103072,-0.000012918,-0.000202219,-0.003166576,-0.009776556,-0.000604720,0.011788802,0.004204689,0.999482125,-0.000065784,-0.000417322,0.000013977,0.000000000,0.000000000,0.000000000,0.000000000,0.016674359,0.005243326,0.054529544,0.041552515,0.007907693,-0.001774363,0.010969978,0.004089966,-0.000693645,0.008632046,0.047199270,-0.331242876,0.000074138,-0.000412108,-0.002890602,0.999994755,0.000000000,0.000000000,0.000000000,0.000000000,0.000000000,0.000000000,-0.331435657,0.000000000,4.006451607
1772682541.245901108,0.015872000,0.005093000,0.054565000,-0.001950090,0.015248510,-0.004692610,0.999870820,-0.004045000,0.030479000,-0.009448000,-0.000204784,-0.000014899,-0.000115698,0.000450383,-0.012069036,-0.006693567,0.012958655,0.004638113,0.998052395,0.001435360,0.000660491,0.003383499,0.000000000,0.000000000,0.000000000,0.000000000,0.016672616,0.005244417,0.054525572,0.041424707,0.008097072,-0.001817231,0.012049332,0.004786403,-0.001124551,0.009509946,0.047298716,-0.330704856,0.000081798,-0.000412997,-0.002885903,0.999994755,0.000000000,0.000000000,0.000000000,0.000000000,0.000000000,0.000000000,-0.330593321,0.000000000,4.005888404
1772682541.255900860,0.015874000,0.005097000,0.054562000,-0.001988110,0.015174260,-0.004656150,0.999872050,-0.004119000,0.030331000,-0.009376000,-0.000238701,0.000009383,0.000027740,0.000804288,-0.012979683,-0.008432011,0.013113668,0.003353721,1.000262886,0.002971467,-0.001715047,-0.002833795,0.000000000,0.000000000,0.000000000,0.000000000,0.016670173,0.005245572,0.054528527,0.041386292,0.008255769,-0.001830879,0.012521789,0.003278221,-0.000653903,0.009369640,0.047122415,-0.329649856,0.000080582,-0.000411455,-0.002876697,0.999994784,0.000000000,0.000000000,0.000000000,0.000000000,0.000000000,0.000000000,-0.329508181,0.000000000,4.005323395
1772682541.265900612,0.015864000,0.005101000,0.054551000,-0.001979430,0.014997530,-0.004722260,0.999874420,-0.004102000,0.029977000,-0.009507000,-0.000394338,0.000116922,0.000138484,-0.001332587,-0.007780497,-0.005744822,0.013120600,0.002858371,1.001181664,0.000771810,-0.001753011,-0.007047678,0.000000000,0.000000000,0.000000000,0.000000000,0.016663021,0.005250725,0.054533962,0.041344353,0.008274820,-0.001678902,0.012749066,0.002816565,0.000914647,0.009609864,0.048472008,-0.329150135,0.000082646,-0.000423238,-0.002872334,0.999994781,0.000000000,0.000000000,0.000000000,0.000000000,0.000000000,0.000000000,-0.329380062,0.000000000,4.004758387
1772682541.275900364,0.015865000,0.005098000,0.054573000,-0.001950840,0.015312870,-0.004809120,0.999869280,-0.004050000,0.030608000,-0.009681000,-0.000266615,0.000103247,0.000101051,-0.000847962,-0.003052653,-0.005282311,0.014536306,0.002294619,0.999634758,0.002085872,0.001565746,-0.002342105,0.000000000,0.000000000,0.000000000,0.000000000,0.016659187,0.005257567,0.054533319,0.041383133,0.008299101,-0.001540800,0.012610325,0.002230507,0.000006331,0.010119769,0.049632180,-0.330660332,0.000087061,-0.000433376,-0.002885510,0.999994755,0.000000000,0.000000000,0.000000000,0.000000000,0.000000000,0.000000000,-0.330742142,0.000000000,4.004193379
1772682541.285900354,0.015846000,0.005098000,0.054574000,-0.001987080,0.015178370,-0.004885300,0.999870890,-0.004124000,0.030338000,-0.009834000,-0.000096875,0.000024068,-0.000017852,0.000434265,-0.002537074,-0.001530451,0.012498181,0.000975566,0.999486049,0.000596914,0.003964907,-0.001770006,0.000000000,0.000000000,0.000000000,0.000000000,0.016660048,0.005255113,0.054532863,0.041359772,0.008142420,-0.001482858,0.011982824,0.001292393,-0.000816092,0.010737967,0.049218596,-0.330925684,0.000092466,-0.000429783,-0.002887824,0.999994755,0.000000000,0.000000000,0.000000000,0.000000000,0.000000000,0.000000000,-0.330873055,0.000000000,4.003628357
