t,px,py,pz,qx,qy,qz,qw,roll,pitch,yaw,vx,vy,vz,wx_vicon,wy_vicon,wz_vicon,imu_acc_x,imu_acc_y,imu_acc_z,imu_gyro_x,imu_gyro_y,imu_gyro_z,motor_motor_m1,motor_motor_m2,motor_motor_m3,motor_motor_m4,est_stateEstimate_x,est_stateEstimate_y,est_stateEstimate_z,est_stateEstimate_vx,est_stateEstimate_vy,est_stateEstimate_vz,est_stateEstimate_ax,est_stateEstimate_ay,est_stateEstimate_az,att_stateEstimate_roll,att_stateEstimate_pitch,att_stateEstimate_yaw,att_stateEstimate_qx,att_stateEstimate_qy,att_stateEstimate_qz,att_stateEstimate_qw,sp_ctrltarget_x,sp_ctrltarget_y,sp_ctrltarget_z,sp_ctrltarget_yaw,pid_controller_roll,pid_controller_pitch,pid_controller_yaw,pid_controller_cmd_thrust,pwr_pm_vbat
1772683119.686513901,0.014248000,0.006503000,0.054488000,0.011417010,0.020566260,0.007712110,0.999693560,0.023166000,0.040955000,0.015903000,-0.002523915,0.003428247,-0.004398081,0.415666243,-0.527576055,0.183176936,0.005144353,-0.002292513,1.000888733,0.001493701,-0.000181539,0.002010168,0.000000000,0.000000000,0.000000000,0.000000000,0.015013072,0.006105918,0.054511989,0.040106239,-0.019437610,-0.000645894,0.012015198,-0.005287479,0.000388362,0.205725053,-0.360025285,0.596038100,0.001778912,0.003151102,0.005195711,0.999978957,0.000000000,0.000000000,0.000000000,0.000000000,0.000000000,0.000000000,0.596295102,0.000000000,4.138416290
1772683119.696513653,0.014232000,0.006519000,0.054476000,0.011850540,0.020058600,0.007831520,0.999697900,0.024030000,0.039930000,0.016147000,-0.002662143,-0.001349962,0.003330831,-0.015475312,0.037027638,-0.012504618,0.005617846,-0.002850957,0.999783982,-0.003678691,0.001823717,0.000806253,0.000000000,0.000000000,0.000000000,0.000000000,0.015025375,0.006116197,0.054490847,0.040147888,-0.019451856,-0.000662016,0.011672621,-0.006556121,0.000234773,0.205257730,-0.359454980,0.595021155,0.001774888,0.003146088,0.005186859,0.999979029,0.000000000,0.000000000,0.000000000,0.000000000,0.000000000,0.000000000,0.595440882,0.000000000,4.138416290
1772683119.706513643,0.014236000,0.006518000,0.054473000,0.012203760,0.019607420,0.007990930,0.999701340,0.024735000,0.039018000,0.016469000,-0.002031024,-0.003109521,0.005878968,-0.208944687,0.289968786,-0.100369265,0.004628143,-0.003059514,1.001180046,-0.000966344,0.002245414,-0.000214471,0.000000000,0.000000000,0.000000000,0.000000000,0.014979689,0.006103147,0.054537687,0.039955958,-0.019593298,-0.000398831,0.011253329,-0.007109215,0.001242576,0.204633110,-0.358930279,0.594123068,0.001769485,0.003141467,0.005179047,0.999979096,0.000000000,0.000000000,0.000000000,0.000000000,0.000000000,0.000000000,0.594040578,0.000000000,4.138416290
1772683119.716513157,0.014163000,0.006451000,0.054609000,0.010440700,0.022050790,0.007233440,0.999676160,0.021216000,0.043950000,0.014938000,-0.000954333,-0.002727353,0.004785494,-0.227464678,0.313362281,-0.108630194,0.005347427,-0.002744117,1.000992194,0.001568288,-0.000874235,-0.002996624,0.000000000,0.000000000,0.000000000,0.000000000,0.014986859,0.006109328,0.054523447,0.039964619,-0.019689419,-0.000362034,0.012037866,-0.005863734,0.001499183,0.204619019,-0.358529641,0.594318820,0.001769375,0.003137973,0.005180762,0.999979121,0.000000000,0.000000000,0.000000000,0.000000000,0.000000000,0.000000000,0.593951120,0.000000000,4.138416290
1772683119.726513147,0.014170000,0.006428000,0.054645000,0.009295740,0.023643230,0.006765960,0.999654340,0.018927000,0.047162000,0.013983000,0.000244153,-0.001080382,0.001589570,-0.133785534,0.189299340,-0.065469476,0.004593408,-0.002197367,1.000659433,0.000513152,0.000924918,-0.003010471,0.000000000,0.000000000,0.000000000,0.000000000,0.015003769,0.006114817,0.054499272,0.040040753,-0.019660819,-0.000327650,0.010724894,-0.006035657,0.000999173,0.204864761,-0.357917618,0.594427505,0.001771545,0.003132645,0.005181714,0.999979096,0.000000000,0.000000000,0.000000000,0.000000000,0.000000000,0.000000000,0.594429368,0.000000000,4.138416290
1772683119.736513615,0.014183000,0.006407000,0.054660000,0.008508220,0.024829070,0.006315160,0.999635560,0.017346000,0.049553000,0.013065000,0.001240658,0.000954469,-0.002169641,0.009331582,-0.000135281,0.000895958,0.004185893,-0.002694336,0.998965124,0.000738197,0.000006363,-0.002463411,0.000000000,0.000000000,0.000000000,0.000000000,0.014997049,0.006084784,0.054544008,0.039913727,-0.019798404,-0.000107366,0.011214053,-0.006206611,-0.000740771,0.205405361,-0.356885557,0.594554358,0.001776306,0.003123665,0.005182822,0.999979138,0.000000000,0.000000000,0.000000000,0.000000000,0.000000000,0.000000000,0.594424696,0.000000000,4.138416290
1772683119.746513128,0.014235000,0.006491000,0.054523000,0.009819390,0.022857070,0.006923700,0.999666540,0.019971000,0.045579000,0.014307000,0.000756644,0.001014473,-0.002236910,0.053486678,-0.059751245,0.025030783,0.004472273,-0.001422859,0.998772300,-0.000478133,0.000495849,-0.001361461,0.000000000,0.000000000,0.000000000,0.000000000,0.015009956,0.006090999,0.054528825,0.039895722,-0.019761585,-0.000300928,0.010473525,-0.005220005,-0.001316101,0.205385557,-0.356369128,0.594154173,0.001776167,0.003119152,0.005179338,0.999979155,0.000000000,0.000000000,0.000000000,0.000000000,0.000000000,0.000000000,0.593892184,0.000000000,4.138416290
1772683119.756513119,0.014234000,0.006513000,0.054482000,0.010813990,0.021656360,0.007379100,0.999679750,0.021963000,0.043153000,0.015237000,0.000353167,0.000689841,-0.001707966,0.066981638,-0.084911658,0.036489700,0.005553102,-0.001839993,0.998945926,-0.000317758,-0.002555053,0.000023136,0.000000000,0.000000000,0.000000000,0.000000000,0.015013718,0.006104775,0.054506552,0.039853519,-0.019670863,-0.000493918,0.012055543,-0.005777936,-0.000693696,0.204872755,-0.356589800,0.593402650,0.001771702,0.003121043,0.005172790,0.999979198,0.000000000,0.000000000,0.000000000,0.000000000,0.000000000,0.000000000,0.593356073,0.000000000,4.138416290
1772683119.766512871,0.014242000,0.006513000,0.054467000,0.011655660,0.020764300,0.007683660,0.999686930,0.023646000,0.041348000,0.015861000,-0.000239763,-0.000288889,0.000036888,0.029176035,-0.040336651,0.021050396,0.006865956,-0.003149639,0.999120194,-0.002669787,-0.000848932,0.000631850,0.000000000,0.000000000,0.000000000,0.000000000,0.015008878,0.006120498,0.054485590,0.039909060,-0.019685697,-0.000654335,0.013208255,-0.006256643,-0.000698136,0.204314803,-0.356339734,0.593592753,0.001766840,0.003118838,0.005174468,0.999979198,0.000000000,0.000000000,0.000000000,0.000000000,0.000000000,0.000000000,0.593494585,0.000000000,4.138416290
1772683119.776512623,0.014178000,0.006442000,0.054594000,0.010348360,0.022547640,0.007197920,0.999666300,0.021037000,0.044946000,0.014873000,-0.000107556,-0.000698641,0.000829274,-0.001759898,-0.008364421,0.005655646,0.007324827,-0.002816172,1.000899695,-0.000446252,0.001419796,0.001022331,0.000000000,0.000000000,0.000000000,0.000000000,0.015040052,0.006112389,0.054472245,0.040155699,-0.019789519,-0.000696458,0.013798412,-0.006095208,0.000846976,0.194405776,-0.338643103,0.595707732,0.001681128,0.002963985,0.005193393,0.999980226,0.000000000,0.000000000,0.000000000,0.000000000,0.000000000,0.000000000,0.593789541,0.000000000,4.138416290
1772683119.786511898,0.014176000,0.006421000,0.054632000,0.009313050,0.023627040,0.006889230,0.999653720,0.018967000,0.047127000,0.014230000,0.000327059,-0.000423310,0.000565929,-0.005172172,-0.007392853,-0.001236184,0.005392936,-0.001320110,1.000234035,0.000703863,0.002546885,-0.000699852,0.000000000,0.000000000,0.000000000,0.000000000,0.014921287,0.006076339,0.054610478,0.024545299,-0.012846179,0.000814373,0.009815370,-0.005196565,0.000300621,0.164682866,-0.280237536,0.602023183,0.001424278,0.002453036,0.005249968,0.999982916,0.000000000,0.000000000,0.000000000,0.000000000,0.000000000,0.000000000,0.594221406,0.000000000,4.138416290
1772683119.796512365,0.014241000,0.006481000,0.054515000,0.010413530,0.022035790,0.007285620,0.999676400,0.021163000,0.043920000,0.015041000,0.000977584,0.001173700,-0.001674516,0.048588934,-0.084295427,0.020387185,0.005223666,-0.000772520,0.999669787,0.000414335,0.000780121,0.000712058,0.000000000,0.000000000,0.000000000,0.000000000,0.014494493,0.006324504,0.054554713,0.025373839,-0.013072756,0.000748169,0.009053982,-0.004785886,-0.000558940,0.146463430,-0.244512771,0.605969846,0.001266829,0.002140504,0.005285311,0.999981967,0.000000000,0.000000000,0.000000000,0.000000000,0.000000000,0.000000000,0.601074561,0.000000000,4.138416290
1772683119.806512356,0.014261000,0.006497000,0.054485000,0.011238060,0.020948240,0.007563940,0.999688780,0.022808000,0.041726000,0.015608000,0.001616960,0.002211191,-0.003658958,0.127640288,-0.179115937,0.053056160,0.004912734,-0.000977397,0.999959062,0.000530129,0.001435817,0.000432521,0.000000000,0.000000000,0.000000000,0.000000000,0.014660979,0.006272607,0.054519326,0.026664315,-0.013515376,0.000597997,0.010381252,-0.002998272,0.000601658,0.148845819,-0.249407505,0.605674144,0.001287398,0.002183325,0.005282630,0.999981864,0.000000000,0.000000000,0.000000000,0.000000000,0.000000000,0.000000000,0.605276164,0.000000000,4.138416290
1772683119.816512346,0.014242000,0.006512000,0.054482000,0.011847680,0.020087840,0.007786450,0.999697700,0.024023000,0.039990000,0.016058000,0.001253925,0.001614531,-0.002856899,0.151027193,-0.194309800,0.057520752,0.004546412,-0.001787747,1.000826306,0.001014290,0.003832045,-0.000923787,0.000000000,0.000000000,0.000000000,0.000000000,0.014730722,0.006256497,0.054502055,0.027609891,-0.013755481,0.000629829,0.009151753,-0.004025770,0.000408706,0.149159234,-0.251816061,0.605818513,0.001290019,0.002204359,0.005283857,0.999981772,0.000000000,0.000000000,0.000000000,0.000000000,0.000000000,0.000000000,0.606325216,0.000000000,4.138416290
1772683119.826512337,0.014239000,0.006517000,0.054479000,0.012236170,0.019796020,0.007921510,0.999697780,0.024800000,0.039396000,0.016336000,-0.000998544,-0.000782984,0.001755130,0.044616234,-0.034674726,0.011034347,0.005152376,-0.003095501,1.000278633,0.002534337,0.004034026,0.001771365,0.000000000,0.000000000,0.000000000,0.000000000,0.014765341,0.006246942,0.054491291,0.028167475,-0.014020558,0.000549695,0.008924895,-0.004301070,-0.001021971,0.149007793,-0.252593023,0.604389993,0.001288689,0.002211116,0.005271385,0.999981821,0.000000000,0.000000000,0.000000000,0.000000000,0.000000000,0.000000000,0.605270624,0.000000000,4.138416290
1772683119.836512327,0.014239000,0.006515000,0.054472000,0.012515700,0.019487470,0.008002690,0.999699730,0.025358000,0.038773000,0.016502000,-0.001977683,-0.002113464,0.004058279,-0.074535305,0.125928231,-0.036514330,0.005766425,-0.003283932,1.000372480,0.001672635,0.001993792,0.001323130,0.000000000,0.000000000,0.000000000,0.000000000,0.014788563,0.006230118,0.054495307,0.028593486,-0.014335276,0.000511009,0.010377482,-0.006156850,-0.000320695,0.149743447,-0.253967158,0.604597150,0.001295042,0.002223144,0.005273162,0.999981790,0.000000000,0.000000000,0.000000000,0.000000000,0.000000000,0.000000000,0.604451549,0.000000000,4.138416290
1772683119.846512079,0.014258000,0.006491000,0.054489000,0.012670980,0.019465360,0.008027680,0.999698010,0.025669000,0.038725000,0.016557000,-0.001039881,-0.001385141,0.002545224,-0.103147933,0.159102497,-0.047974195,0.005807813,-0.001579096,1.000529447,-0.000166951,-0.001769098,-0.001129005,0.000000000,0.000000000,0.000000000,0.000000000,0.014763833,0.006180565,0.054585769,0.029177345,-0.014783509,0.000888934,0.010469399,-0.003737107,0.000430179,0.150343554,-0.254120972,0.603429305,0.001300294,0.002224500,0.005262958,0.999981835,0.000000000,0.000000000,0.000000000,0.000000000,0.000000000,0.000000000,0.604629218,0.000000000,4.138416290
1772683119.856511593,0.014187000,0.006433000,0.054626000,0.010808760,0.021942930,0.007219590,0.999674730,0.021950000,0.043729000,0.014924000,-0.000918824,-0.000871757,0.001894466,-0.116682900,0.177154553,-0.051502329,0.005578459,-0.001000419,0.999670187,0.001203420,-0.001349807,-0.000019090,0.000000000,0.000000000,0.000000000,0.000000000,0.014750651,0.006163550,0.054622091,0.029519063,-0.014873426,0.001008267,0.010054432,-0.004170602,-0.001366054,0.150732534,-0.251553894,0.602397624,0.001303827,0.002202105,0.005253977,0.999981887,0.000000000,0.000000000,0.000000000,0.000000000,0.000000000,0.000000000,0.604319237,0.000000000,4.138416290
1772683119.866511583,0.014156000,0.006428000,0.054657000,0.009387460,0.024005710,0.006802610,0.999644600,0.019118000,0.047885000,0.014068000,-0.000646252,0.000020241,0.000647767,-0.092505896,0.139144903,-0.037578708,0.005742918,-0.001036801,0.999214474,0.001416680,-0.000392363,-0.000204726,0.000000000,0.000000000,0.000000000,0.000000000,0.014755111,0.006166362,0.054614501,0.029601038,-0.014877897,0.000937882,0.010157785,-0.004163465,-0.001568522,0.150660079,-0.251649621,0.602385461,0.001303190,0.002202937,0.005253872,0.999981896,0.000000000,0.000000000,0.000000000,0.000000000,0.000000000,0.000000000,0.604009241,0.000000000,4.138416290
1772683119.876509905,0.014226000,0.006491000,0.054511000,0.010314550,0.022630810,0.007152540,0.999665090,0.020969000,0.045114000,0.014783000,0.000655284,0.001117950,-0.001811404,-0.014691935,0.024382854,-0.002915438,0.005907349,-0.001073176,0.998758837,0.001629905,0.000564922,-0.000390330,0.000000000,0.000000000,0.000000000,0.000000000,0.014759571,0.006169174,0.054606914,0.029682999,-0.014882367,0.000867508,0.010261121,-0.004156328,-0.001770957,0.150587636,-0.251745333,0.602373301,0.001302554,0.002203769,0.005253766,0.999981905,0.000000000,0.000000000,0.000000000,0.000000000,0.000000000,0.000000000,0.603699297,0.000000000,4.138416290
1772683119.886510372,0.014241000,0.006513000,0.054488000,0.011162690,0.021627640,0.007435530,0.999676120,0.022663000,0.043089000,0.015364000,0.001270553,0.001348001,-0.002836813,0.054427992,-0.078745315,0.029606092,0.006071815,-0.001109559,0.998303103,0.001843175,0.001522412,-0.000575975,0.000000000,0.000000000,0.000000000,0.000000000,0.014764031,0.006171987,0.054599324,0.029764978,-0.014886837,0.000797120,0.010364479,-0.004149191,-0.001973435,0.150515178,-0.251841065,0.602361137,0.001301917,0.002204601,0.005253660,0.999981914,0.000000000,0.000000000,0.000000000,0.000000000,0.000000000,0.000000000,0.603389287,0.000000000,4.138416290
1772683119.896509886,0.014181000,0.006467000,0.054583000,0.010198070,0.023064980,0.007157010,0.999656330,0.020743000,0.045984000,0.014796000,0.000763928,0.000119328,-0.001043086,0.053370305,-0.080797514,0.030872738,0.006236266,-0.001145939,0.997847412,0.002056424,0.002479810,-0.000761602,0.000000000,0.000000000,0.000000000,0.000000000,0.014768491,0.006174799,0.054591735,0.029846950,-0.014891308,0.000726738,0.010467827,-0.004142053,-0.002175894,0.150442727,-0.251936788,0.602348975,0.001301281,0.002205432,0.005253554,0.999981924,0.000000000,0.000000000,0.000000000,0.000000000,0.000000000,0.000000000,0.603079306,0.000000000,4.138416290
1772683119.906509876,0.014240000,0.006493000,0.054506000,0.011002120,0.021693310,0.007484500,0.999676120,0.022345000,0.043221000,0.015457000,-0.000368784,-0.001110491,0.001381897,-0.008794725,-0.005824350,0.006087327,0.006400725,-0.001182321,0.997391699,0.002269684,0.003437255,-0.000947237,0.000000000,0.000000000,0.000000000,0.000000000,0.014772952,0.006177611,0.054584146,0.029928925,-0.014895778,0.000656353,0.010571180,-0.004134916,-0.002378363,0.150370272,-0.252032515,0.602336812,0.001300644,0.002206264,0.005253448,0.999981933,0.000000000,0.000000000,0.000000000,0.000000000,0.000000000,0.000000000,0.602769310,0.000000000,4.138416290
1772683119.916509628,0.014261000,0.006494000,0.054479000,0.011604140,0.020683470,0.007719640,0.999688920,0.023543000,0.041187000,0.015929000,-0.000797611,-0.001048700,0.001683141,-0.051584577,0.041694578,-0.008876587,0.006565180,-0.001218701,0.996935997,0.002482939,0.004394676,-0.001132869,0.000000000,0.000000000,0.000000000,0.000000000,0.014777412,0.006180423,0.054576557,0.030010898,-0.014900249,0.000585970,0.010674530,-0.004127779,-0.002580826,0.150297819,-0.252128240,0.602324650,0.001300008,0.002207096,0.005253342,0.999981940,0.000000000,0.000000000,0.000000000,0.000000000,0.000000000,0.000000000,0.602459322,0.000000000,4.138416290
1772683119.926509142,0.014190000,0.006449000,0.054588000,0.010391670,0.022368740,0.007400300,0.999668390,0.021130000,0.044584000,0.015276000,0.000596659,0.000389297,-0.000955576,-0.004540769,-0.032703079,0.005335183,0.006591252,-0.001747571,0.997952209,-0.000125545,0.002480938,0.000522768,0.000000000,0.000000000,0.000000000,0.000000000,0.014789102,0.006188744,0.054558857,0.030235822,-0.014926723,0.000417249,0.010874752,-0.004194290,-0.002292583,0.150225368,-0.252223963,0.602312487,0.001299372,0.002207928,0.005253236,0.999981940,0.000000000,0.000000000,0.000000000,0.000000000,0.000000000,0.000000000,0.602351011,0.000000000,4.138416290
1772683119.936508894,0.014182000,0.006436000,0.054613000,0.009511090,0.023398190,0.007059300,0.999656060,0.019368000,0.046663000,0.014575000,0.000552040,0.000540715,-0.000761131,0.015950025,-0.062018557,0.005953608,0.006000067,-0.002302552,0.998905608,-0.000172124,-0.001563039,0.000118191,0.000000000,0.000000000,0.000000000,0.000000000,0.014806952,0.006201757,0.054532542,0.030582520,-0.014971941,0.000164759,0.011253286,-0.004396363,-0.001101139,0.150068196,-0.252730503,0.601201391,0.001297998,0.002212329,0.005243537,0.999981969,0.000000000,0.000000000,0.000000000,0.000000000,0.000000000,0.000000000,0.601867035,0.000000000,4.138416290
1772683119.946508884,0.014240000,0.006496000,0.054497000,0.010495680,0.021712970,0.007458100,0.999681330,0.021330000,0.043269000,0.015382000,-0.000036616,0.000147863,0.000053244,0.009457553,-0.040820953,-0.003379452,0.005027568,-0.002666741,0.999582627,0.002247442,-0.006040667,-0.001338538,0.000000000,0.000000000,0.000000000,0.000000000,0.014796081,0.006188339,0.054557322,0.030926628,-0.015157871,0.000203511,0.009911439,-0.004978129,-0.001171907,0.150265536,-0.253054990,0.600282186,0.001299723,0.002215159,0.005235508,0.999981999,0.000000000,0.000000000,0.000000000,0.000000000,0.000000000,0.000000000,0.600447217,0.000000000,4.138416290
1772683119.956508636,0.014248000,0.006512000,0.054478000,0.011303850,0.020460620,0.007659680,0.999697410,0.022935000,0.040747000,0.015791000,0.000339938,0.000584577,-0.000885160,0.038245999,-0.068434309,0.003042891,0.005639589,-0.002145828,0.999928147,0.000663768,-0.001714088,0.004226931,0.000000000,0.000000000,0.000000000,0.000000000,0.014817574,0.006190056,0.054537648,0.031298971,-0.015298595,0.000040833,0.009696042,-0.005159836,0.000147162,0.150779460,-0.252043096,0.599972274,0.001304260,0.002206348,0.005232806,0.999982011,0.000000000,0.000000000,0.000000000,0.000000000,0.000000000,0.000000000,0.600045076,0.000000000,4.138416290
1772683119.966508865,0.014265000,0.006503000,0.054483000,0.011888070,0.019704630,0.007721130,0.999705350,0.024094000,0.039224000,0.015919000,0.000831139,0.000889434,-0.002006237,0.078544441,-0.108396457,0.017817931,0.005226318,-0.001903140,1.000682866,-0.000937405,-0.002001051,0.001760199,0.000000000,0.000000000,0.000000000,0.000000000,0.014841625,0.006191495,0.054513258,0.031611697,-0.015441648,-0.000035283,0.009706622,-0.004773908,0.000378320,0.150951081,-0.249670088,0.600087940,0.001305864,0.002185650,0.005233840,0.999982053,0.000000000,0.000000000,0.000000000,0.000000000,0.000000000,0.000000000,0.599894449,0.000000000,4.138416290
1772683119.976508856,0.014188000,0.006442000,0.054601000,0.010430590,0.021652110,0.007190910,0.999685290,0.021187000,0.043154000,0.014843000,-0.000523077,-0.000209518,0.000288365,0.033547340,-0.031264031,0.004931009,0.004867572,-0.001458330,0.999654369,-0.001142645,0.004899863,0.000777735,0.000000000,0.000000000,0.000000000,0.000000000,0.014836857,0.006175513,0.054533822,0.031864745,-0.015601576,0.000048462,0.009647377,-0.004206002,0.000083259,0.150884593,-0.249440207,0.600797989,0.001305281,0.002183649,0.005240040,0.999981994,0.000000000,0.000000000,0.000000000,0.000000000,0.000000000,0.000000000,0.600625213,0.000000000,4.138416290
1772683119.986508846,0.014225000,0.006490000,0.054504000,0.011143360,0.021010650,0.007416960,0.999689640,0.022613000,0.041855000,0.015312000,-0.000866221,-0.000729080,0.001388968,-0.017075396,0.038937677,-0.008753428,0.004460814,-0.000528279,1.000610029,0.001455667,0.006568553,-0.000154113,0.000000000,0.000000000,0.000000000,0.000000000,0.014823640,0.006156873,0.054568315,0.032050145,-0.015673151,0.000211226,0.009287010,-0.003613719,0.000289648,0.150663572,-0.252054377,0.600813978,0.001303232,0.002206451,0.005240153,0.999981942,0.000000000,0.000000000,0.000000000,0.000000000,0.000000000,0.000000000,0.600861756,0.000000000,4.138416290
1772683119.996508360,0.014234000,0.006512000,0.054479000,0.011702200,0.020240720,0.007627760,0.999697550,0.023728000,0.040302000,0.015738000,-0.000081993,-0.000120299,0.000391356,-0.020133221,0.036929163,-0.003769231,0.005166207,-0.001109133,1.000606858,-0.000481695,0.000151176,-0.003340175,0.000000000,0.000000000,0.000000000,0.000000000,0.014828666,0.006156646,0.054567591,0.032261520,-0.015672990,0.000248807,0.009301388,-0.003509187,0.000415434,0.150399692,-0.253739279,0.600082880,0.001300867,0.002221134,0.005233759,0.999981989,0.000000000,0.000000000,0.000000000,0.000000000,0.000000000,0.000000000,0.600364137,0.000000000,4.138416290
1772683120.006508350,0.014252000,0.006500000,0.054475000,0.012015770,0.019789360,0.007776610,0.999701720,0.024353000,0.039390000,0.016037000,0.000439744,0.000325136,-0.000198427,-0.003979300,0.005037917,0.004475111,0.005232201,-0.001941117,1.000366399,-0.001973562,-0.000277577,0.000098500,0.000000000,0.000000000,0.000000000,0.000000000,0.014850870,0.006175379,0.054531545,0.032539041,-0.015662350,0.000125315,0.010266600,-0.004458417,0.000172229,0.150538144,-0.254221026,0.598643770,0.001302081,0.002225328,0.005221192,0.999982042,0.000000000,0.000000000,0.000000000,0.000000000,0.000000000,0.000000000,0.599197226,0.000000000,4.138416290
1772683120.016508341,0.014187000,0.006447000,0.054608000,0.010466300,0.021817790,0.007279830,0.999680670,0.021265000,0.043483000,0.015026000,0.001128109,0.000666240,-0.001233801,0.037117323,-0.051977152,0.017319172,0.005373452,-0.003421475,1.001458392,-0.002180036,0.001212654,0.001902632,0.000000000,0.000000000,0.000000000,0.000000000,0.014872453,0.006189755,0.054503921,0.032856918,-0.015803556,0.000059978,0.009717130,-0.005664183,0.001139888,0.150289704,-0.253773427,0.597745839,0.001299951,0.002221401,0.005213366,0.999982103,0.000000000,0.000000000,0.000000000,0.000000000,0.000000000,0.000000000,0.598004878,0.000000000,4.138416290
1772683120.026508331,0.014243000,0.006490000,0.054517000,0.011050640,0.020994020,0.007494980,0.999690430,0.022431000,0.041822000,0.015463000,0.000106546,0.000115307,-0.000422786,0.028499389,-0.034405064,0.013770263,0.004806151,-0.002507726,1.001583666,-0.001122190,-0.004035738,-0.002033162,0.000000000,0.000000000,0.000000000,0.000000000,0.014874499,0.006177324,0.054520733,0.033089348,-0.016090450,0.000298133,0.009486404,-0.005599455,0.001846313,0.149355458,-0.253673315,0.598213531,0.001291793,0.002220490,0.005217467,0.999982073,0.000000000,0.000000000,0.000000000,0.000000000,0.000000000,0.000000000,0.597994638,0.000000000,4.138416290
1772683120.036507607,0.014249000,0.006504000,0.054491000,0.011543680,0.020512600,0.007628720,0.999693840,0.023415000,0.040848000,0.015740000,-0.000390987,0.000027273,-0.000257712,0.021921759,-0.007704910,0.009899822,0.004502868,-0.002265135,0.999520617,0.001278050,-0.003744710,0.000006440,0.000000000,0.000000000,0.000000000,0.000000000,0.014861496,0.006161597,0.054545526,0.033201189,-0.016253837,0.000465495,0.008960631,-0.004453650,0.000262771,0.150482821,-0.252956240,0.597617245,0.001301675,0.002214277,0.005212250,0.999982108,0.000000000,0.000000000,0.000000000,0.000000000,0.000000000,0.000000000,0.597865833,0.000000000,4.138416290
1772683120.046507835,0.014241000,0.006504000,0.054486000,0.011923970,0.019965090,0.007781940,0.999699280,0.024173000,0.039743000,0.016049000,-0.001048272,-0.000598369,0.001178595,-0.020592980,0.055444695,-0.006320112,0.005796709,-0.002653259,0.999411220,0.000354660,0.001693743,-0.000064011,0.000000000,0.000000000,0.000000000,0.000000000,0.014868919,0.006170488,0.054524043,0.033371922,-0.016331675,0.000319628,0.009729166,-0.005426347,-0.001004152,0.150994651,-0.251813513,0.597250061,0.001306201,0.002204324,0.005209049,0.999982164,0.000000000,0.000000000,0.000000000,0.000000000,0.000000000,0.000000000,0.597374975,0.000000000,4.138416290
1772683120.056507111,0.014241000,0.006503000,0.054469000,0.012275100,0.019798420,0.007887370,0.999697520,0.024877000,0.039401000,0.016269000,-0.001577740,-0.001406140,0.002919758,-0.092240126,0.146438725,-0.035312510,0.006571421,-0.002757575,0.999912526,-0.001193850,0.003057672,-0.000321282,0.000000000,0.000000000,0.000000000,0.000000000,0.014880094,0.006179792,0.054502762,0.033647822,-0.016462397,0.000166074,0.011612545,-0.005518193,-0.000229862,0.150622292,-0.251914421,0.596298618,0.001302965,0.002205177,0.005200753,0.999982220,0.000000000,0.000000000,0.000000000,0.000000000,0.000000000,0.000000000,0.596700432,0.000000000,4.138416290
1772683120.066507101,0.014168000,0.006450000,0.054595000,0.010613470,0.022129080,0.007405330,0.999671360,0.021570000,0.044101000,0.015291000,-0.002278693,-0.002069621,0.004935922,-0.180445329,0.257725189,-0.072068040,0.005976368,-0.002745337,1.000751636,-0.001554961,0.002834801,0.000582332,0.000000000,0.000000000,0.000000000,0.000000000,0.014891659,0.006177463,0.054494966,0.033943545,-0.016609598,0.000118737,0.010724205,-0.005818742,-0.000273990,0.150162775,-0.251895309,0.595737844,0.001298967,0.002204983,0.005195868,0.999982272,0.000000000,0.000000000,0.000000000,0.000000000,0.000000000,0.000000000,0.595892258,0.000000000,4.138416290
1772683120.076506615,0.014169000,0.006430000,0.054648000,0.009344880,0.023916370,0.006895870,0.999646500,0.019036000,0.047705000,0.014251000,-0.001528381,-0.001454411,0.003659444,-0.197582712,0.272589321,-0.080912241,0.005127003,-0.002427205,1.001887571,-0.001051153,0.001069929,0.000120721,0.000000000,0.000000000,0.000000000,0.000000000,0.014871687,0.006149630,0.054554420,0.034091759,-0.016845974,0.000424997,0.009352084,-0.004802584,0.002465483,0.149447942,-0.252382732,0.595827773,0.001292705,0.002209205,0.005196661,0.999982269,0.000000000,0.000000000,0.000000000,0.000000000,0.000000000,0.000000000,0.595649787,0.000000000,4.138416290
1772683120.086505651,0.014168000,0.006424000,0.054663000,0.008338030,0.025017070,0.006540100,0.999630860,0.017019000,0.049927000,0.013510000,-0.001247068,-0.001024166,0.002659268,-0.187074333,0.256530843,-0.081427498,0.005606119,-0.002464095,1.001809759,-0.000741157,-0.003035813,0.000047555,0.000000000,0.000000000,0.000000000,0.000000000,0.014891234,0.006156324,0.054538222,0.034295286,-0.016898155,0.000573635,0.010702278,-0.004871303,0.002233990,0.148380546,-0.252259287,0.594468294,0.001283422,0.002208064,0.005184819,0.999982295,0.000000000,0.000000000,0.000000000,0.000000000,0.000000000,0.000000000,0.595477929,0.000000000,4.138416290
1772683120.096505404,0.014166000,0.006442000,0.054641000,0.007912400,0.025535660,0.006290190,0.999622810,0.016162000,0.050975000,0.012997000,-0.000448019,0.000032809,0.000185567,-0.116914336,0.151790395,-0.054398213,0.005893182,-0.002935896,1.000366024,-0.000537680,-0.001808113,0.002924174,0.000000000,0.000000000,0.000000000,0.000000000,0.014905442,0.006165247,0.054518500,0.034589605,-0.017029491,0.000599130,0.010603613,-0.005546693,0.000123493,0.147605004,-0.250171498,0.593154953,0.001276774,0.002189795,0.005173396,0.999982388,0.000000000,0.000000000,0.000000000,0.000000000,0.000000000,0.000000000,0.593404124,0.000000000,4.138416290
1772683120.106504202,0.014163000,0.006442000,0.054636000,0.007794470,0.025874900,0.006231520,0.999615380,0.015927000,0.051656000,0.012879000,0.000680440,0.001174282,-0.002705966,-0.002851601,0.000979437,-0.007647112,0.004868836,-0.002561837,0.999983563,0.000351265,-0.001517927,0.001250459,0.000000000,0.000000000,0.000000000,0.000000000,0.014909992,0.006168212,0.054506334,0.034723327,-0.017124917,0.000513273,0.008820948,-0.005324323,-0.000771312,0.147215853,-0.250155979,0.593035862,0.001273381,0.002189641,0.005172365,0.999982417,0.000000000,0.000000000,0.000000000,0.000000000,0.000000000,0.000000000,0.592991852,0.000000000,4.138416290
1772683120.116503954,0.014159000,0.006439000,0.054617000,0.007710090,0.025986030,0.006211780,0.999613270,0.015759000,0.051879000,0.012837000,0.001780033,0.001800973,-0.004270692,0.109988968,-0.154655186,0.043198163,0.005842732,-0.002998636,1.000775439,0.000617142,-0.001499135,0.000571981,0.000000000,0.000000000,0.000000000,0.000000000,0.014907127,0.006163206,0.054501665,0.034789548,-0.017303487,0.000449794,0.009983382,-0.005851836,0.000810395,0.146834994,-0.250671859,0.593020100,0.001270035,0.002194125,0.005172229,0.999982417,0.000000000,0.000000000,0.000000000,0.000000000,0.000000000,0.000000000,0.593052417,0.000000000,4.138416290
1772683120.126503706,0.014153000,0.006438000,0.054634000,0.007684410,0.025978250,0.006140890,0.999614110,0.015704000,0.051865000,0.012694000,0.002333452,0.001637589,-0.003875509,0.183872266,-0.255310886,0.076373959,0.006627687,-0.003090457,1.000907495,0.000535681,-0.000091877,0.000818160,0.000000000,0.000000000,0.000000000,0.000000000,0.014874952,0.006133574,0.054564271,0.034931591,-0.017531741,0.000795701,0.011099341,-0.005849462,0.001194358,0.146672834,-0.250573005,0.592015892,0.001268643,0.002193244,0.005163470,0.999982454,0.000000000,0.000000000,0.000000000,0.000000000,0.000000000,0.000000000,0.592532087,0.000000000,4.138416290
1772683120.136503220,0.014220000,0.006500000,0.054504000,0.009517030,0.023299520,0.006881880,0.999659540,0.019370000,0.046469000,0.014218000,0.001744038,0.001067853,-0.002161832,0.190417101,-0.267420994,0.080819756,0.005518435,-0.003353500,1.000051127,-0.000728702,0.000676640,0.001588201,0.000000000,0.000000000,0.000000000,0.000000000,0.014862339,0.006108531,0.054620723,0.035141437,-0.017752755,0.001057313,0.010330780,-0.005740040,-0.000139605,0.146475343,-0.249453618,0.591432390,0.001266981,0.002183461,0.005158394,0.999982517,0.000000000,0.000000000,0.000000000,0.000000000,0.000000000,0.000000000,0.591538662,0.000000000,4.138416290
1772683120.146503210,0.014249000,0.006507000,0.054479000,0.010977850,0.021545180,0.007409020,0.999680150,0.022290000,0.042927000,0.015301000,0.000396135,0.000305944,-0.000220649,0.138882964,-0.192557494,0.057737274,0.004784634,-0.002640890,1.000662842,-0.000254053,0.002586545,0.000942484,0.000000000,0.000000000,0.000000000,0.000000000,0.014857922,0.006095364,0.054650782,0.035277726,-0.017867940,0.001133251,0.009210755,-0.005305896,0.001062466,0.146337995,-0.249213840,0.591935582,0.001265784,0.002181367,0.005162791,0.999982497,0.000000000,0.000000000,0.000000000,0.000000000,0.000000000,0.000000000,0.591672301,0.000000000,4.138416290
1772683120.156502485,0.014262000,0.006502000,0.054492000,0.011904100,0.020100900,0.007768410,0.999696900,0.024135000,0.040015000,0.016024000,-0.001501691,-0.001040988,0.002854878,0.018038330,-0.019040618,0.008061383,0.005247101,-0.001356314,1.001681994,-0.000123643,0.002813682,-0.001217706,0.000000000,0.000000000,0.000000000,0.000000000,0.014855845,0.006095940,0.054657032,0.035410867,-0.017824721,0.001228438,0.009636487,-0.003651597,0.001225314,0.145935788,-0.249233635,0.591419873,0.001262283,0.002181517,0.005158298,0.999982522,0.000000000,0.000000000,0.000000000,0.000000000,0.000000000,0.000000000,0.591728736,0.000000000,4.138416290
1772683120.166502237,0.014178000,0.006452000,0.054617000,0.010772930,0.021821530,0.007346880,0.999676840,0.021882000,0.043484000,0.015174000,-0.002383821,-0.001616221,0.003741437,-0.092997469,0.136521083,-0.039102168,0.005631752,-0.001428519,1.002323102,0.000189928,0.001736430,-0.000158147,0.000000000,0.000000000,0.000000000,0.000000000,0.014876606,0.006086154,0.054653810,0.035698645,-0.017665962,0.001372755,0.010378353,-0.003898376,0.002076670,0.146011446,-0.250293284,0.589936877,0.001262924,0.002190750,0.005145344,0.999982595,0.000000000,0.000000000,0.000000000,0.000000000,0.000000000,0.000000000,0.590260075,0.000000000,4.138416290
1772683120.176501513,0.014153000,0.006452000,0.054629000,0.009855820,0.023089950,0.006971710,0.999660500,0.020049000,0.046043000,0.014410000,-0.001695728,-0.001240056,0.002686288,-0.136386678,0.198933989,-0.058811374,0.006937113,-0.001974413,1.000559882,-0.000371329,0.000636778,0.000688236,0.000000000,0.000000000,0.000000000,0.000000000,0.014672217,0.006230509,0.054585538,0.024489440,-0.011750837,0.000370446,0.011322228,-0.004548054,0.000114489,0.138742988,-0.237435658,0.590580432,0.001206384,0.002098415,0.005156072,0.999982942,0.000000000,0.000000000,0.000000000,0.000000000,0.000000000,0.000000000,0.591722713,0.000000000,4.138416290
1772683120.186501265,0.014150000,0.006442000,0.054626000,0.009154140,0.024081260,0.006714090,0.999645550,0.018648000,0.048041000,0.013881000,0.000445183,0.000229954,-0.000666648,-0.071883488,0.108010371,-0.030848408,0.007262427,-0.002472545,0.999536323,-0.000056585,0.001866517,0.001523785,0.000000000,0.000000000,0.000000000,0.000000000,0.014232247,0.006434073,0.054600926,0.024932099,-0.011802301,0.000205517,0.009967518,-0.004373723,-0.000580049,0.100597573,-0.164580285,0.594160868,0.000911485,0.001571973,0.005215419,0.999984228,0.000000000,0.000000000,0.000000000,0.000000000,0.000000000,0.000000000,0.593919856,0.000000000,4.138416290
1772683120.196501493,0.014158000,0.006438000,0.054650000,0.008441510,0.024997730,0.006492870,0.999630780,0.017224000,0.049888000,0.013420000,0.002302120,0.001337861,-0.003340038,0.038031492,-0.041832338,0.015532905,0.006186852,-0.002934021,0.999728030,0.001470830,0.006202180,0.002531866,0.000000000,0.000000000,0.000000000,0.000000000,0.014326762,0.006401804,0.054579284,0.026586069,-0.012441989,0.000011146,0.009429985,-0.004058980,-0.000485508,0.106823392,-0.187593767,0.599753476,0.000923627,0.001641921,0.005232272,0.999983584,0.000000000,0.000000000,0.000000000,0.000000000,0.000000000,0.000000000,0.596117104,0.000000000,4.138416290
1772683120.206500769,0.014232000,0.006492000,0.054510000,0.009909410,0.023092700,0.006971730,0.999659910,0.020157000,0.046048000,0.014412000,0.003000178,0.002002644,-0.004563252,0.140532116,-0.192125029,0.060840008,0.005826399,-0.001675953,1.000287948,0.000955594,-0.006261606,-0.003079792,0.000000000,0.000000000,0.000000000,0.000000000,0.014440710,0.006386254,0.054531120,0.027573347,-0.012877017,-0.000153082,0.009384921,-0.003736858,0.000019039,0.108878990,-0.193834629,0.600744644,0.000941265,0.001696484,0.005240840,0.999983387,0.000000000,0.000000000,0.000000000,0.000000000,0.000000000,0.000000000,0.598314143,0.000000000,4.138416290
1772683120.216501236,0.014262000,0.006501000,0.054494000,0.011040670,0.021684200,0.007438620,0.999676230,0.022420000,0.043204000,0.015366000,0.001882344,0.001695942,-0.003485823,0.173136529,-0.241205920,0.077786492,0.006018488,-0.003707370,0.999646777,0.001529586,-0.002948615,-0.003244402,0.000000000,0.000000000,0.000000000,0.000000000,0.014483500,0.006383272,0.054510955,0.028144828,-0.013027033,-0.000212490,0.009099134,-0.005147748,-0.000253215,0.109119072,-0.192208839,0.599604680,0.000943451,0.001682298,0.005230902,0.999983454,0.000000000,0.000000000,0.000000000,0.000000000,0.000000000,0.000000000,0.600191442,0.000000000,4.138416290
1772683120.226501465,0.014253000,0.006508000,0.054492000,0.011813490,0.020548410,0.007753850,0.999688990,0.023961000,0.040912000,0.016002000,0.000611422,0.001031139,-0.002127624,0.158036826,-0.222919381,0.071827235,0.006218733,-0.002671999,0.999570780,-0.000050288,-0.002152216,-0.002912269,0.000000000,0.000000000,0.000000000,0.000000000,0.014504831,0.006382797,0.054490634,0.028659333,-0.013355588,-0.000307823,0.009930020,-0.004202936,-0.000269721,0.109256758,-0.190950644,0.598091722,0.000944732,0.001671313,0.005217708,0.999983517,0.000000000,0.000000000,0.000000000,0.000000000,0.000000000,0.000000000,0.598808357,0.000000000,4.138416290
1772683120.236501455,0.014243000,0.006513000,0.054476000,0.012252640,0.019896600,0.007945840,0.999695380,0.024836000,0.039597000,0.016388000,-0.000202273,0.000044095,-0.000503206,0.103883054,-0.151913348,0.047964286,0.005351920,-0.002081851,0.999907571,0.001252058,0.001631224,-0.003558308,0.000000000,0.000000000,0.000000000,0.000000000,0.014511146,0.006383107,0.054480947,0.029100438,-0.013632441,-0.000379733,0.008078241,-0.002831809,-0.000221504,0.109111906,-0.190726651,0.596207566,0.000943506,0.001669336,0.005201270,0.999983614,0.000000000,0.000000000,0.000000000,0.000000000,0.000000000,0.000000000,0.597401912,0.000000000,4.138416290
1772683120.246501207,0.014232000,0.006519000,0.054474000,0.012578080,0.019333240,0.008121380,0.999700990,0.025484000,0.038460000,0.016737000,-0.000642172,-0.000526244,0.001030673,0.039210184,-0.063632557,0.017834371,0.005741778,-0.003172765,1.000605675,0.000829564,0.000025775,-0.001521321,0.000000000,0.000000000,0.000000000,0.000000000,0.014520335,0.006371509,0.054483496,0.029447588,-0.013834288,-0.000383103,0.008024867,-0.004800999,0.000495782,0.110217629,-0.190510049,0.595420567,0.000953177,0.001667489,0.005194388,0.999983668,0.000000000,0.000000000,0.000000000,0.000000000,0.000000000,0.000000000,0.595995500,0.000000000,4.138416290
1772683120.256500721,0.014235000,0.006505000,0.054485000,0.012658100,0.019253710,0.008155030,0.999701240,0.025644000,0.038299000,0.016806000,-0.000118007,-0.000347630,0.000476788,0.012112383,-0.027926919,0.001153932,0.006758746,-0.002071939,1.000595024,0.001438638,0.000485733,0.002046874,0.000000000,0.000000000,0.000000000,0.000000000,0.014530134,0.006364218,0.054487407,0.029643483,-0.014030248,-0.000340858,0.009919152,-0.003708132,0.000695077,0.110472386,-0.190188788,0.593989742,0.000955435,0.001664685,0.005181900,0.999983755,0.000000000,0.000000000,0.000000000,0.000000000,0.000000000,0.000000000,0.594522466,0.000000000,4.138416290
1772683120.266501188,0.014244000,0.006491000,0.054495000,0.012710510,0.019230530,0.008088550,0.999701560,0.025746000,0.038253000,0.016674000,0.000289550,-0.000206546,0.000375350,-0.002826269,-0.000838352,-0.007743526,0.007006465,-0.001213137,1.000458812,0.001628493,0.000909301,0.002947850,0.000000000,0.000000000,0.000000000,0.000000000,0.014537288,0.006362800,0.054489202,0.029835737,-0.014208359,-0.000287934,0.009336630,-0.003120919,0.000156342,0.110572429,-0.190672368,0.594757323,0.000956275,0.001668916,0.005188593,0.999983773,0.000000000,0.000000000,0.000000000,0.000000000,0.000000000,0.000000000,0.593817590,0.000000000,4.138416290
1772683120.276500702,0.014258000,0.006499000,0.054495000,0.012658030,0.019170420,0.008037700,0.999703790,0.025638000,0.038135000,0.016569000,0.000182421,0.000028380,0.000188559,-0.011126069,0.015286438,-0.011003910,0.006520850,-0.001090374,1.000408382,0.001243966,0.000782466,0.001469031,0.000000000,0.000000000,0.000000000,0.000000000,0.014536870,0.006363439,0.054490059,0.029904368,-0.014218960,-0.000273444,0.009021407,-0.002961191,0.000176760,0.110575567,-0.190681665,0.594631996,0.000956304,0.001668997,0.005187499,0.999983751,0.000000000,0.000000000,0.000000000,0.000000000,0.000000000,0.000000000,0.594011128,0.000000000,4.138416290
1772683120.286500692,0.014238000,0.006510000,0.054501000,0.012623710,0.019256790,0.007995100,0.999702900,0.025569000,0.038310000,0.016484000,0.000032615,0.000167560,-0.000283139,-0.017457541,0.029104049,-0.011913094,0.006035212,-0.000967605,1.000357950,0.000859420,0.000655626,-0.000009858,0.000000000,0.000000000,0.000000000,0.000000000,0.014536452,0.006364078,0.054490916,0.029973003,-0.014229561,-0.000258953,0.008706170,-0.002801454,0.000197180,0.110575810,-0.190663861,0.594449057,0.000956309,0.001668840,0.005185903,0.999983729,0.000000000,0.000000000,0.000000000,0.000000000,0.000000000,0.000000000,0.594204676,0.000000000,4.138416290
1772683120.296500683,0.014244000,0.006506000,0.054480000,0.012436620,0.019386870,0.007929750,0.999703260,0.025195000,0.038575000,0.016350000,-0.000131760,0.000100097,-0.000446504,-0.019004727,0.027042924,-0.007354156,0.005549573,-0.000844837,1.000307517,0.000474874,0.000528786,-0.001488748,0.000000000,0.000000000,0.000000000,0.000000000,0.014536034,0.006364717,0.054491773,0.030041637,-0.014240162,-0.000244461,0.008390932,-0.002641718,0.000217600,0.110576053,-0.190646057,0.594266118,0.000956315,0.001668683,0.005184306,0.999983708,0.000000000,0.000000000,0.000000000,0.000000000,0.000000000,0.000000000,0.594398223,0.000000000,4.138416290
1772683120.306499958,0.014245000,0.006509000,0.054483000,0.012464280,0.019620220,0.007953880,0.999698170,0.025255000,0.039040000,0.016405000,0.000278438,0.000291473,-0.000918008,0.001703762,-0.003102376,0.006474579,0.005063969,-0.000722076,1.000257089,0.000090355,0.000401954,-0.002967532,0.000000000,0.000000000,0.000000000,0.000000000,0.014535616,0.006365356,0.054492630,0.030110267,-0.014250763,-0.000229971,0.008075717,-0.002481993,0.000238019,0.110576296,-0.190628254,0.594083192,0.000956320,0.001668526,0.005182710,0.999983686,0.000000000,0.000000000,0.000000000,0.000000000,0.000000000,0.000000000,0.594591757,0.000000000,4.138416290
1772683120.316499949,0.014239000,0.006504000,0.054483000,0.012335790,0.019725770,0.007939090,0.999697800,0.024999000,0.039254000,0.016373000,0.000019347,-0.000431080,0.000570008,-0.018896149,0.019142549,-0.003068400,0.004560814,-0.000660847,1.000235557,-0.000241478,0.000415206,-0.004246555,0.000000000,0.000000000,0.000000000,0.000000000,0.014535198,0.006365995,0.054493487,0.030178901,-0.014261364,-0.000215480,0.007760479,-0.002322257,0.000258439,0.110576539,-0.190610450,0.593900254,0.000956326,0.001668369,0.005181114,0.999983676,0.000000000,0.000000000,0.000000000,0.000000000,0.000000000,0.000000000,0.594785304,0.000000000,4.138416290
1772683120.326499224,0.014250000,0.006497000,0.054480000,0.012219170,0.019823640,0.007889240,0.999697690,0.024766000,0.039453000,0.016272000,-0.000198019,-0.000766357,0.001559831,-0.048725400,0.058273021,-0.018805727,0.003745021,-0.001698076,1.000729901,0.000367612,0.002929023,-0.001957986,0.000000000,0.000000000,0.000000000,0.000000000,0.014536719,0.006365918,0.054489756,0.030299108,-0.014268194,-0.000216259,0.007345488,-0.002628848,0.000570396,0.110576782,-0.190592647,0.593717328,0.000956332,0.001668212,0.005179518,0.999983718,0.000000000,0.000000000,0.000000000,0.000000000,0.000000000,0.000000000,0.594119689,0.000000000,4.138416290
1772683120.336499214,0.014250000,0.006498000,0.054492000,0.012235110,0.019583960,0.007964580,0.999701620,0.024796000,0.038971000,0.016417000,-0.000215618,-0.000145124,0.000920125,-0.045391014,0.060895061,-0.022182584,0.004425637,-0.001591044,1.001120191,-0.000207654,-0.000201091,-0.000671571,0.000000000,0.000000000,0.000000000,0.000000000,0.014539255,0.006366000,0.054485096,0.030410984,-0.014295425,-0.000197963,0.007208622,-0.003871967,0.001355047,0.110145197,-0.191302484,0.593022149,0.000952543,0.001674381,0.005173452,0.999983772,0.000000000,0.000000000,0.000000000,0.000000000,0.000000000,0.000000000,0.593327090,0.000000000,4.138416290
1772683120.346498728,0.014255000,0.006513000,0.054493000,0.012255400,0.019683880,0.007945620,0.999699560,0.024838000,0.039171000,0.016382000,-0.000522417,0.000112141,0.000474826,-0.045390482,0.071713179,-0.025245538,0.005251501,-0.001634599,1.000826203,-0.000121252,-0.000778223,0.001266668,0.000000000,0.000000000,0.000000000,0.000000000,0.014540818,0.006365988,0.054483318,0.030472569,-0.014365435,-0.000110378,0.009066762,-0.003721531,0.000776886,0.109912464,-0.191481284,0.593236125,0.000950501,0.001675933,0.005175321,0.999983788,0.000000000,0.000000000,0.000000000,0.000000000,0.000000000,0.000000000,0.593067158,0.000000000,4.138416290
1772683120.356498718,0.014199000,0.006451000,0.054603000,0.010525130,0.021987900,0.007167810,0.999677140,0.021381000,0.043825000,0.014809000,-0.001597632,-0.000571795,0.001840678,-0.078909987,0.134039767,-0.039456216,0.005851694,-0.002039712,1.000475224,0.001417280,-0.001101539,0.002902666,0.000000000,0.000000000,0.000000000,0.000000000,0.014541187,0.006363323,0.054482446,0.030590864,-0.014441705,-0.000003821,0.009435921,-0.004156079,0.000587429,0.109842493,-0.192253515,0.594089379,0.000949843,0.001682676,0.005182762,0.999983715,0.000000000,0.000000000,0.000000000,0.000000000,0.000000000,0.000000000,0.593644483,0.000000000,4.138416290
1772683120.366498709,0.014228000,0.006498000,0.054506000,0.011026470,0.021647910,0.007353890,0.999677800,0.022387000,0.043133000,0.015195000,-0.001841377,-0.000915793,0.002074225,-0.104936588,0.166468350,-0.046587014,0.005786739,-0.002223801,1.000592403,0.001588141,-0.000410217,0.002472659,0.000000000,0.000000000,0.000000000,0.000000000,0.014547005,0.006358662,0.054482912,0.030860938,-0.014575812,0.000053584,0.008928083,-0.004238369,0.000456048,0.110484171,-0.191182833,0.594009640,0.000955493,0.001673361,0.005182066,0.999983711,0.000000000,0.000000000,0.000000000,0.000000000,0.000000000,0.000000000,0.594198260,0.000000000,4.138416290
1772683120.376499176,0.014230000,0.006522000,0.054476000,0.011504370,0.021108150,0.007538580,0.999682580,0.023342000,0.042042000,0.015572000,-0.000540385,-0.000462413,0.000361286,-0.073222674,0.112734889,-0.028583789,0.006504512,-0.003770943,1.000299407,-0.000413346,0.001750922,0.001920349,0.000000000,0.000000000,0.000000000,0.000000000,0.014552471,0.006359477,0.054488865,0.031162913,-0.014725919,0.000134033,0.009323822,-0.005117960,-0.000008017,0.111060178,-0.191188755,0.594029486,0.000960519,0.001673438,0.005182230,0.999983728,0.000000000,0.000000000,0.000000000,0.000000000,0.000000000,0.000000000,0.593979579,0.000000000,4.138416290
1772683120.386498690,0.014169000,0.006458000,0.054594000,0.010132610,0.022978980,0.007072770,0.999659580,0.020606000,0.045815000,0.014622000,0.000034188,-0.000677332,0.000441045,-0.052099487,0.070607450,-0.014337896,0.006889994,-0.003594750,1.000017715,-0.000228894,0.001358163,0.000191735,0.000000000,0.000000000,0.000000000,0.000000000,0.014541480,0.006345512,0.054524202,0.031379107,-0.014980459,0.000306025,0.010552740,-0.005383906,-0.000074576,0.109833266,-0.191312868,0.594018276,0.000949806,0.001674466,0.005182149,0.999983728,0.000000000,0.000000000,0.000000000,0.000000000,0.000000000,0.000000000,0.594051850,0.000000000,4.138081894
1772683120.396498442,0.014156000,0.006424000,0.054648000,0.008975140,0.024413760,0.006685640,0.999639290,0.018293000,0.048709000,0.013822000,0.000398310,-0.000395494,0.000376069,-0.026300413,0.020914123,-0.004847761,0.005816643,-0.003515198,0.999978470,0.002559057,0.001843041,-0.000077749,0.000000000,0.000000000,0.000000000,0.000000000,0.014533079,0.006336819,0.054539137,0.031636423,-0.015221931,0.000338801,0.009963764,-0.005013233,-0.000007496,0.109932419,-0.191717572,0.592898887,0.000950670,0.001677993,0.005172376,0.999983778,0.000000000,0.000000000,0.000000000,0.000000000,0.000000000,0.000000000,0.593281638,0.000000000,4.137563918
1772683120.406498671,0.014234000,0.006485000,0.054517000,0.009957950,0.022819060,0.007093770,0.999664850,0.020255000,0.045497000,0.014653000,0.000444387,-0.000211888,0.000190618,-0.009497970,-0.008939995,-0.003331313,0.004987496,-0.004236166,1.000488094,0.002105676,0.002715261,0.002393913,0.000000000,0.000000000,0.000000000,0.000000000,0.014537039,0.006347353,0.054517783,0.031904791,-0.015366262,0.000227851,0.008157522,-0.005651412,-0.000082513,0.109960580,-0.193163653,0.592621036,0.000950854,0.001690611,0.005169939,0.999983788,0.000000000,0.000000000,0.000000000,0.000000000,0.000000000,0.000000000,0.592701743,0.000000000,4.137045917
1772683120.416497946,0.014259000,0.006496000,0.054484000,0.010938020,0.021626760,0.007437400,0.999678610,0.022213000,0.043090000,0.015358000,0.000963443,0.001005168,-0.001863386,0.052518051,-0.088755162,0.020889102,0.005470669,-0.004241185,0.999317179,0.001736343,0.002687802,-0.001157133,0.000000000,0.000000000,0.000000000,0.000000000,0.014523790,0.006341527,0.054529832,0.032067664,-0.015613563,0.000295908,0.008156303,-0.005570480,-0.000062507,0.110130157,-0.194487264,0.593844687,0.000952256,0.001702179,0.005180603,0.999983675,0.000000000,0.000000000,0.000000000,0.000000000,0.000000000,0.000000000,0.593484937,0.000000000,4.136527965
1772683120.426497698,0.014184000,0.006440000,0.054615000,0.009798480,0.023115870,0.006984110,0.999660380,0.019936000,0.046096000,0.014432000,0.001024982,0.001598137,-0.002762007,0.102539729,-0.149904773,0.039830105,0.005599696,-0.002931576,0.999562739,0.003402770,0.001400964,0.000126118,0.000000000,0.000000000,0.000000000,0.000000000,0.014500680,0.006313333,0.054578499,0.032122621,-0.015909748,0.000473499,0.009083467,-0.005453192,-0.000747977,0.110891972,-0.195043030,0.593164249,0.000958889,0.001707058,0.005174650,0.999983723,0.000000000,0.000000000,0.000000000,0.000000000,0.000000000,0.000000000,0.593411414,0.000000000,4.136009988
1772683120.436497450,0.014218000,0.006504000,0.054513000,0.010812160,0.021495090,0.007288320,0.999683920,0.021953000,0.042832000,0.015051000,0.000426049,0.000878808,-0.001694310,0.097935002,-0.141697828,0.038442502,0.005186033,-0.003902697,0.999005814,-0.002526592,-0.001346611,-0.000938166,0.000000000,0.000000000,0.000000000,0.000000000,0.014505859,0.006305458,0.054582797,0.032299524,-0.016056472,0.000418759,0.008861864,-0.005738950,-0.000457634,0.112339003,-0.194659930,0.592912645,0.000971538,0.001703778,0.005172436,0.999983676,0.000000000,0.000000000,0.000000000,0.000000000,0.000000000,0.000000000,0.593003876,0.000000000,4.135492012
1772683120.446497202,0.014240000,0.006513000,0.054471000,0.011515010,0.020733310,0.007603610,0.999689810,0.023360000,0.041290000,0.015694000,0.000332071,0.000329099,-0.000876846,0.078922728,-0.116219100,0.033071214,0.006741193,-0.002871634,0.999910354,-0.000793143,0.001831505,-0.001880373,0.000000000,0.000000000,0.000000000,0.000000000,0.014538172,0.006320021,0.054539025,0.032546773,-0.016185389,0.000131299,0.009873180,-0.004738849,-0.000624357,0.111826613,-0.194944283,0.591978017,0.000967067,0.001706229,0.005164284,0.999983725,0.000000000,0.000000000,0.000000000,0.000000000,0.000000000,0.000000000,0.592352954,0.000000000,4.134974036
1772683120.456497669,0.014240000,0.006511000,0.054475000,0.011968530,0.020027020,0.007836550,0.999697080,0.024265000,0.039865000,0.016161000,0.001417154,0.000853964,-0.001997729,0.099431186,-0.149873563,0.045515938,0.007285736,-0.001449588,0.999917742,0.001508833,0.002093927,0.001804972,0.000000000,0.000000000,0.000000000,0.000000000,0.014536802,0.006311332,0.054551076,0.032727855,-0.016352031,0.000124989,0.010632411,-0.003933503,0.000039155,0.111313320,-0.194690691,0.590191067,0.000962626,0.001703977,0.005148700,0.999983786,0.000000000,0.000000000,0.000000000,0.000000000,0.000000000,0.000000000,0.590749644,0.000000000,4.134456022
1772683120.466497183,0.014253000,0.006502000,0.054477000,0.012255400,0.019603860,0.007878500,0.999701670,0.024834000,0.039013000,0.016246000,0.000971718,0.000396193,-0.000887394,0.081631275,-0.120922284,0.039627054,0.007128696,-0.004008832,1.001222599,-0.002621206,0.002689314,-0.000573790,0.000000000,0.000000000,0.000000000,0.000000000,0.014532296,0.006316722,0.054550518,0.032995417,-0.016304723,0.000091327,0.010498018,-0.005498432,0.000696946,0.111532409,-0.194025988,0.589565101,0.000964577,0.001698181,0.005143241,0.999983848,0.000000000,0.000000000,0.000000000,0.000000000,0.000000000,0.000000000,0.589726538,0.000000000,4.133938058
1772683120.476497889,0.014255000,0.006500000,0.054480000,0.012415930,0.019224310,0.007990160,0.999706170,0.025153000,0.038248000,0.016466000,-0.000939764,-0.000939084,0.002355500,-0.007007238,0.008684438,0.003304907,0.006993639,-0.003070468,1.000729760,-0.002695448,-0.000583257,0.000109018,0.000000000,0.000000000,0.000000000,0.000000000,0.014550904,0.006327150,0.054522765,0.033234820,-0.016322560,0.000001761,0.010194715,-0.005303854,0.000816456,0.111136827,-0.195394448,0.589224854,0.000961069,0.001710103,0.005140266,0.999983898,0.000000000,0.000000000,0.000000000,0.000000000,0.000000000,0.000000000,0.589336614,0.000000000,4.133420032
1772683120.486497879,0.014250000,0.006509000,0.054492000,0.012440530,0.019286920,0.008038020,0.999704280,0.025205000,0.038372000,0.016564000,-0.001872923,-0.001179955,0.003323216,-0.079485531,0.111234422,-0.029483517,0.005967449,-0.002034814,1.001266178,0.002254266,0.000115267,0.000315570,0.000000000,0.000000000,0.000000000,0.000000000,0.014566530,0.006334903,0.054498376,0.033443512,-0.016433940,-0.000039258,0.009810942,-0.003545566,0.001252093,0.110836786,-0.193778824,0.588718269,0.000958531,0.001695986,0.005135863,0.999983907,0.000000000,0.000000000,0.000000000,0.000000000,0.000000000,0.000000000,0.588877428,0.000000000,4.133137703
1772683120.496497631,0.014245000,0.006509000,0.054498000,0.012385200,0.019304690,0.008050360,0.999704520,0.025095000,0.038408000,0.016587000,-0.002743864,-0.002002663,0.004469410,-0.167422916,0.239241949,-0.068120111,0.007984635,-0.001805457,1.001667798,0.001399423,-0.000923233,-0.000705638,0.000000000,0.000000000,0.000000000,0.000000000,0.014572113,0.006340156,0.054484947,0.033589095,-0.016479591,0.000021733,0.010918229,-0.004188001,0.001496444,0.110884042,-0.193565941,0.587367621,0.000958972,0.001694119,0.005124078,0.999983971,0.000000000,0.000000000,0.000000000,0.000000000,0.000000000,0.000000000,0.587614469,0.000000000,4.133137703
1772683120.506497622,0.014169000,0.006456000,0.054606000,0.010773190,0.021666570,0.007431960,0.999679580,0.021884000,0.043173000,0.015341000,-0.002338949,-0.001899710,0.003748042,-0.205696618,0.295636858,-0.087173521,0.006648318,-0.002726704,0.999041258,0.001494017,0.003790347,-0.000071154,0.000000000,0.000000000,0.000000000,0.000000000,0.014579550,0.006339243,0.054482152,0.033809288,-0.016439239,0.000221312,0.009374019,-0.004147368,-0.000195329,0.111178899,-0.193861129,0.586937314,0.000961539,0.001696705,0.005120316,0.999984026,0.000000000,0.000000000,0.000000000,0.000000000,0.000000000,0.000000000,0.587252481,0.000000000,4.133137703
1772683120.516497135,0.014157000,0.006435000,0.054641000,0.009525460,0.023463110,0.006972870,0.999655000,0.019394000,0.046794000,0.014404000,-0.000836734,-0.001078109,0.001535122,-0.172436011,0.249655652,-0.078817936,0.003461265,-0.001805286,1.001377148,0.000678630,0.005063086,0.002551859,0.000000000,0.000000000,0.000000000,0.000000000,0.014580742,0.006343241,0.054487804,0.034015701,-0.016510464,0.000178099,0.007682013,-0.003852150,0.000605698,0.111293717,-0.194355791,0.586816461,0.000962520,0.001701026,0.005119256,0.999984006,0.000000000,0.000000000,0.000000000,0.000000000,0.000000000,0.000000000,0.586482866,0.000000000,4.133137703
1772683120.526497126,0.014165000,0.006436000,0.054629000,0.008704890,0.024439180,0.006582200,0.999641750,0.017747000,0.048766000,0.013602000,0.000729468,0.000347533,-0.001272223,-0.076896069,0.116365164,-0.042246400,0.004114178,-0.001350578,1.001595752,-0.001431770,0.002053557,-0.003916024,0.000000000,0.000000000,0.000000000,0.000000000,0.014578903,0.006344799,0.054493686,0.033860638,-0.016509278,0.000263923,0.007689538,-0.003258706,0.001356905,0.111145284,-0.195017109,0.586697082,0.000961197,0.001706789,0.005118210,0.999983983,0.000000000,0.000000000,0.000000000,0.000000000,0.000000000,0.000000000,0.587293535,0.000000000,4.133137703
1772683120.536498070,0.014168000,0.006428000,0.054626000,0.008154030,0.025240720,0.006345320,0.999628010,0.016644000,0.050380000,0.013115000,0.001930888,0.001817717,-0.003496526,0.047706059,-0.057865238,0.011219246,0.004705820,-0.001608580,0.999983368,-0.000047815,-0.002160539,0.000822346,0.000000000,0.000000000,0.000000000,0.000000000,0.014541347,0.006321042,0.054549132,0.033616671,-0.016529985,0.000605311,0.008376584,-0.003735031,0.000556332,0.110919772,-0.195277076,0.585488756,0.000959236,0.001709037,0.005107666,0.999984043,0.000000000,0.000000000,0.000000000,0.000000000,0.000000000,0.000000000,0.585732716,0.000000000,4.133137703
1772683120.546498060,0.014240000,0.006497000,0.054504000,0.009628790,0.023396260,0.006851870,0.999656420,0.019594000,0.046661000,0.014165000,0.002517621,0.002405772,-0.004566030,0.154123744,-0.207370546,0.058110473,0.005133437,-0.002777005,0.998515754,-0.001169124,-0.003626722,0.001528923,0.000000000,0.000000000,0.000000000,0.000000000,0.014513015,0.006297142,0.054598931,0.033481024,-0.016482096,0.000854651,0.008700152,-0.004344828,-0.001090377,0.110645727,-0.193998859,0.585214724,0.000956905,0.001697869,0.005105290,0.999984086,0.000000000,0.000000000,0.000000000,0.000000000,0.000000000,0.000000000,0.585125007,0.000000000,4.133137703
1772683120.556498289,0.014245000,0.006509000,0.054488000,0.010745460,0.021847650,0.007231080,0.999677410,0.021822000,0.043540000,0.014942000,0.001756062,0.001613211,-0.003328733,0.188804519,-0.258756867,0.076779036,0.004260155,-0.002586406,0.999366839,-0.000286689,-0.004268223,-0.000923876,0.000000000,0.000000000,0.000000000,0.000000000,0.014503160,0.006286098,0.054618505,0.033503323,-0.016501510,0.000829822,0.007746094,-0.004175802,-0.001040026,0.110146832,-0.192623540,0.585585929,0.000952607,0.001685848,0.005108549,0.999984086,0.000000000,0.000000000,0.000000000,0.000000000,0.000000000,0.000000000,0.585452317,0.000000000,4.133137703
1772683120.566498280,0.014236000,0.006519000,0.054480000,0.011594660,0.020774900,0.007542670,0.999688490,0.023518000,0.041374000,0.015576000,0.001188346,0.000604099,-0.001717135,0.171004219,-0.237818553,0.072777789,0.003750273,-0.003104136,1.000086912,0.000207874,-0.004499213,-0.002317466,0.000000000,0.000000000,0.000000000,0.000000000,0.014953909,0.006050811,0.054636934,0.028342304,-0.014145689,0.001091193,0.007531622,-0.003644313,-0.000790170,0.105396763,-0.183684509,0.586986656,0.000911538,0.001607639,0.005120903,0.999984604,0.000000000,0.000000000,0.000000000,0.000000000,0.000000000,0.000000000,0.588146619,0.000000000,4.133137703
1772683120.576498270,0.014246000,0.006512000,0.054483000,0.012156500,0.019876370,0.007835070,0.999697830,0.024639000,0.039561000,0.016162000,0.000424359,-0.000203225,-0.000150117,0.115408949,-0.169425847,0.049888879,0.005420151,-0.003266341,1.000520231,0.003151604,-0.000676089,0.002307689,0.000000000,0.000000000,0.000000000,0.000000000,0.014351284,0.006449409,0.054485436,0.027099031,-0.013260591,0.000332983,0.008300342,-0.004655746,-0.000329628,0.094974880,-0.164852429,0.589532711,0.000821403,0.001442852,0.005143398,0.999984599,0.000000000,0.000000000,0.000000000,0.000000000,0.000000000,0.000000000,0.590840922,0.000000000,4.133137703
1772683120.586498737,0.014260000,0.006496000,0.054474000,0.012482980,0.019473740,0.007904050,0.999701190,0.025288000,0.038748000,0.016303000,-0.000343143,-0.000676069,0.000827176,0.049436838,-0.076051483,0.022314045,0.006321848,-0.002423472,0.998865393,-0.004826494,-0.000341945,0.000890700,0.000000000,0.000000000,0.000000000,0.000000000,0.014450431,0.006402308,0.054487887,0.027829283,-0.013735778,0.000308405,0.008597447,-0.004006117,-0.000637499,0.086156430,-0.149060060,0.591397792,0.000745132,0.001304658,0.005159907,0.999984562,0.000000000,0.000000000,0.000000000,0.000000000,0.000000000,0.000000000,0.591630880,0.000000000,4.133137703
1772683120.596498489,0.014255000,0.006491000,0.054486000,0.012671050,0.019048040,0.008023080,0.999706080,0.025662000,0.037891000,0.016537000,-0.000262199,-0.000094406,0.000334732,0.020268501,-0.034082857,0.009977748,0.005891433,-0.002534274,0.998887419,0.001387306,-0.001419524,-0.001843849,0.000000000,0.000000000,0.000000000,0.000000000,0.014492008,0.006382580,0.054492100,0.028434597,-0.014084251,0.000260421,0.008861542,-0.004918791,-0.000758277,0.085313606,-0.148387224,0.589876219,0.000737825,0.001298739,0.005146644,0.999984607,0.000000000,0.000000000,0.000000000,0.000000000,0.000000000,0.000000000,0.590345820,0.000000000,4.133137703
