t,px,py,pz,qx,qy,qz,qw,roll,pitch,yaw,vx,vy,vz,wx_vicon,wy_vicon,wz_vicon,imu_acc_x,imu_acc_y,imu_acc_z,imu_gyro_x,imu_gyro_y,imu_gyro_z,motor_motor_m1,motor_motor_m2,motor_motor_m3,motor_motor_m4,est_stateEstimate_x,est_stateEstimate_y,est_stateEstimate_z,est_stateEstimate_vx,est_stateEstimate_vy,est_stateEstimate_vz,est_stateEstimate_ax,est_stateEstimate_ay,est_stateEstimate_az,att_stateEstimate_roll,att_stateEstimate_pitch,att_stateEstimate_yaw,att_stateEstimate_qx,att_stateEstimate_qy,att_stateEstimate_qz,att_stateEstimate_qw,sp_ctrltarget_x,sp_ctrltarget_y,sp_ctrltarget_z,sp_ctrltarget_yaw,pid_controller_roll,pid_controller_pitch,pid_controller_yaw,pid_controller_cmd_thrust,pwr_pm_vbat
1772421674.099759102,0.016699000,0.008852000,0.053795000,-0.004146970,0.003672060,0.011382190,0.999919880,-0.008210000,0.007438000,0.022735000,-0.000277914,0.000056255,-0.000700875,-0.005335409,-0.003509327,-0.006297187,0.010685846,-0.000088159,0.998872097,-0.002364417,-0.002611088,-0.000725774,0.000000000,0.000000000,0.000000000,0.000000000,0.016874622,0.008904054,0.053789226,0.018550047,0.006278067,-0.000861479,0.007543430,0.003078886,-0.000292036,-0.198448991,0.196124877,0.837983606,-0.001719227,-0.001724129,0.007309728,0.999969304,0.000000000,0.000000000,0.000000000,0.000000000,0.000000000,0.000000000,0.838039382,0.000000000,4.127859116
1772421674.109759569,0.016698000,0.008848000,0.053789000,-0.004112640,0.003772160,0.011381410,0.999919660,-0.008139000,0.007637000,0.022733000,-0.000384907,-0.000049340,-0.000196679,-0.001489990,0.008025192,0.002544652,0.008688638,0.000003419,0.998338930,-0.001580217,0.003342550,-0.001077657,0.000000000,0.000000000,0.000000000,0.000000000,0.016871721,0.008909362,0.053788765,0.018709910,0.006406730,-0.000900255,0.006641170,0.003698639,-0.001546519,-0.199118454,0.196044070,0.837004868,-0.001725089,-0.001723452,0.007301179,0.999969343,0.000000000,0.000000000,0.000000000,0.000000000,0.000000000,0.000000000,0.837172264,0.000000000,4.127859116
1772421674.119759560,0.016690000,0.008856000,0.053795000,-0.004146360,0.003787380,0.011391130,0.999919350,-0.008206000,0.007669000,0.022752000,-0.000361481,-0.000075680,0.000107867,0.001498419,0.012421573,0.006088946,0.008465399,0.000182964,0.999405882,0.000288560,-0.002241392,0.001607639,0.000000000,0.000000000,0.000000000,0.000000000,0.016866827,0.008916262,0.053784715,0.018749521,0.006597035,-0.000992855,0.005207500,0.003760146,-0.000949888,-0.199908121,0.193775010,0.835486469,-0.001732147,-0.001703679,0.007287952,0.999969443,0.000000000,0.000000000,0.000000000,0.000000000,0.000000000,0.000000000,0.835623576,0.000000000,4.127859116
1772421674.129760265,0.016688000,0.008849000,0.053788000,-0.004177650,0.003736730,0.011396060,0.999919350,-0.008270000,0.007568000,0.022762000,-0.000250292,-0.000047941,0.000245630,0.003519599,0.011518405,0.005730557,0.009068971,-0.000518733,0.999676030,0.000937215,-0.002736826,0.000202222,0.000000000,0.000000000,0.000000000,0.000000000,0.016863650,0.008919490,0.053783706,0.018686353,0.006770772,-0.001055572,0.005471966,0.003192448,-0.000048376,-0.199092721,0.194325453,0.834967743,-0.001725004,-0.001708422,0.007283429,0.999969522,0.000000000,0.000000000,0.000000000,0.000000000,0.000000000,0.000000000,0.835073573,0.000000000,4.127859116
1772421674.139760733,0.016691000,0.008846000,0.053794000,-0.004129420,0.003903740,0.011478380,0.999917970,-0.008169000,0.007902000,0.022925000,-0.000093998,0.000008702,0.000249476,0.004461724,0.007154413,0.002865569,0.008108233,-0.003538976,1.000093427,-0.001426211,-0.002580489,0.000764044,0.000000000,0.000000000,0.000000000,0.000000000,0.016862025,0.008922401,0.053781230,0.018652444,0.006914908,-0.001045255,0.005295349,0.000923383,-0.000469626,-0.198602003,0.194224041,0.833769020,-0.001720746,-0.001707488,0.007272977,0.999969584,0.000000000,0.000000000,0.000000000,0.000000000,0.000000000,0.000000000,0.833886786,0.000000000,4.127859116
1772421674.149760723,0.016688000,0.008849000,0.053800000,-0.004052480,0.003862060,0.011501970,0.999918180,-0.008016000,0.007817000,0.022973000,0.000064744,0.000069075,0.000152273,0.004214001,0.001167983,-0.001110394,0.008936934,-0.003361365,1.001285473,0.001197650,-0.000958894,-0.003231146,0.000000000,0.000000000,0.000000000,0.000000000,0.016862672,0.008923319,0.053778864,0.018641771,0.006925760,-0.001039929,0.004520973,-0.000243475,0.001263157,-0.198976924,0.195076028,0.833088403,-0.001723974,-0.001714936,0.007267020,0.999969646,0.000000000,0.000000000,0.000000000,0.000000000,0.000000000,0.000000000,0.833116369,0.000000000,4.127859116
1772421674.159760475,0.016682000,0.008858000,0.053795000,-0.004068880,0.003995820,0.011407680,0.999918670,-0.008046000,0.008084000,0.022784000,0.000101884,0.000060548,-0.000105361,0.001929158,-0.002056992,-0.003446477,0.009167477,-0.003205869,1.001464970,0.001726643,-0.000815861,-0.003712411,0.000000000,0.000000000,0.000000000,0.000000000,0.016864733,0.008921910,0.053780049,0.018622555,0.006869542,-0.001020962,0.004732087,-0.000216675,0.001310153,-0.198893353,0.195077558,0.832831471,-0.001723249,-0.001714941,0.007264779,0.999969671,0.000000000,0.000000000,0.000000000,0.000000000,0.000000000,0.000000000,0.832860874,0.000000000,4.127859116
1772421674.169760227,0.016695000,0.008849000,0.053799000,-0.004087380,0.003844150,0.011378180,0.999919520,-0.008087000,0.007781000,0.022726000,0.000147203,0.000028069,-0.000287879,-0.003206494,-0.002996116,-0.004704188,0.009212750,-0.003195673,1.001449655,0.001686751,-0.000994521,-0.003395134,0.000000000,0.000000000,0.000000000,0.000000000,0.016866794,0.008920500,0.053781235,0.018603338,0.006813324,-0.001001995,0.004943200,-0.000189875,0.001357148,-0.198809782,0.195079089,0.832574539,-0.001722523,-0.001714945,0.007262538,0.999969684,0.000000000,0.000000000,0.000000000,0.000000000,0.000000000,0.000000000,0.832605378,0.000000000,4.127859116
1772421674.179760456,0.016694000,0.008851000,0.053792000,-0.004081600,0.003740270,0.011372570,0.999920000,-0.008078000,0.007573000,0.022715000,0.000068570,-0.000035839,-0.000300369,-0.005932971,-0.007015813,-0.003968067,0.009258026,-0.003185477,1.001434339,0.001646856,-0.001173190,-0.003077842,0.000000000,0.000000000,0.000000000,0.000000000,0.016868855,0.008919090,0.053782420,0.018584120,0.006757103,-0.000983027,0.005154324,-0.000163073,0.001404146,-0.198726207,0.195080620,0.832317595,-0.001721798,-0.001714949,0.007260297,0.999969696,0.000000000,0.000000000,0.000000000,0.000000000,0.000000000,0.000000000,0.832349871,0.000000000,4.127859116
1772421674.189760447,0.016690000,0.008854000,0.053788000,-0.004121850,0.003818700,0.011402770,0.999919200,-0.008156000,0.007731000,0.022775000,0.000068201,-0.000049670,-0.000125194,-0.005440299,-0.003279790,-0.001824953,0.009303301,-0.003175280,1.001419023,0.001606963,-0.001351854,-0.002760557,0.000000000,0.000000000,0.000000000,0.000000000,0.016870916,0.008917681,0.053783606,0.018564903,0.006700884,-0.000964060,0.005365443,-0.000136272,0.001451142,-0.198642634,0.195082151,0.832060658,-0.001721072,-0.001714953,0.007258056,0.999969709,0.000000000,0.000000000,0.000000000,0.000000000,0.000000000,0.000000000,0.832094369,0.000000000,4.127859116
1772421674.199760675,0.016690000,0.008849000,0.053782000,-0.004190080,0.003801110,0.011367540,0.999919380,-0.008293000,0.007697000,0.022704000,-0.000008314,-0.000005322,0.000239472,-0.001004302,-0.009853451,-0.000557140,0.009348577,-0.003165084,1.001403707,0.001567068,-0.001530523,-0.002443264,0.000000000,0.000000000,0.000000000,0.000000000,0.016872516,0.008916706,0.053783823,0.018561829,0.006664901,-0.000932938,0.005576567,-0.000109470,0.001498140,-0.198559059,0.195083682,0.831803714,-0.001720346,-0.001714957,0.007255815,0.999969722,0.000000000,0.000000000,0.000000000,0.000000000,0.000000000,0.000000000,0.831838861,0.000000000,4.127859116
1772421674.209760666,0.016696000,0.008848000,0.053790000,-0.004177130,0.003815010,0.011366270,0.999919400,-0.008267000,0.007724000,0.022701000,-0.000088539,0.000134110,0.000241317,0.002699998,-0.012261420,-0.001145939,0.009393852,-0.003154888,1.001388391,0.001527175,-0.001709187,-0.002125979,0.000000000,0.000000000,0.000000000,0.000000000,0.016874016,0.008915826,0.053783833,0.018562223,0.006633267,-0.000899205,0.005787686,-0.000082669,0.001545137,-0.198475486,0.195085212,0.831546776,-0.001719621,-0.001714962,0.007253574,0.999969734,0.000000000,0.000000000,0.000000000,0.000000000,0.000000000,0.000000000,0.831583360,0.000000000,4.127859116
1772421674.219761133,0.016686000,0.008857000,0.053802000,-0.004108560,0.003619080,0.011365890,0.999920420,-0.008135000,0.007331000,0.022703000,-0.000025408,0.000192483,0.000071717,0.003776407,-0.017739422,-0.000261950,0.009439129,-0.003144691,1.001373074,0.001487280,-0.001887860,-0.001808679,0.000000000,0.000000000,0.000000000,0.000000000,0.016875517,0.008914945,0.053783843,0.018562617,0.006601631,-0.000865471,0.005998814,-0.000055867,0.001592136,-0.198391908,0.195086743,0.831289826,-0.001718895,-0.001714966,0.007251333,0.999969747,0.000000000,0.000000000,0.000000000,0.000000000,0.000000000,0.000000000,0.831327846,0.000000000,4.127859116
1772421674.229762077,0.016694000,0.008854000,0.053797000,-0.004112040,0.003631840,0.011338210,0.999920670,-0.008141000,0.007356000,0.022647000,-0.000200933,0.000224961,-0.000098271,0.002421533,-0.021358501,0.001271301,0.009484408,-0.003134494,1.001357757,0.001447382,-0.002066542,-0.001491364,0.000000000,0.000000000,0.000000000,0.000000000,0.016877017,0.008914065,0.053783853,0.018563011,0.006569993,-0.000831736,0.006209953,-0.000029064,0.001639137,-0.198308327,0.195088274,0.831032864,-0.001718170,-0.001714970,0.007249092,0.999969760,0.000000000,0.000000000,0.000000000,0.000000000,0.000000000,0.000000000,0.831072320,0.000000000,4.127859116
1772421674.239762783,0.016690000,0.008854000,0.053800000,-0.004051540,0.003308560,0.011372480,0.999921650,-0.008027000,0.006709000,0.022719000,-0.000052525,-0.000015598,-0.000169212,-0.000586900,-0.014741816,0.003001051,0.009529686,-0.003124296,1.001342440,0.001407486,-0.002245219,-0.001174056,0.000000000,0.000000000,0.000000000,0.000000000,0.016878517,0.008913184,0.053783862,0.018563405,0.006538357,-0.000798001,0.006316269,0.000042698,0.001574588,-0.198224748,0.195089805,0.830775908,-0.001717444,-0.001714974,0.007246851,0.999969773,0.000000000,0.000000000,0.000000000,0.000000000,0.000000000,0.000000000,0.830816800,0.000000000,4.127859116
1772421674.249763250,0.016688000,0.008859000,0.053779000,-0.004102230,0.003451750,0.011393310,0.999920720,-0.008125000,0.006996000,0.022759000,0.000161500,-0.000347825,-0.000060800,-0.004725255,-0.009592165,0.001217390,0.008915377,-0.002718227,0.999774910,-0.001150781,0.001071046,-0.002648143,0.000000000,0.000000000,0.000000000,0.000000000,0.016879637,0.008912569,0.053783577,0.018565435,0.006496331,-0.000754941,0.005358088,0.000571039,0.000377191,-0.197741549,0.195586718,0.830437865,-0.001713201,-0.001719275,0.007243900,0.999969801,0.000000000,0.000000000,0.000000000,0.000000000,0.000000000,0.000000000,0.830483788,0.000000000,4.127859116
1772421674.259763241,0.016686000,0.008858000,0.053783000,-0.004176470,0.003402520,0.011407280,0.999920420,-0.008275000,0.006900000,0.022787000,0.000224553,-0.000358392,0.000096368,-0.005836142,-0.000653758,-0.001772524,0.008274257,-0.002751944,0.998429587,-0.001840248,0.002537676,-0.003449129,0.000000000,0.000000000,0.000000000,0.000000000,0.016877386,0.008914188,0.053780733,0.018577981,0.006367032,-0.000640442,0.005321397,0.001009188,-0.000869197,-0.198585910,0.195290541,0.829127199,-0.001720608,-0.001716724,0.007232455,0.999969867,0.000000000,0.000000000,0.000000000,0.000000000,0.000000000,0.000000000,0.829381014,0.000000000,4.127859116
1772421674.269763470,0.016686000,0.008846000,0.053799000,-0.004190260,0.003374190,0.011393410,0.999920620,-0.008303000,0.006843000,0.022759000,0.000037471,-0.000148563,0.000226904,-0.005083706,0.013672952,-0.001826190,0.008504687,-0.003428534,0.998890933,0.001156843,-0.000750737,-0.001647461,0.000000000,0.000000000,0.000000000,0.000000000,0.016874426,0.008914091,0.053778444,0.018514880,0.006310813,-0.000728465,0.005171108,0.000435527,-0.001218500,-0.198594109,0.195040242,0.827698987,-0.001720717,-0.001714519,0.007219996,0.999969963,0.000000000,0.000000000,0.000000000,0.000000000,0.000000000,0.000000000,0.827877713,0.000000000,4.127859116
1772421674.279764414,0.016708000,0.008836000,0.053801000,-0.004171590,0.003511980,0.011369860,0.999920490,-0.008263000,0.007118000,0.022711000,-0.000082848,0.000006896,0.000247203,-0.002999633,0.023399848,-0.000740561,0.009962639,-0.002486868,0.999368190,-0.002038775,0.001438109,-0.000191828,0.000000000,0.000000000,0.000000000,0.000000000,0.016868267,0.008915840,0.053776071,0.018441231,0.006203299,-0.000812011,0.005976396,0.000387892,-0.000660839,-0.197772320,0.194770312,0.826590144,-0.001713579,-0.001712095,0.007210335,0.999970060,0.000000000,0.000000000,0.000000000,0.000000000,0.000000000,0.000000000,0.826731054,0.000000000,4.127859116
1772421674.289765120,0.016693000,0.008847000,0.053802000,-0.004196080,0.003477120,0.011314170,0.999921140,-0.008313000,0.007049000,0.022600000,-0.000399942,0.000308819,-0.000004817,0.002479692,0.022684435,0.001598490,0.010584056,-0.003030232,1.002183221,-0.003247284,0.001581170,-0.000704834,0.000000000,0.000000000,0.000000000,0.000000000,0.016866975,0.008916028,0.053776258,0.018453032,0.006087698,-0.000852738,0.007261807,0.001167898,0.001367521,-0.197857566,0.193510375,0.825521274,-0.001714418,-0.001701090,0.007201026,0.999970125,0.000000000,0.000000000,0.000000000,0.000000000,0.000000000,0.000000000,0.825695119,0.000000000,4.127859116
1772421674.299766064,0.016681000,0.008861000,0.053789000,-0.004179180,0.003767900,0.011341190,0.999919850,-0.008273000,0.007630000,0.022652000,-0.000462452,0.000432110,-0.000281372,0.006586278,0.020156248,0.000284552,0.009502321,-0.001412395,1.001773468,0.003645574,-0.001250217,-0.002274010,0.000000000,0.000000000,0.000000000,0.000000000,0.016870227,0.008913187,0.053779098,0.018570061,0.005976660,-0.000715379,0.006186151,0.001385550,0.002653556,-0.197866616,0.193224072,0.824140263,-0.001714535,-0.001698571,0.007188980,0.999970234,0.000000000,0.000000000,0.000000000,0.000000000,0.000000000,0.000000000,0.824262329,0.000000000,4.127859116
1772421674.309766769,0.016679000,0.008858000,0.053791000,-0.004182930,0.004013460,0.011445270,0.999917700,-0.008274000,0.008122000,0.022858000,-0.000147999,0.000209033,-0.000229196,0.006765417,0.010733661,-0.002425646,0.008901134,-0.001835993,0.999585937,-0.000267425,0.001216439,-0.001081951,0.000000000,0.000000000,0.000000000,0.000000000,0.016870364,0.008910387,0.053784216,0.018636331,0.005941731,-0.000464889,0.005535162,0.002642501,0.000172511,-0.196476009,0.193157286,0.823338100,-0.001702416,-0.001697889,0.007182002,0.999970305,0.000000000,0.000000000,0.000000000,0.000000000,0.000000000,0.000000000,0.823348540,0.000000000,4.127859116
1772421674.319766760,0.016679000,0.008857000,0.053794000,-0.004106880,0.003790750,0.011405830,0.999919330,-0.008127000,0.007675000,0.022781000,0.000254682,-0.000124048,-0.000038112,0.005356395,-0.001151836,-0.000981856,0.009394273,-0.001701648,0.999134512,0.000296250,0.000465939,-0.000241810,0.000000000,0.000000000,0.000000000,0.000000000,0.016872151,0.008908419,0.053786949,0.018621245,0.005964024,-0.000379640,0.005437673,0.002180553,-0.001198788,-0.196307308,0.192034514,0.823160878,-0.001701017,-0.001688078,0.007180474,0.999970317,0.000000000,0.000000000,0.000000000,0.000000000,0.000000000,0.000000000,0.823219613,0.000000000,4.127859116
1772421674.329767466,0.016680000,0.008860000,0.053783000,-0.004039270,0.003810310,0.011345050,0.999920220,-0.007992000,0.007712000,0.022660000,0.000706586,-0.000403711,-0.000000369,0.001575188,-0.002371714,-0.000609673,0.007024403,-0.000270724,0.997881210,0.000427741,-0.000734160,-0.001356240,0.000000000,0.000000000,0.000000000,0.000000000,0.016873130,0.008908666,0.053784711,0.018601251,0.005984602,-0.000455309,0.004918714,0.002306689,-0.002062605,-0.196203179,0.191815988,0.822512864,-0.001700132,-0.001686155,0.007174824,0.999970363,0.000000000,0.000000000,0.000000000,0.000000000,0.000000000,0.000000000,0.822647728,0.000000000,4.127859116
1772421674.339767694,0.016700000,0.008845000,0.053799000,-0.004052830,0.003723610,0.011253050,0.999921540,-0.008022000,0.007538000,0.022477000,0.000397825,-0.000251049,-0.000109344,-0.001993972,0.001121627,-0.000683415,0.007998718,-0.000694494,0.998825073,-0.001414473,-0.002866950,0.000798209,0.000000000,0.000000000,0.000000000,0.000000000,0.016960030,0.008938211,0.053780030,0.018769126,0.006129854,-0.000612140,0.003742039,0.003481111,-0.001258984,-0.196027028,0.192370519,0.821294111,-0.001698578,-0.001690965,0.007164183,0.999970459,0.000000000,0.000000000,0.000000000,0.000000000,0.000000000,0.000000000,0.821429693,0.000000000,4.127859116
1772421674.349767923,0.016708000,0.008843000,0.053792000,-0.004137370,0.003800620,0.011331010,0.999920020,-0.008188000,0.007694000,0.022631000,0.000042716,0.000029759,-0.000273505,-0.004154221,0.011588998,0.000410595,0.008516933,-0.000202653,1.000046937,-0.001244923,0.000887018,0.003375144,0.000000000,0.000000000,0.000000000,0.000000000,0.017139651,0.008997529,0.053773512,0.019158673,0.006396663,-0.000768344,0.005482567,0.003110230,-0.000320768,-0.197144294,0.193399867,0.819948472,-0.001708283,-0.001699997,0.007152408,0.999970536,0.000000000,0.000000000,0.000000000,0.000000000,0.000000000,0.000000000,0.820085153,0.000000000,4.127859116
1772421674.359768391,0.016695000,0.008853000,0.053785000,-0.004148830,0.003850260,0.011468820,0.999918210,-0.008209000,0.007795000,0.022907000,-0.000154759,0.000133178,-0.000255148,-0.003146909,0.016224769,0.002260912,0.008199170,-0.001803558,1.000306626,-0.000223317,-0.000334063,0.000906188,0.000000000,0.000000000,0.000000000,0.000000000,0.017312536,0.009055759,0.053766487,0.019579411,0.006654414,-0.000811662,0.004799547,0.001660456,0.000586851,-0.196962207,0.193069029,0.818991838,-0.001706729,-0.001697085,0.007144068,0.999970586,0.000000000,0.000000000,0.000000000,0.000000000,0.000000000,0.000000000,0.819117829,0.000000000,4.127859116
1772421674.369768381,0.016689000,0.008852000,0.053781000,-0.004170600,0.004098600,0.011359160,0.999918390,-0.008248000,0.008291000,0.022685000,-0.000388520,0.000188986,-0.000041531,0.001563040,0.001024966,0.000213191,0.007895860,-0.003514179,1.000971852,0.001025871,0.000985396,-0.002086572,0.000000000,0.000000000,0.000000000,0.000000000,0.017413144,0.009090746,0.053762205,0.019597189,0.006749099,-0.000773658,0.004724196,-0.000002918,0.000731702,-0.196456353,0.193375353,0.817521523,-0.001702317,-0.001699705,0.007131240,0.999970636,0.000000000,0.000000000,0.000000000,0.000000000,0.000000000,0.000000000,0.817740310,0.000000000,4.127859116
1772421674.379769087,0.016677000,0.008859000,0.053780000,-0.004100330,0.004046130,0.011349960,0.999918990,-0.008109000,0.008185000,0.022668000,-0.000283819,0.000112452,0.000109480,0.006646364,-0.008526170,-0.002685015,0.009442446,-0.003711639,1.001204339,-0.000283038,0.000158287,-0.002618865,0.000000000,0.000000000,0.000000000,0.000000000,0.017104217,0.008991280,0.053773661,0.016631868,0.005664320,-0.000564707,0.004346797,-0.000224421,0.001350309,-0.190306478,0.209485030,0.818665203,-0.001647629,-0.001839918,0.007141079,0.999970567,0.000000000,0.000000000,0.000000000,0.000000000,0.000000000,0.000000000,0.818380706,0.000000000,4.127859116
1772421674.389769554,0.016693000,0.008854000,0.053788000,-0.004091700,0.003896920,0.011320210,0.999919960,-0.008095000,0.007886000,0.022609000,0.000031605,-0.000129954,0.000293726,0.006231985,-0.015859064,-0.003533589,0.010073309,-0.002713351,1.000055597,-0.001402819,0.000546833,-0.002209215,0.000000000,0.000000000,0.000000000,0.000000000,0.017227024,0.009032489,0.053770508,0.016780585,0.005513117,-0.000418246,0.007888955,-0.000071434,0.000573641,-0.184922609,0.226603088,0.821249318,-0.001599535,-0.001988997,0.007163471,0.999970240,0.000000000,0.000000000,0.000000000,0.000000000,0.000000000,0.000000000,0.820956423,0.000000000,4.127859116
1772421674.399770021,0.016694000,0.008850000,0.053791000,-0.004025540,0.003724530,0.011323640,0.999920850,-0.007966000,0.007540000,0.022618000,0.000268629,-0.000161286,0.000181352,0.002257607,-0.015938919,-0.001003908,0.008469250,-0.001344091,1.000151391,-0.000687814,0.003955818,-0.000905964,0.000000000,0.000000000,0.000000000,0.000000000,0.017040313,0.008969536,0.053780319,0.015342642,0.004882795,-0.000269938,0.004825038,0.001276316,0.000159411,-0.183954423,0.228624896,0.821262274,-0.001590960,-0.002006581,0.007163571,0.999970037,0.000000000,0.000000000,0.000000000,0.000000000,0.000000000,0.000000000,0.821370569,0.000000000,4.127859116
1772421674.409770489,0.016686000,0.008850000,0.053798000,-0.004023420,0.003547240,0.011321700,0.999921520,-0.007966000,0.007185000,0.022616000,0.000139996,0.000035023,0.000049864,-0.000872077,-0.013101940,0.002061836,0.008067404,0.000007340,1.000517451,-0.001476677,0.001289402,0.001163427,0.000000000,0.000000000,0.000000000,0.000000000,0.017150733,0.009003975,0.053779064,0.015644315,0.004917839,-0.000272014,0.004066793,0.002841980,0.000437574,-0.184404655,0.226884386,0.820568405,-0.001595010,-0.001991411,0.007157533,0.999970084,0.000000000,0.000000000,0.000000000,0.000000000,0.000000000,0.000000000,0.820644122,0.000000000,4.127859116
1772421674.419770479,0.016698000,0.008848000,0.053790000,-0.004051700,0.003799760,0.011355370,0.999920100,-0.008017000,0.007691000,0.022681000,0.000150933,-0.000048679,-0.000049359,-0.003168347,-0.003928155,-0.001795948,0.009287187,0.000152227,0.998829606,-0.001584967,0.000259136,0.000620192,0.000000000,0.000000000,0.000000000,0.000000000,0.017303253,0.009052633,0.053776796,0.016031257,0.005181210,-0.000201818,0.005258960,0.003261502,-0.000769870,-0.184720980,0.226046410,0.819882111,-0.001597834,-0.001984108,0.007151550,0.999970126,0.000000000,0.000000000,0.000000000,0.000000000,0.000000000,0.000000000,0.819996743,0.000000000,4.127859116
1772421674.429770708,0.016690000,0.008853000,0.053783000,-0.004129110,0.003751770,0.011376630,0.999919720,-0.008173000,0.007597000,0.022723000,0.000004215,-0.000020649,-0.000066900,-0.003106458,0.005085901,-0.001052028,0.011196329,-0.001866421,0.998865424,-0.000731546,-0.000939552,-0.000014553,0.000000000,0.000000000,0.000000000,0.000000000,0.017029909,0.008960378,0.053785081,0.014209196,0.004712902,-0.000174150,0.006409042,0.002081386,-0.001400939,-0.183603820,0.228797662,0.824049764,-0.001587837,-0.002008104,0.007187899,0.999969830,0.000000000,0.000000000,0.000000000,0.000000000,0.000000000,0.000000000,0.821634117,0.000000000,4.127859116
1772421674.439771175,0.016694000,0.008856000,0.053788000,-0.004100810,0.003700210,0.011307470,0.999920810,-0.008118000,0.007493000,0.022585000,0.000031002,-0.000044425,0.000060645,-0.001668301,0.006234615,-0.000785192,0.009251929,-0.003885086,1.000334040,-0.001793288,-0.003234327,-0.000701290,0.000000000,0.000000000,0.000000000,0.000000000,0.016774953,0.008870428,0.053792298,0.013622568,0.004555546,-0.000253859,0.006302340,0.000277692,-0.000220806,-0.181011421,0.237107009,0.839511366,-0.001564416,-0.002080664,0.007322753,0.999968685,0.000000000,0.000000000,0.000000000,0.000000000,0.000000000,0.000000000,0.838769809,0.000000000,4.127859116
1772421674.449770689,0.016691000,0.008853000,0.053794000,-0.004076680,0.003646030,0.011295750,0.999921240,-0.008071000,0.007384000,0.022563000,-0.000051438,-0.000022669,0.000160820,0.000453800,0.006247424,0.002885131,0.009711255,-0.002898298,1.001843615,-0.000328168,0.001722623,-0.000962205,0.000000000,0.000000000,0.000000000,0.000000000,0.016753490,0.008860805,0.053793265,0.014257822,0.004641553,-0.000312511,0.005549194,0.000261925,0.001195119,-0.181670010,0.235084265,0.843763347,-0.001570216,-0.002063113,0.007359874,0.999968519,0.000000000,0.000000000,0.000000000,0.000000000,0.000000000,0.000000000,0.843823163,0.000000000,4.127859116
1772421674.459770679,0.016702000,0.008839000,0.053794000,-0.004084710,0.003748360,0.011275550,0.999921060,-0.008085000,0.007588000,0.022521000,-0.000045921,0.000002292,0.000199806,0.000568150,-0.003302944,0.002563430,0.009574421,0.000031754,1.001929045,0.001800491,-0.001229851,-0.000559980,0.000000000,0.000000000,0.000000000,0.000000000,0.016802687,0.008879660,0.053788381,0.014751150,0.004642480,-0.000184637,0.006059860,0.002544340,0.001714500,-0.181217067,0.234022728,0.842943881,-0.001566346,-0.002053809,0.007352745,0.999968590,0.000000000,0.000000000,0.000000000,0.000000000,0.000000000,0.000000000,0.843083258,0.000000000,4.127859116
1772421674.469770670,0.016688000,0.008852000,0.053794000,-0.004090560,0.003863620,0.011421630,0.999918940,-0.008093000,0.007820000,0.022812000,0.000075253,0.000022824,-0.000023835,0.000451162,-0.007398561,-0.000105236,0.009406476,-0.001012921,1.001249626,0.000547479,0.000593717,0.001498428,0.000000000,0.000000000,0.000000000,0.000000000,0.016829527,0.008891692,0.053788734,0.015159099,0.004889193,0.000056107,0.005337843,0.002472328,0.000672656,-0.180243956,0.233457347,0.842612838,-0.001557897,-0.002048809,0.007349882,0.999968648,0.000000000,0.000000000,0.000000000,0.000000000,0.000000000,0.000000000,0.842553388,0.000000000,4.127859116
1772421674.479770899,0.016690000,0.008854000,0.053794000,-0.004070080,0.003690240,0.011364360,0.999920330,-0.008056000,0.007472000,0.022699000,0.000043162,0.000102117,-0.000228943,-0.000174666,-0.009345335,-0.003344369,0.010781762,-0.001866812,1.001119228,0.000911128,0.000951002,0.001404696,0.000000000,0.000000000,0.000000000,0.000000000,0.016834926,0.008894777,0.053791889,0.015370884,0.005066417,0.000188955,0.006404352,0.001254603,0.001460776,-0.178830179,0.233866269,0.842014192,-0.001545544,-0.002052279,0.007344678,0.999968679,0.000000000,0.000000000,0.000000000,0.000000000,0.000000000,0.000000000,0.842120919,0.000000000,4.127859116
1772421674.489771605,0.016695000,0.008854000,0.053791000,-0.004108600,0.003700860,0.011392720,0.999919810,-0.008133000,0.007495000,0.022756000,0.000226321,0.000010004,-0.000145571,0.000624220,-0.011870711,-0.007384836,0.008622949,-0.002985722,0.999000222,-0.000353309,0.001259644,0.002637010,0.000000000,0.000000000,0.000000000,0.000000000,0.016838158,0.008900731,0.053792408,0.015656890,0.005112421,0.000321437,0.005773868,0.000579627,-0.000063424,-0.178543793,0.232747480,0.841237023,-0.001543131,-0.002042487,0.007337917,0.999968789,0.000000000,0.000000000,0.000000000,0.000000000,0.000000000,0.000000000,0.841257178,0.000000000,4.127859116
1772421674.499772072,0.016702000,0.008850000,0.053788000,-0.004094870,0.003378470,0.011207940,0.999923100,-0.008114000,0.006848000,0.022389000,0.000234441,-0.000195222,0.000067366,0.003583357,-0.011894271,-0.005662053,0.005832552,-0.002906304,1.000570098,0.001773770,0.001710942,-0.000502097,0.000000000,0.000000000,0.000000000,0.000000000,0.016846322,0.008897908,0.053791368,0.015848977,0.005063324,0.000300748,0.002134940,-0.000486375,-0.000313906,-0.178486860,0.230959341,0.841354066,-0.001542746,-0.002026881,0.007338963,0.999968827,0.000000000,0.000000000,0.000000000,0.000000000,0.000000000,0.000000000,0.841518673,0.000000000,4.127859116
1772421674.509772301,0.016697000,0.008849000,0.053786000,-0.004044290,0.003523990,0.011204440,0.999922840,-0.008009000,0.007138000,0.022381000,0.000242153,-0.000371737,0.000071873,0.003015751,-0.001505368,-0.002172184,0.008081534,-0.002772554,1.000818829,-0.002180555,0.002109239,0.003261857,0.000000000,0.000000000,0.000000000,0.000000000,0.016853907,0.008891453,0.053792757,0.015762145,0.004926983,0.000282451,0.002810479,0.000331017,0.001460047,-0.177959967,0.229524038,0.839749807,-0.001538269,-0.002014300,0.007324993,0.999968915,0.000000000,0.000000000,0.000000000,0.000000000,0.000000000,0.000000000,0.839745778,0.000000000,4.127859116
1772421674.519772768,0.016701000,0.008846000,0.053792000,-0.004043050,0.003674910,0.011266920,0.999921600,-0.008003000,0.007440000,0.022505000,0.000091375,-0.000116667,0.000065326,0.000878678,0.004736292,0.006439496,0.009354503,-0.003601951,0.999688961,-0.002669455,0.001801825,-0.001682032,0.000000000,0.000000000,0.000000000,0.000000000,0.016858267,0.008891943,0.053791738,0.015670649,0.004826562,0.000352113,0.005094779,-0.000385674,-0.000124608,-0.178741728,0.228816931,0.839476451,-0.001545141,-0.002008176,0.007322604,0.999968946,0.000000000,0.000000000,0.000000000,0.000000000,0.000000000,0.000000000,0.839702560,0.000000000,4.127859116
1772421674.529772758,0.016707000,0.008839000,0.053799000,-0.004042970,0.003532890,0.011316690,0.999921550,-0.008006000,0.007157000,0.022606000,-0.000024786,-0.000023446,0.000022766,-0.000923400,0.007452317,0.009834639,0.008091617,-0.002755779,1.000373971,0.003620705,0.001171611,0.004181952,0.000000000,0.000000000,0.000000000,0.000000000,0.016857495,0.008894591,0.053792745,0.015735660,0.004710584,0.000365933,0.004835055,-0.000342418,0.000089811,-0.179498073,0.227875867,0.837866037,-0.001551829,-0.001999991,0.007308550,0.999969034,0.000000000,0.000000000,0.000000000,0.000000000,0.000000000,0.000000000,0.837841157,0.000000000,4.127859116
1772421674.539773464,0.016696000,0.008844000,0.053795000,-0.004003590,0.003602440,0.011423780,0.999920240,-0.007925000,0.007296000,0.022819000,-0.000198058,0.000128516,0.000058295,-0.001469049,0.010042753,0.011733415,0.009253717,-0.004084725,0.999433732,0.000007433,0.000541073,0.002645063,0.000000000,0.000000000,0.000000000,0.000000000,0.016918571,0.008914136,0.053796095,0.015943446,0.004644986,0.000362827,0.004875845,-0.000598835,0.000139357,-0.177964008,0.227729335,0.838083120,-0.001538448,-0.001998617,0.007310473,0.999969065,0.000000000,0.000000000,0.000000000,0.000000000,0.000000000,0.000000000,0.838051201,0.000000000,4.127859116
1772421674.549773216,0.016699000,0.008850000,0.053784000,-0.004121240,0.003735310,0.011388400,0.999919680,-0.008157000,0.007564000,0.022747000,-0.000350175,0.000346970,-0.000096329,-0.001422474,0.006941205,0.007622296,0.010937939,-0.004578531,0.998528278,-0.000936356,0.001760626,-0.000844601,0.000000000,0.000000000,0.000000000,0.000000000,0.016971759,0.008930744,0.053796107,0.016114455,0.004582496,0.000359692,0.006360313,-0.001150705,-0.001059275,-0.178471602,0.228126092,0.838345293,-0.001542847,-0.002002115,0.007312747,0.999969065,0.000000000,0.000000000,0.000000000,0.000000000,0.000000000,0.000000000,0.838304671,0.000000000,4.127859116
1772421674.559773207,0.016701000,0.008854000,0.053791000,-0.004095220,0.003604780,0.011465820,0.999919380,-0.008107000,0.007303000,0.022903000,-0.000300777,0.000243590,-0.000127176,0.000056544,0.009988415,0.004961092,0.011379759,-0.004409495,0.998258130,-0.000472280,0.002545377,-0.002060999,0.000000000,0.000000000,0.000000000,0.000000000,0.016845281,0.008897244,0.053789593,0.015912620,0.004343713,0.000275443,0.007712933,-0.001042533,-0.001019571,-0.178237094,0.227406105,0.837201853,-0.001540867,-0.001995802,0.007302782,0.999969074,0.000000000,0.000000000,0.000000000,0.000000000,0.000000000,0.000000000,0.837394709,0.000000000,4.127859116
1772421674.569772720,0.016690000,0.008845000,0.053792000,-0.004056100,0.003815840,0.011435500,0.999919110,-0.008025000,0.007724000,0.022841000,-0.000096387,-0.000066298,-0.000018124,-0.000700110,0.015207956,0.001917722,0.010631641,-0.004187291,0.998421359,-0.000734867,0.002082936,-0.000954299,0.000000000,0.000000000,0.000000000,0.000000000,0.016846544,0.008896789,0.053789548,0.015973298,0.004304927,0.000248507,0.006979862,-0.000655134,-0.000957460,-0.178173114,0.227062122,0.836878482,-0.001540336,-0.001992792,0.007299966,0.999969095,0.000000000,0.000000000,0.000000000,0.000000000,0.000000000,0.000000000,0.836878694,0.000000000,4.127859116
1772421674.579772711,0.016686000,0.008856000,0.053796000,-0.004025860,0.003845180,0.011485360,0.999918540,-0.007963000,0.007782000,0.022941000,0.000308955,-0.000287257,0.000001709,-0.001726415,0.013294655,-0.000929693,0.009883488,-0.003965077,0.998584596,-0.000997466,0.001620473,0.000152454,0.000000000,0.000000000,0.000000000,0.000000000,0.016847808,0.008896334,0.053789502,0.016033980,0.004266139,0.000221569,0.006053236,-0.000241807,-0.000893267,-0.178201862,0.226892725,0.836876712,-0.001540598,-0.001991315,0.007299952,0.999969116,0.000000000,0.000000000,0.000000000,0.000000000,0.000000000,0.000000000,0.836876918,0.000000000,4.127859116
1772421674.589772701,0.016693000,0.008855000,0.053783000,-0.004094360,0.003893730,0.011474930,0.999918200,-0.008099000,0.007881000,0.022919000,0.000422164,-0.000273194,0.000038462,-0.002625212,0.009725238,-0.001980091,0.009135334,-0.003742862,0.998747834,-0.001260066,0.001158009,0.001259208,0.000000000,0.000000000,0.000000000,0.000000000,0.016849071,0.008895880,0.053789456,0.016094661,0.004227351,0.000194632,0.005126611,0.000171521,-0.000829075,-0.178230610,0.226723328,0.836874942,-0.001540860,-0.001989839,0.007299939,0.999969137,0.000000000,0.000000000,0.000000000,0.000000000,0.000000000,0.000000000,0.836875143,0.000000000,4.127859116
1772421674.599772215,0.016708000,0.008834000,0.053793000,-0.004099500,0.003922670,0.011449130,0.999918360,-0.008109000,0.007939000,0.022867000,0.000353147,-0.000117638,-0.000072261,-0.004995405,0.006143246,-0.003818775,0.008387217,-0.003520658,0.998911063,-0.001522653,0.000695568,0.002365908,0.000000000,0.000000000,0.000000000,0.000000000,0.016850335,0.008895425,0.053789410,0.016155340,0.004188565,0.000167696,0.004200029,0.000584828,-0.000764885,-0.178259358,0.226553940,0.836873173,-0.001541121,-0.001988362,0.007299925,0.999969158,0.000000000,0.000000000,0.000000000,0.000000000,0.000000000,0.000000000,0.836873367,0.000000000,4.127859116
1772421674.609771967,0.016705000,0.008839000,0.053790000,-0.004160370,0.004034400,0.011391240,0.999918320,-0.008229000,0.008163000,0.022750000,0.000025291,0.000090793,-0.000063675,-0.003480022,0.000152043,-0.005727578,0.007639081,-0.003298449,0.999074296,-0.001785246,0.000233116,0.003472635,0.000000000,0.000000000,0.000000000,0.000000000,0.016851598,0.008894970,0.053789364,0.016216020,0.004149778,0.000140759,0.003273426,0.000998145,-0.000700694,-0.178288105,0.226384547,0.836871403,-0.001541383,-0.001986886,0.007299912,0.999969179,0.000000000,0.000000000,0.000000000,0.000000000,0.000000000,0.000000000,0.836871592,0.000000000,4.127859116
1772421674.619771719,0.016712000,0.008850000,0.053786000,-0.004140320,0.003932360,0.011389830,0.999918830,-0.008191000,0.007958000,0.022748000,-0.000285198,0.000186616,-0.000089919,0.000732880,-0.002904096,-0.007153664,0.007012643,-0.000923418,1.000414640,-0.003156203,0.000638761,0.003304540,0.000000000,0.000000000,0.000000000,0.000000000,0.016854022,0.008893253,0.053790551,0.016239634,0.004076587,0.000083931,0.002785670,0.001127269,-0.000475834,-0.178415972,0.225912258,0.836774670,-0.001542530,-0.001982771,0.007299072,0.999969184,0.000000000,0.000000000,0.000000000,0.000000000,0.000000000,0.000000000,0.836821599,0.000000000,4.127859116
1772421674.629771233,0.016695000,0.008851000,0.053795000,-0.004129760,0.003857880,0.011383160,0.999919240,-0.008171000,0.007809000,0.022735000,-0.000424923,0.000386694,-0.000047650,0.003073001,-0.008591333,-0.005259118,0.007854578,-0.002594930,0.999514929,-0.000061403,-0.004464441,0.000746656,0.000000000,0.000000000,0.000000000,0.000000000,0.016996827,0.008928381,0.053791703,0.016482855,0.004221554,0.000059645,0.003539331,0.000806163,-0.000159016,-0.178006894,0.225609768,0.837024600,-0.001538976,-0.001980109,0.007301265,0.999969237,0.000000000,0.000000000,0.000000000,0.000000000,0.000000000,0.000000000,0.836889802,0.000000000,4.127859116
1772421674.639771223,0.016686000,0.008853000,0.053784000,-0.004103940,0.003915300,0.011346350,0.999919540,-0.008119000,0.007923000,0.022661000,-0.000303924,0.000267852,-0.000056080,0.003819888,-0.011476136,-0.003579260,0.009844420,-0.003442211,1.001333499,-0.000534334,-0.000558143,-0.002207284,0.000000000,0.000000000,0.000000000,0.000000000,0.016861485,0.008885878,0.053789406,0.016024454,0.004091305,-0.000029882,0.005587871,0.000061267,0.001335320,-0.176953168,0.226715427,0.836839812,-0.001529713,-0.001989688,0.007299655,0.999969198,0.000000000,0.000000000,0.000000000,0.000000000,0.000000000,0.000000000,0.837005681,0.000000000,4.127859116
1772421674.649770737,0.016688000,0.008854000,0.053785000,-0.004081560,0.003878340,0.011263860,0.999920710,-0.008075000,0.007848000,0.022497000,0.000094716,-0.000193027,0.000067774,0.003036331,-0.006607064,-0.002398046,0.008915602,-0.002845582,0.999424500,0.000002919,0.000292405,-0.000121858,0.000000000,0.000000000,0.000000000,0.000000000,0.016853889,0.008890066,0.053788040,0.016151852,0.003988435,0.000131155,0.004686283,-0.000930431,-0.000348905,-0.176177774,0.226672243,0.835585692,-0.001522971,-0.001989245,0.007288725,0.999969271,0.000000000,0.000000000,0.000000000,0.000000000,0.000000000,0.000000000,0.835697763,0.000000000,4.127859116
1772421674.659771204,0.016702000,0.008851000,0.053787000,-0.004057570,0.003732230,0.011328960,0.999920630,-0.008030000,0.007556000,0.022628000,0.000168609,-0.000284111,0.000070591,0.000732811,0.000262276,0.000617593,0.007734962,-0.000160803,0.999689909,0.000179505,0.000480900,-0.000049829,0.000000000,0.000000000,0.000000000,0.000000000,0.016856702,0.008889102,0.053787723,0.016236796,0.003860290,0.000102331,0.004148602,0.002544851,-0.000332207,-0.176130955,0.226811354,0.834946594,-0.001522565,-0.001990447,0.007283148,0.999969345,0.000000000,0.000000000,0.000000000,0.000000000,0.000000000,0.000000000,0.835023508,0.000000000,4.127859116
1772421674.669771194,0.016699000,0.008850000,0.053792000,-0.004105020,0.003742310,0.011340580,0.999920260,-0.008125000,0.007577000,0.022651000,0.000331372,-0.000089277,0.000004701,-0.000672894,-0.000975329,0.003436958,0.009022872,-0.000578785,1.000443197,-0.001875539,-0.001914189,0.000711730,0.000000000,0.000000000,0.000000000,0.000000000,0.016854930,0.008885455,0.053792828,0.016156723,0.004039465,0.000064844,0.004981950,0.002783684,0.000237003,-0.176221699,0.226854759,0.834357035,-0.001523365,-0.001990824,0.007278000,0.999969419,0.000000000,0.000000000,0.000000000,0.000000000,0.000000000,0.000000000,0.834358470,0.000000000,4.127859116
1772421674.679770708,0.016700000,0.008843000,0.053792000,-0.004064210,0.003816520,0.011333290,0.999920230,-0.008042000,0.007725000,0.022636000,0.000137976,-0.000028497,-0.000029332,-0.001566374,0.001382354,0.004817046,0.009944448,-0.002850075,0.998869446,-0.000829509,0.000148254,0.002461753,0.000000000,0.000000000,0.000000000,0.000000000,0.016850837,0.008890888,0.053795336,0.016163137,0.004251645,0.000095030,0.006256609,0.001319111,-0.000067812,-0.176832501,0.227885473,0.834561087,-0.001528625,-0.001999860,0.007279756,0.999969356,0.000000000,0.000000000,0.000000000,0.000000000,0.000000000,0.000000000,0.834516295,0.000000000,4.127859116
1772421674.689770460,0.016703000,0.008842000,0.053787000,-0.004113010,0.003938480,0.011356120,0.999919300,-0.008136000,0.007970000,0.022681000,-0.000036577,-0.000045280,-0.000054915,-0.002570271,0.004222254,0.004242053,0.008921694,-0.002452992,0.998930322,-0.000103807,0.002517812,-0.000390309,0.000000000,0.000000000,0.000000000,0.000000000,0.016848628,0.008893205,0.053788096,0.016317948,0.004279948,-0.000002879,0.005555135,-0.000603725,-0.001383338,-0.177047367,0.227134821,0.834388128,-0.001530551,-0.001993321,0.007278254,0.999969340,0.000000000,0.000000000,0.000000000,0.000000000,0.000000000,0.000000000,0.834450391,0.000000000,4.127859116
1772421674.699770212,0.016691000,0.008854000,0.053787000,-0.004096970,0.003813590,0.011430330,0.999919010,-0.008106000,0.007720000,0.022830000,-0.000154623,0.000063170,0.000110859,-0.001055919,0.002535487,0.002813995,0.009888044,-0.000770263,0.999897070,-0.000972673,-0.000638732,-0.000627766,0.000000000,0.000000000,0.000000000,0.000000000,0.016858992,0.008889929,0.053785705,0.016419936,0.004165810,-0.000149608,0.005331192,0.002817938,-0.000110240,-0.176124395,0.225177282,0.832917608,-0.001522647,-0.001976160,0.007265464,0.999969488,0.000000000,0.000000000,0.000000000,0.000000000,0.000000000,0.000000000,0.833114133,0.000000000,4.127859116
1772421674.709769249,0.016704000,0.008855000,0.053785000,-0.004107530,0.003737670,0.011384120,0.999919780,-0.008130000,0.007568000,0.022738000,-0.000282867,0.000139530,0.000124184,0.000948302,-0.000398481,0.003166199,0.010233788,-0.000212297,0.999606178,-0.000267938,-0.001458924,0.001377900,0.000000000,0.000000000,0.000000000,0.000000000,0.016862645,0.008883061,0.053787961,0.016560376,0.004280984,-0.000176497,0.006625344,0.002802096,-0.000333987,-0.176002557,0.224409456,0.831960583,-0.001521649,-0.001969440,0.007257125,0.999969590,0.000000000,0.000000000,0.000000000,0.000000000,0.000000000,0.000000000,0.832067117,0.000000000,4.127859116
1772421674.719768286,0.016696000,0.008843000,0.053789000,-0.004109780,0.003901310,0.011403230,0.999918920,-0.008130000,0.007896000,0.022775000,-0.000184790,0.000189685,0.000091686,0.001053169,-0.006061642,0.003323888,0.010563457,-0.000044690,1.000096537,-0.001228543,0.001874530,0.000118288,0.000000000,0.000000000,0.000000000,0.000000000,0.016862763,0.008882698,0.053792078,0.016745316,0.004478517,-0.000173245,0.006043655,0.003233732,-0.000164657,-0.175625723,0.223641816,0.830651531,-0.001518431,-0.001962700,0.007245718,0.999969602,0.000000000,0.000000000,0.000000000,0.000000000,0.000000000,0.000000000,0.830841709,0.000000000,4.127859116
1772421674.729768038,0.016695000,0.008845000,0.053800000,-0.004121330,0.003805930,0.011424160,0.999919010,-0.008155000,0.007705000,0.022818000,-0.000075563,0.000033061,-0.000064608,0.001721789,-0.007022600,0.000982804,0.009705480,-0.000609858,0.999706887,0.000575216,0.000422800,-0.000057388,0.000000000,0.000000000,0.000000000,0.000000000,0.016861023,0.008888525,0.053795568,0.016919224,0.004743838,-0.000160183,0.006707332,0.002967589,0.000470697,-0.177153304,0.222174647,0.829042444,-0.001531882,-0.001949972,0.007231670,0.999969732,0.000000000,0.000000000,0.000000000,0.000000000,0.000000000,0.000000000,0.829162644,0.000000000,4.127859116
1772421674.739767075,0.016688000,0.008857000,0.053795000,-0.004048840,0.003772270,0.011440580,0.999919240,-0.008011000,0.007637000,0.022851000,0.000198796,-0.000179565,-0.000154643,-0.000710366,-0.004937718,-0.002145383,0.008185702,-0.002038916,0.999659609,0.003130575,-0.002635319,0.000593775,0.000000000,0.000000000,0.000000000,0.000000000,0.016851908,0.008895138,0.053795088,0.017004344,0.004968773,-0.000145701,0.004749555,0.001176362,-0.000614381,-0.177464502,0.221943333,0.827664822,-0.001534636,-0.001947954,0.007219647,0.999969826,0.000000000,0.000000000,0.000000000,0.000000000,0.000000000,0.000000000,0.827820381,0.000000000,4.127859116
1772421674.749767065,0.016688000,0.008853000,0.053781000,-0.004080770,0.003756950,0.011425480,0.999919340,-0.008075000,0.007607000,0.022821000,0.000234868,-0.000242172,-0.000134926,-0.002348366,-0.009644318,-0.003583201,0.009078590,-0.002109877,1.000823828,0.002634920,-0.000461914,-0.001294980,0.000000000,0.000000000,0.000000000,0.000000000,0.016852831,0.008896649,0.053788098,0.017037007,0.004995392,-0.000210563,0.004202475,0.000846154,0.000731377,-0.175977309,0.222442027,0.827096538,-0.001521636,-0.001952205,0.007214706,0.999969900,0.000000000,0.000000000,0.000000000,0.000000000,0.000000000,0.000000000,0.827128228,0.000000000,4.127859116
1772421674.759767056,0.016710000,0.008849000,0.053784000,-0.004115900,0.003564560,0.011418290,0.999919980,-0.008150000,0.007223000,0.022808000,0.000436034,-0.000286286,0.000000408,-0.003533655,-0.012651604,-0.008323888,0.010683993,-0.000394140,0.999728743,0.003181429,-0.001271828,-0.002378149,0.000000000,0.000000000,0.000000000,0.000000000,0.016856902,0.008897639,0.053786097,0.017007071,0.004954039,-0.000154782,0.006425858,0.002186751,0.000611696,-0.174845782,0.222293251,0.825523346,-0.001511798,-0.001950815,0.007201000,0.999969979,0.000000000,0.000000000,0.000000000,0.000000000,0.000000000,0.000000000,0.825686977,0.000000000,4.127859116
1772421674.769766808,0.016700000,0.008838000,0.053786000,-0.004128820,0.003689390,0.011316620,0.999920630,-0.008174000,0.007472000,0.022604000,0.000127933,-0.000259926,0.000289006,-0.001889635,-0.010588901,-0.007644781,0.007437322,-0.001559879,0.998264224,-0.000121662,0.004201730,0.000881220,0.000000000,0.000000000,0.000000000,0.000000000,0.016930466,0.008920393,0.053786690,0.017342721,0.005072553,-0.000109577,0.004858051,0.002246258,-0.001429399,-0.173773197,0.222058204,0.824158133,-0.001502476,-0.001948678,0.007189108,0.999970091,0.000000000,0.000000000,0.000000000,0.000000000,0.000000000,0.000000000,0.824484752,0.000000000,4.127859116
1772421674.779766321,0.016709000,0.008835000,0.053796000,-0.004163200,0.003636260,0.011293190,0.999920950,-0.008244000,0.007366000,0.022557000,-0.000297630,-0.000040171,0.000421174,0.000395151,-0.006714709,-0.003932760,0.007588184,-0.002712380,0.997894394,-0.000250337,0.002954458,0.001613543,0.000000000,0.000000000,0.000000000,0.000000000,0.017111147,0.008973621,0.053784986,0.017843949,0.005292011,-0.000223181,0.002494681,0.000704586,-0.002171690,-0.174230805,0.219744839,0.823846979,-0.001506620,-0.001928516,0.007186416,0.999970179,0.000000000,0.000000000,0.000000000,0.000000000,0.000000000,0.000000000,0.823903729,0.000000000,4.127859116
1772421674.789765596,0.016696000,0.008842000,0.053797000,-0.004129120,0.003491200,0.011310690,0.999921410,-0.008179000,0.007075000,0.022593000,-0.000524476,0.000227642,0.000171037,0.002173498,0.003298745,0.000459817,0.008554355,-0.003330390,0.997481351,0.001325675,0.001342779,-0.000225317,0.000000000,0.000000000,0.000000000,0.000000000,0.017350558,0.009044426,0.053780430,0.018269914,0.005366942,-0.000473685,0.004783136,-0.000181422,-0.002502674,-0.174226713,0.218956102,0.822689816,-0.001506653,-0.001921617,0.007176329,0.999970260,0.000000000,0.000000000,0.000000000,0.000000000,0.000000000,0.000000000,0.822881686,0.000000000,4.127859116
1772421674.799765110,0.016696000,0.008849000,0.053800000,-0.004098410,0.003532660,0.011264210,0.999921920,-0.008117000,0.007157000,0.022500000,-0.000545552,0.000337996,-0.000236364,0.002103062,0.012960903,0.004899634,0.008637464,-0.000876526,0.998048359,0.000227923,0.002650423,0.001792771,0.000000000,0.000000000,0.000000000,0.000000000,0.017493936,0.009084441,0.053775730,0.018204106,0.005145181,-0.000765705,0.005243850,0.001708843,-0.002829281,-0.174356749,0.217823394,0.821124804,-0.001507885,-0.001911720,0.007162685,0.999970362,0.000000000,0.000000000,0.000000000,0.000000000,0.000000000,0.000000000,0.821236460,0.000000000,4.127859116
1772421674.809764862,0.016678000,0.008853000,0.053797000,-0.004056040,0.003615390,0.011400710,0.999920250,-0.008029000,0.007323000,0.022773000,-0.000227525,0.000366939,-0.000286830,0.001135218,0.019313796,0.009766303,0.008792718,-0.001166037,0.999318995,-0.000247991,-0.000333297,-0.001223703,0.000000000,0.000000000,0.000000000,0.000000000,0.016862864,0.008893190,0.053790450,0.014004495,0.003983524,-0.000861423,0.003910203,0.002854835,-0.000307829,-0.166202061,0.248986149,0.828370431,-0.001434637,-0.002183240,0.007225650,0.999969456,0.000000000,0.000000000,0.000000000,0.000000000,0.000000000,0.000000000,0.827319062,0.000000000,4.127859116
1772421674.819765091,0.016684000,0.008849000,0.053784000,-0.004107180,0.003827840,0.011403110,0.999919220,-0.008127000,0.007749000,0.022776000,0.000122319,0.000047922,-0.000150194,0.000530780,0.016275045,0.008891038,0.009599133,-0.003333974,0.998077415,0.003948958,-0.002881307,-0.002408159,0.000000000,0.000000000,0.000000000,0.000000000,0.016810209,0.008882530,0.053785916,0.014386877,0.004260280,-0.000964966,0.005231425,0.000205097,-0.001598172,-0.168706585,0.244287570,0.837118424,-0.001456625,-0.002142508,0.007302001,0.999969005,0.000000000,0.000000000,0.000000000,0.000000000,0.000000000,0.000000000,0.837280137,0.000000000,4.127859116
1772421674.829766035,0.016697000,0.008848000,0.053783000,-0.004144800,0.003937420,0.011414450,0.999918510,-0.008199000,0.007969000,0.022797000,0.000411073,-0.000196251,0.000160898,0.000274376,0.007926000,0.006280992,0.008966475,-0.003688767,0.998720155,0.000082846,-0.002253416,0.001021207,0.000000000,0.000000000,0.000000000,0.000000000,0.016823881,0.008893542,0.053782939,0.014666540,0.004179591,-0.001114514,0.004045808,-0.001023686,-0.001646874,-0.167180425,0.246091446,0.835542863,-0.001443222,-0.002158132,0.007288258,0.999969065,0.000000000,0.000000000,0.000000000,0.000000000,0.000000000,0.000000000,0.835682286,0.000000000,4.127859116
1772421674.839766502,0.016691000,0.008852000,0.053790000,-0.004093580,0.003904440,0.011477620,0.999918130,-0.008097000,0.007902000,0.022924000,0.000267269,-0.000152506,0.000158877,0.000565924,-0.000258516,0.001735726,0.008662838,-0.003348320,1.000036479,0.000836777,-0.001607070,0.000854118,0.000000000,0.000000000,0.000000000,0.000000000,0.016825468,0.008898666,0.053779050,0.014760789,0.003990204,-0.001214493,0.004353734,-0.000617179,-0.000134562,-0.167957188,0.247146253,0.835485646,-0.001449934,-0.002167385,0.007287730,0.999969133,0.000000000,0.000000000,0.000000000,0.000000000,0.000000000,0.000000000,0.835562357,0.000000000,4.127859116
1772421674.849766493,0.016698000,0.008850000,0.053802000,-0.004090590,0.003857910,0.011515070,0.999917890,-0.008092000,0.007809000,0.022999000,0.000163714,-0.000104837,0.000037840,0.000688450,-0.003046846,-0.002288165,0.010960512,-0.003300159,1.000284441,-0.003875531,0.002206590,-0.002464091,0.000000000,0.000000000,0.000000000,0.000000000,0.016832084,0.008894705,0.053775818,0.014868668,0.003843936,-0.001173752,0.005141165,-0.000110638,0.000365906,-0.166273500,0.248003120,0.833224872,-0.001435230,-0.002174727,0.007268023,0.999969229,0.000000000,0.000000000,0.000000000,0.000000000,0.000000000,0.000000000,0.833270898,0.000000000,4.127859116
1772421674.859766245,0.016705000,0.008838000,0.053799000,-0.004071450,0.003583190,0.011420040,0.999920080,-0.008061000,0.007259000,0.022812000,-0.000141939,-0.000064297,-0.000117152,-0.000303888,-0.007141821,-0.000762210,0.009825335,-0.001229215,0.998512777,-0.003312254,0.000673149,-0.002337868,0.000000000,0.000000000,0.000000000,0.000000000,0.016838399,0.008886202,0.053776611,0.015101305,0.003730371,-0.001094239,0.005747975,0.001047553,-0.000620722,-0.165973961,0.247629896,0.832452773,-0.001432654,-0.002171442,0.007261296,0.999969299,0.000000000,0.000000000,0.000000000,0.000000000,0.000000000,0.000000000,0.832604862,0.000000000,4.127859116
1772421674.869766235,0.016689000,0.008847000,0.053793000,-0.004082590,0.003828830,0.011417860,0.999919150,-0.008077000,0.007750000,0.022805000,-0.000056877,-0.000049184,-0.000210334,-0.002752730,-0.012862096,-0.001854721,0.010012575,-0.000358008,0.998626361,0.003327946,0.000109548,-0.000717441,0.000000000,0.000000000,0.000000000,0.000000000,0.016845475,0.008880398,0.053783823,0.015308408,0.003786341,-0.001099935,0.005673632,0.002381757,-0.001068411,-0.167324529,0.245954809,0.830887955,-0.001444575,-0.002156890,0.007247636,0.999969428,0.000000000,0.000000000,0.000000000,0.000000000,0.000000000,0.000000000,0.831089514,0.000000000,4.127859116
1772421674.879766703,0.016688000,0.008852000,0.053777000,-0.004132200,0.003856450,0.011403860,0.999919000,-0.008176000,0.007807000,0.022777000,0.000090288,0.000046542,-0.000182731,-0.005466207,-0.015825422,-0.003585893,0.008223578,-0.000767857,0.998589968,-0.000878459,-0.002464656,0.000792663,0.000000000,0.000000000,0.000000000,0.000000000,0.016843288,0.008887704,0.053784831,0.015506107,0.004001128,-0.001181347,0.003704731,0.002082538,-0.001785428,-0.167447549,0.245125067,0.829438021,-0.001445729,-0.002149639,0.007234992,0.999969499,0.000000000,0.000000000,0.000000000,0.000000000,0.000000000,0.000000000,0.829548091,0.000000000,4.127859116
1772421674.889766693,0.016698000,0.008844000,0.053784000,-0.004145310,0.003719380,0.011456810,0.999918860,-0.008205000,0.007533000,0.022884000,-0.000172961,0.000326535,0.000025855,-0.003621425,-0.012033681,-0.001110239,0.009111698,0.000202620,1.000408846,-0.000388989,-0.002919953,0.001609022,0.000000000,0.000000000,0.000000000,0.000000000,0.016838730,0.008895303,0.053778649,0.015443519,0.004124166,-0.001338404,0.005056473,0.003035825,0.000278594,-0.167110737,0.244467088,0.828492664,-0.001442849,-0.002143864,0.007226757,0.999969566,0.000000000,0.000000000,0.000000000,0.000000000,0.000000000,0.000000000,0.828585706,0.000000000,4.127859116
1772421674.899767637,0.016695000,0.008848000,0.053794000,-0.004165440,0.003447790,0.011464890,0.999919660,-0.008251000,0.006991000,0.022902000,-0.000116045,0.000407751,0.000172553,-0.000727821,-0.006741574,0.001130700,0.009108554,-0.001231204,1.000668184,0.002031952,0.001359553,0.001698242,0.000000000,0.000000000,0.000000000,0.000000000,0.016839746,0.008894454,0.053773136,0.015514693,0.004366953,-0.001240603,0.005339268,0.003147992,0.000111558,-0.168011190,0.245272166,0.827742007,-0.001450670,-0.002150936,0.007220179,0.999969602,0.000000000,0.000000000,0.000000000,0.000000000,0.000000000,0.000000000,0.827815192,0.000000000,4.127859116
1772421674.909768105,0.016701000,0.008853000,0.053798000,-0.004151590,0.003360410,0.011379590,0.999920990,-0.008226000,0.006815000,0.022732000,-0.000155051,0.000337879,0.000121640,0.001680314,-0.004278704,0.001766813,0.008869723,-0.004316883,0.999949401,-0.002145353,0.000334642,-0.001038781,0.000000000,0.000000000,0.000000000,0.000000000,0.016848725,0.008888733,0.053773569,0.015631734,0.004465080,-0.001121866,0.003430741,-0.000598491,0.000942590,-0.166744082,0.245657243,0.827633880,-0.001439590,-0.002154216,0.007219255,0.999969639,0.000000000,0.000000000,0.000000000,0.000000000,0.000000000,0.000000000,0.827646496,0.000000000,4.127859116
1772421674.919769049,0.016688000,0.008859000,0.053790000,-0.004168780,0.003596750,0.011386440,0.999920010,-0.008255000,0.007288000,0.022744000,-0.000228613,0.000170610,-0.000118046,0.001708724,0.010296496,0.004249621,0.009935067,-0.002972569,0.999193771,-0.004950384,-0.001292504,0.001940107,0.000000000,0.000000000,0.000000000,0.000000000,0.016853144,0.008883652,0.053779199,0.015646107,0.004242048,-0.001011588,0.005637131,-0.000953268,-0.000933134,-0.166808246,0.245059585,0.826873200,-0.001440202,-0.002148995,0.007212624,0.999969709,0.000000000,0.000000000,0.000000000,0.000000000,0.000000000,0.000000000,0.827107061,0.000000000,4.127859116
1772421674.929769516,0.016676000,0.008866000,0.053790000,-0.004091480,0.003782970,0.011498700,0.999918360,-0.008096000,0.007660000,0.022967000,0.000017988,-0.000208198,-0.000190074,-0.000354630,0.016796890,0.005664346,0.009843964,-0.001956175,0.997256423,-0.001150502,-0.001991961,-0.000250225,0.000000000,0.000000000,0.000000000,0.000000000,0.016850486,0.008884210,0.053784921,0.015756626,0.004079420,-0.001042279,0.005789486,0.001055563,-0.001817107,-0.168236643,0.244612121,0.825538236,-0.001452720,-0.002145163,0.007200953,0.999969721,0.000000000,0.000000000,0.000000000,0.000000000,0.000000000,0.000000000,0.825544467,0.000000000,4.127859116
1772421674.939769506,0.016696000,0.008855000,0.053783000,-0.004116320,0.003702810,0.011487860,0.999918680,-0.008147000,0.007500000,0.022946000,0.000291065,-0.000494872,0.000029040,-0.000990513,0.009750633,0.003406953,0.010733387,-0.001044336,1.000339701,-0.000556250,0.000769672,-0.000677725,0.000000000,0.000000000,0.000000000,0.000000000,0.016980778,0.008919865,0.053776741,0.016264337,0.004165045,-0.001254396,0.005953879,0.001624856,-0.000087374,-0.169685850,0.244667662,0.824732830,-0.001465378,-0.002145728,0.007193897,0.999969732,0.000000000,0.000000000,0.000000000,0.000000000,0.000000000,0.000000000,0.824932647,0.000000000,4.127859116
1772421674.949769258,0.016689000,0.008851000,0.053787000,-0.004162380,0.003682890,0.011519860,0.999918200,-0.008240000,0.007461000,0.023010000,0.000268629,-0.000361888,0.000236014,-0.000362959,-0.001841116,-0.001921044,0.010378708,-0.000472092,1.000380023,-0.003284638,0.002380970,0.001826738,0.000000000,0.000000000,0.000000000,0.000000000,0.016839911,0.008892520,0.053782053,0.016095157,0.004200752,-0.001125589,0.006140384,0.002792379,0.000982588,-0.170339391,0.244888574,0.823849022,-0.001471084,-0.002147686,0.007186169,0.999969840,0.000000000,0.000000000,0.000000000,0.000000000,0.000000000,0.000000000,0.823849022,0.000000000,4.127859116
1772421674.959769249,0.016702000,0.008837000,0.053789000,-0.004183370,0.003786120,0.011509170,0.999917850,-0.008279000,0.007668000,0.022987000,0.000065307,-0.000021795,0.000209790,-0.000673029,-0.005345566,-0.008677245,0.011349241,-0.001494660,0.998674171,-0.002117451,0.005343241,0.000169355,0.000000000,0.000000000,0.000000000,0.000000000,0.016846990,0.008890695,0.053775038,0.016299364,0.004376487,-0.001027596,0.006663811,0.001643720,-0.001089664,-0.169810795,0.244982659,0.823391371,-0.001466474,-0.002148468,0.007182184,0.999969840,0.000000000,0.000000000,0.000000000,0.000000000,0.000000000,0.000000000,0.823455457,0.000000000,4.127859116
1772421674.969769001,0.016703000,0.008840000,0.053804000,-0.004159190,0.003653150,0.011428530,0.999919370,-0.008235000,0.007401000,0.022827000,-0.000158469,0.000188656,-0.000051962,0.001413014,0.000497519,-0.010626161,0.009765654,-0.003075259,1.000861452,-0.000718553,0.001893035,-0.002306646,0.000000000,0.000000000,0.000000000,0.000000000,0.016855143,0.008888066,0.053775246,0.016501068,0.004433420,-0.001047086,0.006457395,0.000668316,0.000055927,-0.171207216,0.243594071,0.822522569,-0.001478763,-0.002136427,0.007174594,0.999969966,0.000000000,0.000000000,0.000000000,0.000000000,0.000000000,0.000000000,0.822587512,0.000000000,4.127859116
1772421674.979769707,0.016690000,0.008857000,0.053795000,-0.004098770,0.003594160,0.011309740,0.999921180,-0.008116000,0.007281000,0.022591000,-0.000245338,0.000306799,-0.000243920,0.004712721,0.005839814,-0.006384257,0.008971769,-0.003390355,1.000684161,-0.001003763,-0.000489210,-0.000923529,0.000000000,0.000000000,0.000000000,0.000000000,0.016858040,0.008889017,0.053776404,0.016594555,0.004430457,-0.001049318,0.005845722,0.000468131,0.000374660,-0.171040667,0.242949924,0.821997600,-0.001477359,-0.002130789,0.007170025,0.999970052,0.000000000,0.000000000,0.000000000,0.000000000,0.000000000,0.000000000,0.822048263,0.000000000,4.127859116
1772421674.989769697,0.016683000,0.008863000,0.053786000,-0.004094360,0.003763950,0.011329040,0.999920360,-0.008103000,0.007620000,0.022628000,0.000129274,-0.000049650,-0.000338656,0.005207864,0.008195684,-0.001353107,0.008599055,-0.003439165,0.999705524,-0.000918376,-0.002318380,0.001480787,0.000000000,0.000000000,0.000000000,0.000000000,0.016860936,0.008889969,0.053777562,0.016688035,0.004427494,-0.001051549,0.005234093,0.000267961,0.000693370,-0.170874130,0.242305824,0.821472670,-0.001475956,-0.002125151,0.007165457,0.999970096,0.000000000,0.000000000,0.000000000,0.000000000,0.000000000,0.000000000,0.821521562,0.000000000,4.127859116
1772421674.999769688,0.016686000,0.008855000,0.053780000,-0.004134960,0.003862200,0.011346750,0.999919620,-0.008182000,0.007818000,0.022662000,0.000269950,-0.000310101,-0.000122281,0.003878393,0.011080335,0.003164018,0.008263042,-0.003255339,0.998657236,-0.001071091,-0.003061566,0.003288752,0.000000000,0.000000000,0.000000000,0.000000000,0.016865053,0.008887534,0.053784004,0.016747642,0.004332532,-0.000905083,0.004433668,-0.000456127,-0.000589577,-0.171150350,0.241191444,0.820519648,-0.001478454,-0.002115431,0.007157150,0.999970136,0.000000000,0.000000000,0.000000000,0.000000000,0.000000000,0.000000000,0.820687916,0.000000000,4.127859116
