t,px,py,pz,qx,qy,qz,qw,roll,pitch,yaw,vx,vy,vz,wx_vicon,wy_vicon,wz_vicon,imu_acc_x,imu_acc_y,imu_acc_z,imu_gyro_x,imu_gyro_y,imu_gyro_z,motor_motor_m1,motor_motor_m2,motor_motor_m3,motor_motor_m4,est_stateEstimate_x,est_stateEstimate_y,est_stateEstimate_z,est_stateEstimate_vx,est_stateEstimate_vy,est_stateEstimate_vz,est_stateEstimate_ax,est_stateEstimate_ay,est_stateEstimate_az,att_stateEstimate_roll,att_stateEstimate_pitch,att_stateEstimate_yaw,att_stateEstimate_qx,att_stateEstimate_qy,att_stateEstimate_qz,att_stateEstimate_qw,sp_ctrltarget_x,sp_ctrltarget_y,sp_ctrltarget_z,sp_ctrltarget_yaw,pid_controller_roll,pid_controller_pitch,pid_controller_yaw,pid_controller_cmd_thrust,pwr_pm_vbat
1772682920.808781862,0.013895000,0.006726000,0.054060000,-0.002414180,0.002889550,0.019917050,0.999794550,-0.004712000,0.005874000,0.039823000,-0.000979915,0.001645242,0.002958006,0.006158320,-0.122674537,-0.043087049,0.010668328,-0.003384186,0.999576364,0.000061818,-0.000461530,0.000972430,0.000000000,0.000000000,0.000000000,0.000000000,0.014086954,0.006764687,0.054029027,0.011729117,0.001509039,-0.000421387,0.004328708,0.000233339,-0.000290721,-0.169908731,0.323695560,1.756266377,-0.001439260,-0.002847165,0.015321435,0.999876797,0.000000000,0.000000000,0.000000000,0.000000000,0.000000000,0.000000000,1.754901338,0.000000000,4.170087814
1772682920.818781614,0.013891000,0.006726000,0.054067000,-0.002413030,0.003036560,0.019662300,0.999799160,-0.004706000,0.006167000,0.039313000,-0.001192153,0.001041512,0.000731663,-0.007415319,-0.051659027,-0.005263073,0.010601064,-0.003093818,0.998041167,-0.000277916,-0.001839389,0.002881484,0.000000000,0.000000000,0.000000000,0.000000000,0.014103023,0.006760449,0.054039276,0.011902815,0.001466966,-0.000407263,0.004920772,0.000255250,-0.001293514,-0.169659154,0.323127356,1.754351072,-0.001437206,-0.002842150,0.015304737,0.999876996,0.000000000,0.000000000,0.000000000,0.000000000,0.000000000,0.000000000,1.753109478,0.000000000,4.170087814
1772682920.828781128,0.013891000,0.006721000,0.054064000,-0.002506420,0.003096230,0.019627070,0.999799430,-0.004890000,0.006290000,0.039242000,-0.001211617,0.000776827,-0.000366473,-0.012038536,-0.026343148,0.018044196,0.010467876,-0.002158187,0.999399537,0.000248812,-0.001386029,-0.000470489,0.000000000,0.000000000,0.000000000,0.000000000,0.014115748,0.006756913,0.054050384,0.012120943,0.001448803,-0.000481374,0.003296667,0.001948798,0.000535443,-0.169392085,0.323335266,1.752592361,-0.001434891,-0.002843906,0.015289395,0.999877227,0.000000000,0.000000000,0.000000000,0.000000000,0.000000000,0.000000000,1.751525823,0.000000000,4.170087814
1772682920.838780880,0.013827000,0.006799000,0.054099000,-0.002491490,0.001278000,0.020195300,0.999792130,-0.004930000,0.002656000,0.040387000,-0.001071874,0.000723214,-0.000632907,-0.010052195,-0.031791413,0.029398358,0.010371130,-0.001286261,1.000684149,0.000779207,-0.001024875,-0.003553738,0.000000000,0.000000000,0.000000000,0.000000000,0.014120460,0.006753646,0.054052659,0.012140071,0.001568215,-0.000418337,0.004077436,0.001246838,0.001098268,-0.169017671,0.324126350,1.750729959,-0.001431565,-0.002850736,0.015273143,0.999877468,0.000000000,0.000000000,0.000000000,0.000000000,0.000000000,0.000000000,1.749511131,0.000000000,4.170087814
1772682920.848781109,0.013869000,0.006746000,0.054055000,-0.002533280,0.002015410,0.020091410,0.999792910,-0.004985000,0.004132000,0.040175000,-0.000806489,0.000752701,-0.000364142,-0.003966016,-0.053093131,0.031282973,0.010953941,-0.001602562,1.000592952,0.001377752,-0.002383183,-0.001625080,0.000000000,0.000000000,0.000000000,0.000000000,0.014090643,0.006792369,0.054073154,0.012069559,0.001790648,-0.000226968,0.003368856,-0.000788139,0.000893307,-0.168271189,0.324531094,1.749031831,-0.001425040,-0.002854147,0.015258339,0.999877642,0.000000000,0.000000000,0.000000000,0.000000000,0.000000000,0.000000000,1.748216065,0.000000000,4.170087814
1772682920.858781099,0.013864000,0.006729000,0.054043000,-0.002556940,0.002593510,0.020008910,0.999793170,-0.005009000,0.005288000,0.040008000,-0.000449029,0.000737316,0.000143318,0.003868746,-0.075311496,0.026279077,0.011536738,-0.001918855,1.000501757,0.001976282,-0.003741458,0.000303533,0.000000000,0.000000000,0.000000000,0.000000000,0.014096029,0.006783555,0.054059817,0.012083307,0.001620419,-0.000177169,0.004908652,0.000776507,0.000339567,-0.167820023,0.323981755,1.747481753,-0.001421215,-0.002849274,0.015244832,0.999877922,0.000000000,0.000000000,0.000000000,0.000000000,0.000000000,0.000000000,1.746402532,0.000000000,4.170087814
1772682920.868780613,0.013823000,0.006807000,0.054085000,-0.002472560,0.001130680,0.020496590,0.999786230,-0.004898000,0.002362000,0.040990000,0.000350525,-0.000273407,-0.000041822,0.010178400,-0.033222107,0.009804163,0.011875646,-0.001469537,1.000381048,0.001656584,-0.003697330,0.001840552,0.000000000,0.000000000,0.000000000,0.000000000,0.014092455,0.006781494,0.054054593,0.012237647,0.001634483,-0.000145349,0.007043764,0.001118143,-0.000173799,-0.167147187,0.324823985,1.745256425,-0.001415287,-0.002856506,0.015225421,0.999878165,0.000000000,0.000000000,0.000000000,0.000000000,0.000000000,0.000000000,1.744589085,0.000000000,4.170087814
1772682920.878780842,0.013871000,0.006748000,0.054057000,-0.002515400,0.001695050,0.020128390,0.999792800,-0.004962000,0.003491000,0.040251000,0.000798777,-0.000726496,-0.000077001,0.011609741,0.002399878,0.000790384,0.011869798,0.000062237,1.000218596,0.000038682,-0.001670527,0.002824164,0.000000000,0.000000000,0.000000000,0.000000000,0.014082201,0.006804757,0.054065914,0.012494724,0.001796947,-0.000105707,0.006987818,0.002269400,-0.000541905,-0.166429723,0.326404990,1.743702531,-0.001408856,-0.002870187,0.015211861,0.999878350,0.000000000,0.000000000,0.000000000,0.000000000,0.000000000,0.000000000,1.742858684,0.000000000,4.170087814
1772682920.888780117,0.013828000,0.006795000,0.054098000,-0.002277780,0.000193920,0.020523690,0.999786750,-0.004547000,0.000481000,0.041049000,0.000002059,-0.000017890,0.000279565,0.008218309,-0.008440553,0.008665643,0.010969687,0.000654591,1.000280008,0.000579210,0.001765540,0.002096461,0.000000000,0.000000000,0.000000000,0.000000000,0.014094596,0.006799043,0.054064064,0.012808403,0.001951600,-0.000149836,0.005367286,0.004300170,0.000530301,-0.166042709,0.326593100,1.742291419,-0.001405489,-0.002871760,0.015199554,0.999878530,0.000000000,0.000000000,0.000000000,0.000000000,0.000000000,0.000000000,1.741363551,0.000000000,4.170087814
1772682920.898779631,0.013877000,0.006745000,0.054061000,-0.002306940,0.001306030,0.020380300,0.999788790,-0.004560000,0.002706000,0.040757000,-0.000486578,0.000410004,0.000273990,0.000807280,-0.028192289,0.018399184,0.009543691,-0.001146572,1.000829662,0.001663360,0.005014773,0.000573058,0.000000000,0.000000000,0.000000000,0.000000000,0.014091498,0.006812367,0.054076487,0.012879729,0.002337802,-0.000040282,0.003281986,0.002431277,0.000452086,-0.165767374,0.327259969,1.740761908,-0.001403037,-0.002877523,0.015186207,0.999878772,0.000000000,0.000000000,0.000000000,0.000000000,0.000000000,0.000000000,1.739963231,0.000000000,4.170087814
1772682920.908779144,0.013875000,0.006724000,0.054049000,-0.002351960,0.002321180,0.020228470,0.999789920,-0.004609000,0.004737000,0.040449000,-0.000452759,0.000141278,-0.000076088,-0.005530290,-0.022322403,0.017383711,0.010030014,-0.002050982,1.000832513,-0.002239790,0.001757080,0.002249644,0.000000000,0.000000000,0.000000000,0.000000000,0.014109398,0.006797245,0.054065662,0.012910955,0.002407559,-0.000029985,0.004198502,-0.000354590,0.000883171,-0.165830121,0.324742361,1.739406977,-0.001403952,-0.002855547,0.015174414,0.999878970,0.000000000,0.000000000,0.000000000,0.000000000,0.000000000,0.000000000,1.738684890,0.000000000,4.170087814
1772682920.918778419,0.013842000,0.006781000,0.054078000,-0.002397510,0.001216070,0.020575330,0.999784690,-0.004744000,0.002530000,0.041148000,-0.000730692,0.000682907,0.000069716,-0.008061930,-0.039951383,0.020482866,0.009683477,-0.001516612,1.000253630,-0.003141296,-0.002386981,0.001360023,0.000000000,0.000000000,0.000000000,0.000000000,0.014111971,0.006791731,0.054061395,0.012943715,0.002315432,0.000033596,0.004121823,0.000340733,0.000885297,-0.166089106,0.323493043,1.738284761,-0.001406405,-0.002844666,0.015164631,0.999879239,0.000000000,0.000000000,0.000000000,0.000000000,0.000000000,0.000000000,1.737098458,0.000000000,4.170087814
1772682920.928777456,0.013806000,0.006804000,0.054089000,-0.002473310,0.000268740,0.020826410,0.999780010,-0.004934000,0.000640000,0.041654000,-0.000579041,0.000911539,0.000255925,-0.007719934,-0.060198692,0.017026435,0.008782182,-0.000993591,0.999806431,-0.002060528,-0.002889234,0.001436526,0.000000000,0.000000000,0.000000000,0.000000000,0.014095865,0.006812630,0.054072221,0.012866739,0.002369335,0.000135597,0.003081730,0.001847503,-0.000657659,-0.167132022,0.323057151,1.741506213,-0.001415483,-0.002841041,0.015192721,0.999878879,0.000000000,0.000000000,0.000000000,0.000000000,0.000000000,0.000000000,1.738182395,0.000000000,4.170087814
1772682920.938776731,0.013819000,0.006809000,0.054090000,-0.002462090,-0.000556280,0.020974120,0.999776830,-0.004946000,-0.001009000,0.041954000,-0.000508042,0.000925739,0.000516395,-0.001786190,-0.076326930,0.015478046,0.007894816,-0.000845017,0.999990464,0.000822796,0.000512790,0.001145157,0.000000000,0.000000000,0.000000000,0.000000000,0.014074622,0.006833097,0.054082482,0.012677218,0.002552946,0.000148047,0.002295353,0.002037656,-0.000033421,-0.168099437,0.325136966,1.745645495,-0.001423545,-0.002859368,0.015228786,0.999878313,0.000000000,0.000000000,0.000000000,0.000000000,0.000000000,0.000000000,1.742272432,0.000000000,4.170087814
1772682920.948777199,0.013876000,0.006734000,0.054048000,-0.002437800,0.001109250,0.020496520,0.999786340,-0.004829000,0.002318000,0.040990000,0.000468532,-0.000412180,-0.000135936,-0.000582066,-0.009809158,-0.002309468,0.009287998,-0.001822766,1.000715552,0.001084973,0.001380619,-0.000521378,0.000000000,0.000000000,0.000000000,0.000000000,0.014076714,0.006835250,0.054080965,0.012500049,0.002672576,0.000139587,0.003411742,0.000705614,0.000536804,-0.168633585,0.324036263,1.744469327,-0.001428381,-0.002849820,0.015218526,0.999878369,0.000000000,0.000000000,0.000000000,0.000000000,0.000000000,0.000000000,1.743191437,0.000000000,4.170087814
1772682920.958777428,0.013830000,0.006792000,0.054080000,-0.002413360,0.000537800,0.020711900,0.999782430,-0.004803000,0.001175000,0.041424000,0.000985646,-0.001290250,-0.000703419,-0.000249648,0.072931014,-0.022775602,0.009779507,-0.003669107,1.000670341,0.001085506,0.001040695,-0.000120494,0.000000000,0.000000000,0.000000000,0.000000000,0.014089083,0.006819767,0.054070769,0.012508993,0.002601535,0.000151839,0.004664014,-0.000402702,0.001384238,-0.168362976,0.325599231,1.748073795,-0.001425722,-0.002863467,0.015249963,0.999878080,0.000000000,0.000000000,0.000000000,0.000000000,0.000000000,0.000000000,1.744251503,0.000000000,4.170087814
1772682920.968776464,0.013828000,0.006811000,0.054095000,-0.002417300,-0.000090680,0.020839760,0.999779900,-0.004837000,-0.000081000,0.041683000,0.001028556,-0.001261734,-0.000746485,-0.000868651,0.117927134,-0.032019753,0.009183842,-0.004452792,1.000896408,0.001705178,0.001137698,0.002535892,0.000000000,0.000000000,0.000000000,0.000000000,0.014078216,0.006836616,0.054082253,0.012476543,0.002501471,0.000295685,0.003368742,-0.001474756,0.001107890,-0.168681362,0.325677443,1.745708704,-0.001428549,-0.002864162,0.015229318,0.999877345,0.000000000,0.000000000,0.000000000,0.000000000,0.000000000,0.000000000,1.748366388,0.000000000,4.170087814
1772682920.978775978,0.013866000,0.006735000,0.054054000,-0.002494220,0.001447180,0.020395500,0.999787830,-0.004928000,0.002995000,0.040787000,0.000939006,-0.001257596,-0.000743824,-0.000639479,0.137581583,-0.036016877,0.008242526,-0.004096236,1.000329930,0.001879385,0.002203317,0.000990898,0.000000000,0.000000000,0.000000000,0.000000000,0.014080215,0.006832927,0.054084015,0.012428181,0.002299099,0.000374278,0.003532467,-0.001742038,0.001048389,-0.168840810,0.327121713,1.749388824,-0.001429656,-0.002876832,0.015261405,0.999877559,0.000000000,0.000000000,0.000000000,0.000000000,0.000000000,0.000000000,1.748744649,0.000000000,4.170087814
1772682920.988776207,0.013870000,0.006730000,0.054047000,-0.002552090,0.002294620,0.020182090,0.999790430,-0.005011000,0.004691000,0.040355000,0.001191920,-0.001521408,-0.000936462,0.000617422,0.156123019,-0.044474323,0.007539322,-0.004062053,1.000230570,0.000698104,0.003470224,-0.000601465,0.000000000,0.000000000,0.000000000,0.000000000,0.014091488,0.006809074,0.054073910,0.012427901,0.002047855,0.000408142,0.003331146,-0.001405539,-0.001269046,-0.168678288,0.325952250,1.748651560,-0.001428412,-0.002866596,0.015254992,0.999877743,0.000000000,0.000000000,0.000000000,0.000000000,0.000000000,0.000000000,1.747478428,0.000000000,4.170087814
1772682920.998776436,0.013882000,0.006735000,0.054040000,-0.002499670,0.003009650,0.019975560,0.999792810,-0.004878000,0.006118000,0.039939000,0.000686928,-0.000960238,-0.000559014,0.001777709,0.131480486,-0.039401484,0.007654923,-0.004251244,1.000770288,-0.000428914,0.004204232,0.000321683,0.000000000,0.000000000,0.000000000,0.000000000,0.014103117,0.006785038,0.054060690,0.012318841,0.001762749,0.000286517,0.001406612,-0.000320464,0.000384034,-0.168549068,0.324632916,1.746935737,-0.001427503,-0.002855046,0.015240041,0.999878069,0.000000000,0.000000000,0.000000000,0.000000000,0.000000000,0.000000000,1.745501907,0.000000000,4.170087814
1772682921.008775949,0.013890000,0.006721000,0.054044000,-0.002473360,0.003595700,0.019835470,0.999793730,-0.004803000,0.007288000,0.039656000,-0.000657246,0.000574593,0.000551224,0.003699225,0.031258431,-0.013636495,0.008171149,-0.004368074,1.000586945,0.000281990,0.002484816,-0.001075001,0.000000000,0.000000000,0.000000000,0.000000000,0.014114234,0.006771322,0.054052123,0.012171451,0.001629091,0.000221363,0.002042310,-0.000170545,-0.001100472,-0.169636936,0.321678163,1.744045467,-0.001437460,-0.002829372,0.015214834,0.999878351,0.000000000,0.000000000,0.000000000,0.000000000,0.000000000,0.000000000,1.743223922,0.000000000,4.170087814
1772682921.018776655,0.013885000,0.006722000,0.054046000,-0.002450520,0.003577080,0.019765510,0.999795240,-0.004759000,0.007250000,0.039517000,-0.001104721,0.001279527,0.000996524,0.003469104,-0.064678828,0.007185155,0.008687437,-0.004484918,1.000403580,0.000992978,0.000765195,-0.002471851,0.000000000,0.000000000,0.000000000,0.000000000,0.014118287,0.006760057,0.054049562,0.012013234,0.001513695,0.000108092,0.001679368,-0.001088639,0.000884611,-0.169789649,0.321892446,1.742154974,-0.001438810,-0.002831239,0.015198332,0.999878733,0.000000000,0.000000000,0.000000000,0.000000000,0.000000000,0.000000000,1.740842017,0.000000000,4.170087814
1772682921.028775930,0.013863000,0.006736000,0.054052000,-0.002502660,0.003433550,0.019705240,0.999796800,-0.004869000,0.006964000,0.039396000,-0.000724301,0.000617036,0.000537918,0.000587614,-0.086093044,0.013198097,0.009203651,-0.004601745,1.000220242,0.001703865,-0.000954180,-0.003868502,0.000000000,0.000000000,0.000000000,0.000000000,0.014107577,0.006760321,0.054052076,0.011807490,0.001376846,0.000253933,0.002925670,-0.000787974,-0.000213121,-0.170034788,0.321529011,1.739897935,-0.001441053,-0.002828071,0.015178638,0.999878978,0.000000000,0.000000000,0.000000000,0.000000000,0.000000000,0.000000000,1.738895637,0.000000000,4.170087814
1772682921.038775921,0.013819000,0.006797000,0.054095000,-0.002464780,0.001449790,0.020271580,0.999790420,-0.004870000,0.002999000,0.040539000,0.000089394,-0.000206197,-0.000126729,-0.003804609,-0.050749630,0.003272772,0.008027932,-0.004550705,0.996841189,-0.001946042,0.005768193,-0.002032531,0.000000000,0.000000000,0.000000000,0.000000000,0.014077979,0.006788980,0.054074727,0.011649579,0.001360621,0.000304841,0.002227423,-0.001191302,-0.001856453,-0.169702379,0.321525921,1.738042139,-0.001438199,-0.002827977,0.015162453,0.999879298,0.000000000,0.000000000,0.000000000,0.000000000,0.000000000,0.000000000,1.736795575,0.000000000,4.170087814
1772682921.048775434,0.013861000,0.006740000,0.054066000,-0.002405560,0.001834190,0.020063210,0.999794140,-0.004737000,0.003764000,0.040120000,0.000567541,-0.000194406,-0.000041997,-0.002178162,-0.040238144,0.000972941,0.008866271,-0.004175380,1.001653864,0.000791623,0.001477222,-0.005699516,0.000000000,0.000000000,0.000000000,0.000000000,0.014065431,0.006773554,0.054070508,0.011315496,0.001136301,0.000010660,0.002936766,-0.000062565,-0.001028873,-0.168713572,0.324800522,1.738791629,-0.001429119,-0.002856429,0.015168974,0.999879273,0.000000000,0.000000000,0.000000000,0.000000000,0.000000000,0.000000000,1.735378260,0.000000000,4.170087814
1772682921.058775663,0.013883000,0.006731000,0.054044000,-0.002478190,0.002213440,0.019901840,0.999796420,-0.004867000,0.004525000,0.039796000,0.001141124,-0.000793416,-0.000158819,-0.001548218,-0.007899101,-0.004375596,0.010295834,-0.003820466,1.003543198,-0.000339238,-0.000118035,0.002526789,0.000000000,0.000000000,0.000000000,0.000000000,0.014024219,0.006741870,0.054051785,0.010524609,0.000868401,-0.000121314,0.004313971,-0.001065120,0.003035556,-0.167922524,0.328135357,1.739634393,-0.001421754,-0.002885433,0.015176302,0.999878943,0.000000000,0.000000000,0.000000000,0.000000000,0.000000000,0.000000000,1.737592092,0.000000000,4.170087814
1772682921.068775654,0.013886000,0.006724000,0.054048000,-0.002521660,0.002609350,0.019884300,0.999795700,-0.004939000,0.005318000,0.039758000,0.000427021,-0.000022319,0.000240540,0.000282911,-0.027473865,0.003185923,0.009989223,-0.004348955,1.002121660,-0.001380602,0.000200319,0.002039381,0.000000000,0.000000000,0.000000000,0.000000000,0.014051811,0.006764758,0.054074985,0.010850225,0.000830340,0.000317089,0.004458298,-0.001397257,0.004032313,-0.167242535,0.327757632,1.737593293,-0.001415922,-0.002882022,0.015158513,0.999879033,0.000000000,0.000000000,0.000000000,0.000000000,0.000000000,0.000000000,1.737409987,0.000000000,4.170087814
1772682921.078775406,0.013894000,0.006722000,0.054055000,-0.002526570,0.002672750,0.019703760,0.999799100,-0.004947000,0.005444000,0.039397000,-0.000591997,0.000429157,0.000315385,0.000452963,-0.039938701,0.008041259,0.009313627,-0.005052692,1.000170104,-0.002235402,0.000775465,-0.000690241,0.000000000,0.000000000,0.000000000,0.000000000,0.014064559,0.006761802,0.054076104,0.011040968,0.000693654,0.000660590,0.003161056,-0.002142422,-0.000123569,-0.166069089,0.328587616,1.736412479,-0.001405603,-0.002889094,0.015148230,0.999879283,0.000000000,0.000000000,0.000000000,0.000000000,0.000000000,0.000000000,1.735116214,0.000000000,4.170087814
1772682921.088775635,0.013854000,0.006777000,0.054101000,-0.002376980,0.000710240,0.020291970,0.999791020,-0.004724000,0.001517000,0.040583000,-0.001453478,0.001187375,0.000574457,0.002268339,-0.081454947,0.025426429,0.009087398,-0.003565230,0.998687831,0.001120895,0.003034015,0.001224146,0.000000000,0.000000000,0.000000000,0.000000000,0.014059574,0.006779335,0.054085204,0.011036751,0.000573467,0.000679072,0.003763662,-0.000696647,-0.000991375,-0.165581041,0.329778165,1.734756594,-0.001401229,-0.002899397,0.015133779,0.999879360,0.000000000,0.000000000,0.000000000,0.000000000,0.000000000,0.000000000,1.734607196,0.000000000,4.170087814
1772682921.098776102,0.013867000,0.006738000,0.054062000,-0.002467730,0.001405040,0.020156650,0.999792800,-0.004878000,0.002909000,0.040309000,-0.001275040,0.001102507,0.000338015,0.007222878,-0.079037694,0.027881809,0.009721949,-0.003408931,0.999693811,-0.000143158,-0.000145940,0.002259487,0.000000000,0.000000000,0.000000000,0.000000000,0.014056721,0.006773496,0.054078905,0.011102982,0.000482587,0.000551933,0.004630608,0.000205130,0.000151963,-0.166257108,0.329395613,1.733707158,-0.001407205,-0.002896136,0.015124610,0.999879393,0.000000000,0.000000000,0.000000000,0.000000000,0.000000000,0.000000000,1.734098166,0.000000000,4.170087814
1772682921.108775616,0.013811000,0.006804000,0.054089000,-0.002365350,0.000134260,0.020504030,0.999786960,-0.004724000,0.000365000,0.041010000,-0.001175467,0.001295106,0.000403458,0.007453788,-0.090128759,0.031692251,0.010380825,-0.003320858,1.000794079,-0.001641614,-0.003508023,0.003215485,0.000000000,0.000000000,0.000000000,0.000000000,0.014057747,0.006781296,0.054082500,0.011241839,0.000519789,0.000588273,0.004525549,-0.000758306,0.000750988,-0.166803288,0.328409408,1.731998593,-0.001412144,-0.002887582,0.015109700,0.999879616,0.000000000,0.000000000,0.000000000,0.000000000,0.000000000,0.000000000,1.732825795,0.000000000,4.170087814
1772682921.118775129,0.013845000,0.006741000,0.054052000,-0.002392870,0.001188730,0.020253550,0.999791310,-0.004737000,0.002474000,0.040504000,-0.000504274,0.000730440,0.000345902,0.005531083,-0.076893429,0.029273306,0.010107255,-0.002718395,1.000096970,-0.001668276,-0.001620832,0.003466192,0.000000000,0.000000000,0.000000000,0.000000000,0.014052908,0.006798946,0.054097412,0.011299279,0.000497727,0.000725193,0.003714189,-0.000946354,0.000656910,-0.167166435,0.329514192,1.733319063,-0.001415133,-0.002897286,0.015121198,0.999879541,0.000000000,0.000000000,0.000000000,0.000000000,0.000000000,0.000000000,1.731471353,0.000000000,4.170087814
1772682921.128774881,0.013843000,0.006785000,0.054079000,-0.002308830,0.000357520,0.020600530,0.999785060,-0.004602000,0.000810000,0.041202000,0.000426166,-0.000065035,0.000076632,0.001633873,-0.038671205,0.015129665,0.009833679,-0.002115917,0.999399844,-0.001694939,0.000266405,0.003716905,0.000000000,0.000000000,0.000000000,0.000000000,0.014048256,0.006799310,0.054106163,0.011257852,0.000416696,0.000786747,0.003046108,0.000728366,-0.000150541,-0.166681663,0.332645569,1.734640832,-0.001410456,-0.002924561,0.015132703,0.999879207,0.000000000,0.000000000,0.000000000,0.000000000,0.000000000,0.000000000,1.735281735,0.000000000,4.170087814
1772682921.138774633,0.013831000,0.006805000,0.054099000,-0.002236480,-0.000236980,0.020710030,0.999782990,-0.004482000,-0.000381000,0.041424000,0.000934364,-0.000552098,-0.000143104,-0.000533399,-0.006283403,0.004588940,0.009615904,-0.001565144,0.998466182,-0.000579506,0.001380393,0.003035065,0.000000000,0.000000000,0.000000000,0.000000000,0.014072480,0.006769864,0.054086258,0.011294455,0.000411435,0.000607177,0.003592077,0.001679218,-0.001500382,-0.166363661,0.334131333,1.734305149,-0.001407494,-0.002937479,0.015129763,0.999879331,0.000000000,0.000000000,0.000000000,0.000000000,0.000000000,0.000000000,1.734236336,0.000000000,4.170087814
1772682921.148774862,0.013828000,0.006790000,0.054100000,-0.002315260,-0.000855350,0.020848720,0.999779600,-0.004665000,-0.001614000,0.041704000,0.001207130,-0.001469252,-0.000882091,-0.002401219,0.076219024,-0.021154295,0.009607545,-0.001414930,0.997070879,0.003777736,-0.000357907,-0.000667928,0.000000000,0.000000000,0.000000000,0.000000000,0.014085188,0.006754951,0.054068306,0.011357154,0.000497725,0.000352419,0.003668507,0.001630652,-0.002765658,-0.166662175,0.333866840,1.733850467,-0.001410145,-0.002935205,0.015125791,0.999879571,0.000000000,0.000000000,0.000000000,0.000000000,0.000000000,0.000000000,1.732788816,0.000000000,4.170087814
1772682921.158774853,0.013876000,0.006737000,0.054057000,-0.002371670,0.000565140,0.020507420,0.999786730,-0.004719000,0.001227000,0.041015000,0.000806061,-0.001414104,-0.001074593,-0.000285360,0.128207041,-0.037406734,0.009497012,-0.003107845,0.999038961,0.001421327,-0.002416100,-0.001417453,0.000000000,0.000000000,0.000000000,0.000000000,0.014091558,0.006745327,0.054054523,0.011412245,0.000600301,-0.000001802,0.003363369,-0.000240702,-0.000026154,-0.166194810,0.333210065,1.731852352,-0.001406205,-0.002929388,0.015108377,0.999879777,0.000000000,0.000000000,0.000000000,0.000000000,0.000000000,0.000000000,1.730674744,0.000000000,4.170087814
1772682921.168774366,0.013880000,0.006730000,0.054041000,-0.002428000,0.001815200,0.020156000,0.999792250,-0.004782000,0.003728000,0.040306000,0.000999321,-0.002046739,-0.001594271,-0.001441472,0.204743110,-0.062391726,0.007450675,-0.004761252,1.001868076,0.003430192,-0.000012033,0.000897634,0.000000000,0.000000000,0.000000000,0.000000000,0.014087551,0.006740789,0.054050117,0.011379534,0.000512133,-0.000020159,0.002223301,-0.001461059,0.001872482,-0.164838090,0.333547721,1.729991656,-0.001394370,-0.002932133,0.015092172,0.999879828,0.000000000,0.000000000,0.000000000,0.000000000,0.000000000,0.000000000,1.730417905,0.000000000,4.170087814
1772682921.178774357,0.013877000,0.006725000,0.054039000,-0.002376910,0.002511630,0.019915440,0.999795690,-0.004653000,0.005117000,0.039822000,0.000061111,-0.000566764,-0.000550253,-0.001614995,0.155359320,-0.047286140,0.007885094,-0.003104938,0.999805293,-0.001686834,0.000468315,0.000810845,0.000000000,0.000000000,0.000000000,0.000000000,0.014089833,0.006738061,0.054047652,0.011281845,0.000384237,0.000092419,0.002529400,-0.000818096,-0.000017458,-0.163698337,0.333213632,1.728633281,-0.001384504,-0.002929051,0.015080352,0.999880113,0.000000000,0.000000000,0.000000000,0.000000000,0.000000000,0.000000000,1.728973581,0.000000000,4.170087814
1772682921.188774824,0.013863000,0.006726000,0.054047000,-0.002335190,0.003072380,0.019714100,0.999798210,-0.004548000,0.006236000,0.039417000,-0.000617192,0.000695144,0.000609577,-0.001455174,0.057971364,-0.019421912,0.008138973,-0.003221752,0.999517417,-0.001538290,0.000489584,0.000848095,0.000000000,0.000000000,0.000000000,0.000000000,0.014089968,0.006737748,0.054047402,0.011259627,0.000357191,0.000108399,0.002795093,-0.000524619,-0.000870406,-0.163265814,0.332316587,1.727690687,-0.001380872,-0.002921156,0.015072150,0.999880493,0.000000000,0.000000000,0.000000000,0.000000000,0.000000000,0.000000000,1.725584388,0.000000000,4.170087814
1772682921.198775291,0.013874000,0.006726000,0.054044000,-0.002402330,0.003336150,0.019667940,0.999798120,-0.004673000,0.006766000,0.039323000,-0.000499651,0.000672145,0.000744834,-0.003243030,-0.018162155,0.005093293,0.008384652,-0.003419087,0.999310146,-0.001150624,0.000490006,0.000890979,0.000000000,0.000000000,0.000000000,0.000000000,0.014089563,0.006737961,0.054047636,0.011254805,0.000352955,0.000101792,0.002861447,-0.000562814,-0.000896814,-0.163198138,0.332288888,1.727456023,-0.001380291,-0.002920902,0.015070105,0.999880493,0.000000000,0.000000000,0.000000000,0.000000000,0.000000000,0.000000000,1.725584388,0.000000000,4.170087814
1772682921.208775520,0.013865000,0.006734000,0.054050000,-0.002516200,0.003306840,0.019577510,0.999799710,-0.004902000,0.006711000,0.039141000,-0.000382537,0.000728186,0.000801361,-0.002550194,-0.079560467,0.031471283,0.008630325,-0.003616418,0.999102879,-0.000762968,0.000490427,0.000933861,0.000000000,0.000000000,0.000000000,0.000000000,0.014089159,0.006738175,0.054047869,0.011249983,0.000348718,0.000095184,0.002927799,-0.000601008,-0.000923222,-0.163130463,0.332261189,1.727221364,-0.001379710,-0.002920649,0.015068059,0.999880493,0.000000000,0.000000000,0.000000000,0.000000000,0.000000000,0.000000000,1.725584388,0.000000000,4.170087814
1772682921.218774319,0.013831000,0.006783000,0.054093000,-0.002441320,0.001373630,0.020310930,0.999789790,-0.004826000,0.002846000,0.040618000,-0.000196465,0.000674534,0.000574282,-0.002080452,-0.099573798,0.041685054,0.008875964,-0.003813721,0.998895641,-0.000375367,0.000490848,0.000976737,0.000000000,0.000000000,0.000000000,0.000000000,0.014088756,0.006738388,0.054048102,0.011245161,0.000344482,0.000088578,0.002994142,-0.000639197,-0.000949626,-0.163062798,0.332233495,1.726986739,-0.001379129,-0.002920396,0.015066014,0.999880493,0.000000000,0.000000000,0.000000000,0.000000000,0.000000000,0.000000000,1.725584388,0.000000000,4.170087814
1772682921.228774071,0.013878000,0.006739000,0.054063000,-0.002411510,0.001888620,0.020198970,0.999791290,-0.004746000,0.003874000,0.040392000,0.000317832,0.000364297,0.000081818,0.002438380,-0.078731882,0.035677351,0.009121625,-0.004011042,0.998688384,0.000012271,0.000491269,0.001019617,0.000000000,0.000000000,0.000000000,0.000000000,0.014088352,0.006738602,0.054048335,0.011240339,0.000340246,0.000081971,0.003060491,-0.000677389,-0.000976032,-0.162995126,0.332205798,1.726752092,-0.001378548,-0.002920142,0.015063969,0.999880493,0.000000000,0.000000000,0.000000000,0.000000000,0.000000000,0.000000000,1.725584388,0.000000000,4.170087814
1772682921.238774300,0.013878000,0.006725000,0.054042000,-0.002399260,0.002233740,0.020187860,0.999790830,-0.004707000,0.004563000,0.040368000,0.000436578,-0.000085509,-0.000412374,0.002858179,-0.022026605,0.017540257,0.009367299,-0.004208373,0.998481117,0.000399928,0.000491690,0.001062499,0.000000000,0.000000000,0.000000000,0.000000000,0.014087947,0.006738815,0.054048568,0.011235516,0.000336009,0.000075364,0.003126843,-0.000715583,-0.001002440,-0.162927451,0.332178100,1.726517433,-0.001377967,-0.002919889,0.015061924,0.999880493,0.000000000,0.000000000,0.000000000,0.000000000,0.000000000,0.000000000,1.725584388,0.000000000,4.170087814
1772682921.248773813,0.013837000,0.006784000,0.054090000,-0.002353570,0.000795800,0.020698600,0.999782670,-0.004673000,0.001689000,0.041396000,0.000649923,-0.000431527,-0.000828983,-0.000179093,0.040454749,-0.005743485,0.009466026,-0.004114425,0.998478863,-0.000038304,0.001398936,0.001259650,0.000000000,0.000000000,0.000000000,0.000000000,0.014087543,0.006739028,0.054048801,0.011230694,0.000331773,0.000068757,0.003193191,-0.000753775,-0.001028846,-0.162859781,0.332150404,1.726282791,-0.001377386,-0.002919635,0.015059878,0.999880493,0.000000000,0.000000000,0.000000000,0.000000000,0.000000000,0.000000000,1.725584388,0.000000000,4.170087814
1772682921.258774042,0.013884000,0.006743000,0.054048000,-0.002428630,0.001974650,0.020252250,0.999790000,-0.004776000,0.004047000,0.040498000,0.000480342,-0.000547941,-0.000882033,-0.003439851,0.081588628,-0.022368533,0.009368045,-0.003630508,0.998751071,-0.001582278,0.003520356,0.001663364,0.000000000,0.000000000,0.000000000,0.000000000,0.014087139,0.006739242,0.054049034,0.011225872,0.000327537,0.000062149,0.003259543,-0.000791969,-0.001055254,-0.162792106,0.332122705,1.726048133,-0.001376806,-0.002919382,0.015057833,0.999880493,0.000000000,0.000000000,0.000000000,0.000000000,0.000000000,0.000000000,1.725584388,0.000000000,4.170087814
1772682921.268773079,0.013894000,0.006738000,0.054037000,-0.002402790,0.002540650,0.020119730,0.999791460,-0.004702000,0.005177000,0.040230000,0.000231216,-0.000389084,-0.000305187,-0.003214489,0.075095508,-0.020841281,0.009270076,-0.003146649,0.999023247,-0.003126068,0.005641522,0.002067029,0.000000000,0.000000000,0.000000000,0.000000000,0.014086736,0.006739455,0.054049267,0.011221050,0.000323301,0.000055543,0.003325888,-0.000830158,-0.001081658,-0.162724440,0.332095010,1.725813502,-0.001376225,-0.002919129,0.015055788,0.999880493,0.000000000,0.000000000,0.000000000,0.000000000,0.000000000,0.000000000,1.725584388,0.000000000,4.170087814
1772682921.278772831,0.013870000,0.006731000,0.054039000,-0.002527010,0.002956770,0.020030950,0.999791790,-0.004935000,0.006014000,0.040050000,0.000403283,-0.000953478,-0.000171795,-0.000171501,0.081906798,-0.027010484,0.009172099,-0.002662755,0.999295442,-0.004669968,0.007762841,0.002470723,0.000000000,0.000000000,0.000000000,0.000000000,0.014078026,0.006750154,0.054059054,0.011190774,0.000332165,0.000053811,0.003307910,-0.000433659,-0.000958050,-0.162655553,0.332042228,1.725544982,-0.001375637,-0.002918656,0.015053448,0.999880493,0.000000000,0.000000000,0.000000000,0.000000000,0.000000000,0.000000000,1.725584388,0.000000000,4.170087814
1772682921.288772345,0.013884000,0.006730000,0.054041000,-0.002464510,0.003152260,0.019917320,0.999793620,-0.004803000,0.006401000,0.039822000,0.000130866,-0.000960782,0.000003147,0.002498339,0.066661046,-0.023099031,0.008860467,-0.002479198,0.999827784,-0.004285233,0.007260342,0.002233633,0.000000000,0.000000000,0.000000000,0.000000000,0.014068969,0.006763384,0.054072133,0.011158066,0.000353526,0.000039661,0.003083464,0.000831986,-0.000427037,-0.162536383,0.330950743,1.723873884,-0.001374784,-0.002909096,0.015038882,0.999880799,0.000000000,0.000000000,0.000000000,0.000000000,0.000000000,0.000000000,1.724201195,0.000000000,4.170087814
1772682921.298771143,0.013883000,0.006720000,0.054044000,-0.002430400,0.003360920,0.019936070,0.999792650,-0.004726000,0.006817000,0.039859000,-0.000020940,-0.000543318,0.000313850,0.005586773,0.036967894,-0.014823840,0.008867850,-0.002789139,1.000208595,-0.000390887,0.003895752,0.002546646,0.000000000,0.000000000,0.000000000,0.000000000,0.014081310,0.006753486,0.054065639,0.011184332,0.000370882,-0.000016090,0.002857120,0.000610822,0.000499712,-0.163204012,0.327827423,1.723116472,-0.001381038,-0.002881922,0.015032296,0.999881154,0.000000000,0.000000000,0.000000000,0.000000000,0.000000000,0.000000000,1.722133490,0.000000000,4.170087814
1772682921.308771133,0.013887000,0.006715000,0.054057000,-0.002421610,0.003440920,0.019811730,0.999794870,-0.004706000,0.006976000,0.039610000,-0.000039977,-0.000130886,-0.000033838,0.003322377,0.036757090,-0.010304301,0.009666742,-0.002877766,0.999343109,0.002069212,0.001723738,0.002499340,0.000000000,0.000000000,0.000000000,0.000000000,0.014084411,0.006747745,0.054057327,0.011178129,0.000392445,-0.000031776,0.003700677,-0.000474805,-0.000639825,-0.163344211,0.325307615,1.721380625,-0.001382635,-0.002859933,0.015017179,0.999881268,0.000000000,0.000000000,0.000000000,0.000000000,0.000000000,0.000000000,1.721018434,0.000000000,4.170087814
1772682921.318771124,0.013874000,0.006715000,0.054052000,-0.002379590,0.003381770,0.019759190,0.999796220,-0.004625000,0.006856000,0.039505000,-0.000382168,0.000911967,0.000108761,0.002060224,-0.004533864,0.006744635,0.009270309,-0.002266195,0.998618730,-0.001210250,-0.001347176,-0.003585225,0.000000000,0.000000000,0.000000000,0.000000000,0.014070390,0.006768406,0.054071722,0.011152092,0.000464382,-0.000015796,0.003211019,0.000424906,-0.000882540,-0.162591900,0.324314993,1.721045372,-0.001376210,-0.002851169,0.015014285,0.999881268,0.000000000,0.000000000,0.000000000,0.000000000,0.000000000,0.000000000,1.721033405,0.000000000,4.170087814
1772682921.328771114,0.013882000,0.006724000,0.054041000,-0.002414410,0.003612140,0.019810950,0.999794300,-0.004685000,0.007319000,0.039608000,-0.001161986,0.001966843,0.000619212,-0.002952052,-0.073683777,0.030231497,0.009154624,-0.001895875,0.999272710,-0.001337190,-0.000423969,-0.002472522,0.000000000,0.000000000,0.000000000,0.000000000,0.014087145,0.006759276,0.054056772,0.011187763,0.000483964,-0.000162412,0.002497190,0.001040787,0.000013822,-0.162775613,0.323252086,1.718921752,-0.001378005,-0.002841893,0.014995764,0.999881532,0.000000000,0.000000000,0.000000000,0.000000000,0.000000000,0.000000000,1.720091939,0.000000000,4.170087814
1772682921.338770390,0.013883000,0.006732000,0.054039000,-0.002402290,0.003679530,0.019829750,0.999793710,-0.004658000,0.007453000,0.039645000,-0.001275701,0.002494253,0.001144290,-0.003043637,-0.149640835,0.050144298,0.009736924,-0.001295350,0.999877847,-0.001363433,-0.000170285,-0.000928181,0.000000000,0.000000000,0.000000000,0.000000000,0.014097340,0.006753195,0.054044671,0.011177474,0.000553904,-0.000213263,0.004627140,0.002147439,-0.000180127,-0.162942276,0.322124600,1.717556729,-0.001379640,-0.002832060,0.014983863,0.999881901,0.000000000,0.000000000,0.000000000,0.000000000,0.000000000,0.000000000,1.717247826,0.000000000,4.170087814
1772682921.348769903,0.013828000,0.006800000,0.054072000,-0.002470600,0.002186440,0.020458110,0.999785270,-0.004851000,0.004473000,0.040908000,-0.001538521,0.002618553,0.001626031,-0.001741405,-0.226978797,0.069187364,0.011401924,-0.000453993,1.000110314,-0.000154400,-0.001051133,0.001099566,0.000000000,0.000000000,0.000000000,0.000000000,0.014092566,0.006748293,0.054039884,0.011275391,0.000698030,-0.000243210,0.005294773,0.002367574,0.000237564,-0.163539178,0.321719510,1.716191171,-0.001384935,-0.002828587,0.014971940,0.999882042,0.000000000,0.000000000,0.000000000,0.000000000,0.000000000,0.000000000,1.715506479,0.000000000,4.170087814
1772682921.358769894,0.013837000,0.006813000,0.054096000,-0.002359250,0.000544230,0.020766680,0.999781420,-0.004695000,0.001186000,0.041534000,-0.000616415,0.001231217,0.001096135,0.000074293,-0.218947602,0.060686761,0.009935586,-0.001233329,0.999187002,0.005525144,0.000213809,0.000050806,0.000000000,0.000000000,0.000000000,0.000000000,0.014098579,0.006747269,0.054038005,0.011511028,0.000912608,-0.000236755,0.003644755,0.001928675,-0.000113509,-0.163342694,0.322419593,1.715435364,-0.001383148,-0.002834661,0.014965341,0.999882185,0.000000000,0.000000000,0.000000000,0.000000000,0.000000000,0.000000000,1.714875680,0.000000000,4.170087814
1772682921.368770361,0.013823000,0.006815000,0.054105000,-0.002381320,-0.000449170,0.021041780,0.999775660,-0.004780000,-0.000798000,0.042089000,-0.000306527,0.000177234,0.000479429,0.001144308,-0.177605108,0.045023673,0.008056032,-0.001915363,1.000030672,0.002388997,-0.001708175,-0.002784448,0.000000000,0.000000000,0.000000000,0.000000000,0.014102691,0.006743004,0.054038606,0.011573687,0.001060857,-0.000232577,0.002687100,0.001101251,-0.000738681,-0.162465213,0.322432683,1.714217033,-0.001375520,-0.002834646,0.014954731,0.999882470,0.000000000,0.000000000,0.000000000,0.000000000,0.000000000,0.000000000,1.712840903,0.000000000,4.170087814
1772682921.378769875,0.013838000,0.006801000,0.054100000,-0.002305250,-0.001057570,0.021149910,0.999773100,-0.004654000,-0.002017000,0.042308000,0.000657848,-0.001296116,-0.000657596,0.001754016,-0.059039179,0.014560674,0.007600555,-0.001814896,0.997625486,-0.000222188,0.003794603,0.001110643,0.000000000,0.000000000,0.000000000,0.000000000,0.014105886,0.006740284,0.054044418,0.011529942,0.001111365,-0.000236900,0.002155296,0.001019145,-0.001828317,-0.161513323,0.321995863,1.712385784,-0.001367317,-0.002830688,0.014938781,0.999882718,0.000000000,0.000000000,0.000000000,0.000000000,0.000000000,0.000000000,1.711110204,0.000000000,4.170087814
1772682921.388770342,0.013830000,0.006798000,0.054089000,-0.002301150,-0.001409130,0.021283120,0.999769850,-0.004661000,-0.002720000,0.042576000,0.000941027,-0.001540134,-0.000975079,0.004443785,0.037093163,-0.009698887,0.008885085,-0.002558294,0.998361032,-0.000834369,0.001495945,-0.003835033,0.000000000,0.000000000,0.000000000,0.000000000,0.014102691,0.006738659,0.054045963,0.011424842,0.001166407,-0.000374597,0.002771347,0.000886756,-0.000891760,-0.160821241,0.321529828,1.710909882,-0.001361375,-0.002826514,0.014925925,0.999882916,0.000000000,0.000000000,0.000000000,0.000000000,0.000000000,0.000000000,1.709903269,0.000000000,4.170087814
1772682921.398770094,0.013883000,0.006737000,0.054045000,-0.002344630,0.000291490,0.020849280,0.999779840,-0.004676000,0.000681000,0.041700000,0.000516842,-0.000952235,-0.000833392,0.005123578,0.085540253,-0.017748005,0.008304008,-0.001991014,1.000122236,-0.000225197,0.002586140,-0.002546111,0.000000000,0.000000000,0.000000000,0.000000000,0.014101376,0.006740725,0.054042248,0.011386854,0.001212500,-0.000450519,0.002887528,0.000894523,0.000499473,-0.160763073,0.320248050,1.709913277,-0.001361059,-0.002815310,0.014917247,0.999883087,0.000000000,0.000000000,0.000000000,0.000000000,0.000000000,0.000000000,1.708600490,0.000000000,4.170087814
1772682921.408770323,0.013829000,0.006787000,0.054082000,-0.002335000,-0.000265790,0.021029650,0.999776090,-0.004680000,-0.000433000,0.042064000,0.000710665,-0.000681372,-0.000575467,0.006620758,0.107912454,-0.030725311,0.007605567,-0.002707469,1.000636997,-0.000760051,0.002547140,0.000776425,0.000000000,0.000000000,0.000000000,0.000000000,0.014101990,0.006745514,0.054037359,0.011358776,0.001267746,-0.000435993,0.002333720,0.000568886,0.000561399,-0.160445031,0.319686231,1.708162617,-0.001358400,-0.002810346,0.014901987,0.999883264,0.000000000,0.000000000,0.000000000,0.000000000,0.000000000,0.000000000,1.707432357,0.000000000,4.170087814
1772682921.418771029,0.013879000,0.006740000,0.054053000,-0.002279140,0.001188090,0.020623880,0.999784000,-0.004508000,0.002470000,0.041245000,0.000507732,-0.000490502,-0.000300078,0.003521835,0.116726748,-0.041256147,0.008315851,-0.003864084,0.999012478,-0.000829475,-0.000863188,0.000718497,0.000000000,0.000000000,0.000000000,0.000000000,0.014093236,0.006762132,0.054039501,0.011241841,0.001323283,-0.000366663,0.002983454,-0.001261869,-0.001437022,-0.160860057,0.317730125,1.707045526,-0.001362303,-0.002793318,0.014892253,0.999883391,0.000000000,0.000000000,0.000000000,0.000000000,0.000000000,0.000000000,1.706419832,0.000000000,4.170087814
1772682921.428770304,0.013851000,0.006787000,0.054084000,-0.002205900,0.000509340,0.020718300,0.999782790,-0.004390000,0.001110000,0.041437000,0.000531100,-0.000444678,-0.000352409,0.000464384,0.118088267,-0.049892536,0.009484022,-0.003562574,0.997776301,0.000437589,-0.003410896,-0.000737368,0.000000000,0.000000000,0.000000000,0.000000000,0.014069407,0.006795058,0.054054933,0.011102751,0.001319102,-0.000373436,0.004522160,-0.001056667,-0.002478358,-0.161209369,0.317200047,1.706173196,-0.001365441,-0.002788728,0.014884641,0.999883718,0.000000000,0.000000000,0.000000000,0.000000000,0.000000000,0.000000000,1.704319689,0.000000000,4.170087814
1772682921.438770294,0.013873000,0.006744000,0.054049000,-0.002276660,0.001628220,0.020353490,0.999788930,-0.004486000,0.003348000,0.040702000,0.000488870,-0.000701924,-0.000500136,-0.004477917,0.112509913,-0.050304356,0.008751563,-0.003002883,0.999209235,-0.000784806,0.000205046,0.001803388,0.000000000,0.000000000,0.000000000,0.000000000,0.014057287,0.006818678,0.054074235,0.011105356,0.001291858,-0.000471504,0.003563714,0.000468293,-0.000374773,-0.161298936,0.316917495,1.703269119,-0.001366330,-0.002786239,0.014859302,0.999883394,0.000000000,0.000000000,0.000000000,0.000000000,0.000000000,0.000000000,1.704874145,0.000000000,4.170087814
1772682921.448770046,0.013892000,0.006733000,0.054046000,-0.002354240,0.002498500,0.019887200,0.999796340,-0.004608000,0.005090000,0.039766000,0.001107091,-0.001459908,-0.001032130,-0.008924017,0.151415335,-0.061229498,0.008216944,-0.002895177,1.001147408,-0.002267779,0.001784040,0.001113657,0.000000000,0.000000000,0.000000000,0.000000000,0.014047324,0.006828394,0.054085462,0.011020833,0.001312632,-0.000439941,0.001702376,0.000159724,0.001247765,-0.161478739,0.318692317,1.711382407,-0.001367470,-0.002801846,0.014930069,0.999882892,0.000000000,0.000000000,0.000000000,0.000000000,0.000000000,0.000000000,1.709099535,0.000000000,4.170087814
1772682921.458770037,0.013876000,0.006733000,0.054046000,-0.002431620,0.003034430,0.019710610,0.999798170,-0.004743000,0.006164000,0.039409000,0.000391648,-0.000773855,-0.000383431,-0.006631200,0.116691075,-0.044463885,0.008854164,-0.003987378,1.001220950,-0.002630396,0.000267372,0.002851963,0.000000000,0.000000000,0.000000000,0.000000000,0.014046556,0.006827255,0.054088541,0.010863039,0.001285237,-0.000286486,0.004836687,-0.001556260,0.001536742,-0.161048185,0.317261639,1.711672818,-0.001363893,-0.002789310,0.014932632,0.999882268,0.000000000,0.000000000,0.000000000,0.000000000,0.000000000,0.000000000,1.713640914,0.000000000,4.170087814
1772682921.468769550,0.013888000,0.006729000,0.054036000,-0.002449300,0.003485410,0.019579390,0.999799230,-0.004761000,0.007065000,0.039145000,0.000025602,-0.000102622,0.000243065,-0.002127269,0.058577915,-0.017098336,0.010461549,-0.003276091,0.999565566,-0.000721295,0.002913611,0.000680769,0.000000000,0.000000000,0.000000000,0.000000000,0.014047912,0.006817251,0.054081401,0.010891368,0.001105525,-0.000187032,0.005254172,0.000258639,-0.000956705,-0.162629930,0.318540121,1.715326858,-0.001377438,-0.002800716,0.014964461,0.999882165,0.000000000,0.000000000,0.000000000,0.000000000,0.000000000,0.000000000,1.715811176,0.000000000,4.170087814
1772682921.478769541,0.013891000,0.006716000,0.054046000,-0.002462270,0.003551140,0.019581130,0.999798930,-0.004785000,0.007197000,0.039148000,-0.001258917,0.001910880,0.001523506,0.002703388,-0.083466302,0.029744412,0.010908990,-0.002990772,1.000234001,0.002634784,-0.001045538,0.002299368,0.000000000,0.000000000,0.000000000,0.000000000,0.014066421,0.006791042,0.054063321,0.011104330,0.000980631,-0.000320295,0.004707607,-0.000073764,0.000113255,-0.163549537,0.317600828,1.715394997,-0.001385584,-0.002792640,0.014965043,0.999881818,0.000000000,0.000000000,0.000000000,0.000000000,0.000000000,0.000000000,1.717054690,0.000000000,4.170087814
1772682921.488769054,0.013894000,0.006730000,0.054045000,-0.002433530,0.003862140,0.019453920,0.999800330,-0.004716000,0.007818000,0.038892000,-0.001383082,0.001830285,0.001223039,0.002257308,-0.142625686,0.052330713,0.009934294,-0.003463647,1.001530948,0.002708842,0.001487704,0.003046238,0.000000000,0.000000000,0.000000000,0.000000000,0.014055311,0.006798269,0.054069724,0.011165190,0.001001318,-0.000278837,0.005090930,-0.001096575,0.001423517,-0.163662182,0.318533902,1.717884442,-0.001386384,-0.002800827,0.014986751,0.999881687,0.000000000,0.000000000,0.000000000,0.000000000,0.000000000,0.000000000,1.719162945,0.000000000,4.170087814
1772682921.498768806,0.013843000,0.006781000,0.054090000,-0.002289910,0.001943480,0.020193030,0.999791590,-0.004500000,0.003979000,0.040380000,-0.001621738,0.002083724,0.001175564,-0.000028852,-0.185524119,0.064157957,0.008640908,-0.002192330,1.001930025,-0.000709094,0.001218797,0.002841170,0.000000000,0.000000000,0.000000000,0.000000000,0.014073770,0.006779660,0.054060099,0.011332872,0.000844510,-0.000183567,0.003079315,0.000704262,0.002162223,-0.163165195,0.318936333,1.718957625,-0.001381968,-0.002804286,0.014996123,0.999881839,0.000000000,0.000000000,0.000000000,0.000000000,0.000000000,0.000000000,1.718256094,0.000000000,4.170087814
1772682921.508768797,0.013829000,0.006808000,0.054100000,-0.002376440,0.000628380,0.020603280,0.999784710,-0.004726000,0.001354000,0.041206000,-0.001194795,0.001087530,0.000317832,-0.001935100,-0.150788916,0.055241434,0.009122970,-0.001154463,1.001985927,-0.004236892,-0.001216205,0.003207958,0.000000000,0.000000000,0.000000000,0.000000000,0.014072947,0.006789873,0.054070704,0.011262433,0.000973315,0.000125730,0.004254675,0.002043275,0.002232682,-0.163277180,0.317878187,1.717491012,-0.001383120,-0.002795050,0.014983336,0.999882077,0.000000000,0.000000000,0.000000000,0.000000000,0.000000000,0.000000000,1.716656245,0.000000000,4.170087814
1772682921.518769503,0.013818000,0.006822000,0.054098000,-0.002346930,-0.000357830,0.020850660,0.999779780,-0.004708000,-0.000618000,0.041706000,-0.000427953,-0.000138695,-0.000390191,-0.003290383,-0.084505891,0.032940898,0.009594869,-0.001776725,0.999630559,-0.000169623,-0.004201780,0.001571767,0.000000000,0.000000000,0.000000000,0.000000000,0.014082489,0.006776498,0.054061333,0.011330568,0.001071221,0.000250495,0.004963156,0.000431563,-0.000202286,-0.164933260,0.317031876,1.716084419,-0.001397715,-0.002787865,0.014971034,0.999882162,0.000000000,0.000000000,0.000000000,0.000000000,0.000000000,0.000000000,1.715244873,0.000000000,4.170087814
1772682921.528769493,0.013852000,0.006750000,0.054049000,-0.002442210,0.000938410,0.020592410,0.999784530,-0.004845000,0.001977000,0.041183000,0.000200816,-0.000623311,-0.000405731,-0.001291676,-0.046487960,0.016368235,0.009306588,-0.001390355,1.000300664,0.000722958,-0.001404251,0.000804187,0.000000000,0.000000000,0.000000000,0.000000000,0.014097533,0.006765044,0.054055706,0.011505807,0.001063051,0.000174501,0.005104699,0.000606091,-0.000666187,-0.165373037,0.317471089,1.715238410,-0.001401516,-0.002791745,0.014963635,0.999882241,0.000000000,0.000000000,0.000000000,0.000000000,0.000000000,0.000000000,1.714241656,0.000000000,4.170520265
1772682921.538769484,0.013822000,0.006801000,0.054085000,-0.002369570,-0.000072550,0.020869160,0.999779400,-0.004741000,-0.000046000,0.041742000,0.000951108,-0.000973233,-0.000438850,0.000696989,-0.008047153,-0.001379836,0.009414086,-0.001684953,1.000310321,0.001611222,0.000935565,0.000632405,0.000000000,0.000000000,0.000000000,0.000000000,0.014099005,0.006759764,0.054052306,0.011672817,0.001088901,0.000106424,0.003029946,0.001557473,0.000541049,-0.163057547,0.329847883,1.713460330,-0.001379742,-0.002899417,0.014948021,0.999882152,0.000000000,0.000000000,0.000000000,0.000000000,0.000000000,0.000000000,1.716669763,0.000000000,4.173413132
1772682921.548769236,0.013867000,0.006734000,0.054047000,-0.002360800,0.001094380,0.020541580,0.999785610,-0.004676000,0.002285000,0.041081000,0.000955751,-0.000801652,-0.000184421,0.002846170,-0.003171712,-0.006247352,0.010730338,-0.003654863,0.997949298,0.000772991,0.000343069,0.002257476,0.000000000,0.000000000,0.000000000,0.000000000,0.013994427,0.006744276,0.054048408,0.007507332,0.000346792,-0.000450426,0.002387720,0.000542867,-0.000424514,-0.159512067,0.350374829,1.710793654,-0.001346197,-0.003078033,0.014924583,0.999879762,0.000000000,0.000000000,0.000000000,0.000000000,0.000000000,0.000000000,1.731858802,0.000000000,4.175283623
1772682921.558768034,0.013843000,0.006776000,0.054086000,-0.002354810,0.000019500,0.020725450,0.999782430,-0.004708000,0.000137000,0.041454000,0.000798971,-0.000556760,-0.000313928,0.002143974,0.017559769,-0.014681886,0.010175892,-0.002203731,0.998533059,-0.000902078,0.001146139,0.001055050,0.000000000,0.000000000,0.000000000,0.000000000,0.013878712,0.006774391,0.054074026,0.007758457,0.000498984,-0.000487562,0.002965156,-0.000008685,-0.000632062,-0.160829631,0.347626467,1.734050894,-0.001357434,-0.003054500,0.015127515,0.999878325,0.000000000,0.000000000,0.000000000,0.000000000,0.000000000,0.000000000,1.739744170,0.000000000,4.175028773
1772682921.568768263,0.013854000,0.006795000,0.054087000,-0.002281340,-0.000709810,0.020909490,0.999778520,-0.004591000,-0.001324000,0.041825000,0.000457071,-0.000391453,-0.000637200,0.001736895,0.054148123,-0.026640311,0.009630538,-0.002264670,0.998818494,-0.000706081,0.002204690,0.001074613,0.000000000,0.000000000,0.000000000,0.000000000,0.013950358,0.006780675,0.054069348,0.008102871,0.000509920,-0.000612496,0.003429687,0.001192299,-0.000976673,-0.160157369,0.344690281,1.739114852,-0.001351818,-0.003028850,0.015171756,0.999878637,0.000000000,0.000000000,0.000000000,0.000000000,0.000000000,0.000000000,1.737879286,0.000000000,4.174773887
1772682921.578768492,0.013885000,0.006733000,0.054048000,-0.002396980,0.000708230,0.020452610,0.999787700,-0.004764000,0.001514000,0.040905000,0.000647942,-0.001218552,-0.001352313,0.000420393,0.149397862,-0.049084431,0.009561770,-0.004476977,0.999025315,0.001323569,0.001729131,0.001616983,0.000000000,0.000000000,0.000000000,0.000000000,0.014001407,0.006760961,0.054047470,0.008466366,0.000532435,-0.000741231,0.003368292,-0.002012316,-0.000750239,-0.161016031,0.342446221,1.737142220,-0.001359660,-0.003009360,0.015154550,0.999878813,0.000000000,0.000000000,0.000000000,0.000000000,0.000000000,0.000000000,1.736533399,0.000000000,4.174519000
1772682921.588768244,0.013873000,0.006734000,0.054034000,-0.002376920,0.001754410,0.020108060,0.999793450,-0.004682000,0.003604000,0.040211000,0.000127351,-0.000495397,-0.000473388,0.001662011,0.141923866,-0.044434648,0.010371248,-0.003972172,0.999455521,0.000490296,-0.000479716,-0.000591184,0.000000000,0.000000000,0.000000000,0.000000000,0.014021698,0.006752577,0.054031651,0.008774698,0.000334930,-0.000848570,0.004370017,-0.001319454,-0.000229258,-0.160680082,0.342144627,1.736062865,-0.001356797,-0.003006671,0.015145143,0.999879058,0.000000000,0.000000000,0.000000000,0.000000000,0.000000000,0.000000000,1.735128089,0.000000000,4.174264126
1772682921.598768234,0.013865000,0.006739000,0.054033000,-0.002344000,0.002533100,0.019927220,0.999795480,-0.004586000,0.005159000,0.039845000,0.000141880,-0.000402953,-0.000062782,0.003464255,0.115618188,-0.034197834,0.010643425,-0.002859319,0.999945424,-0.000576139,-0.000389631,-0.001902361,0.000000000,0.000000000,0.000000000,0.000000000,0.014028749,0.006749910,0.054026182,0.008981773,0.000215387,-0.000892573,0.003865839,0.001273284,0.001615286,-0.159656610,0.341762873,1.734597798,-0.001347955,-0.003003187,0.015132393,0.999879146,0.000000000,0.000000000,0.000000000,0.000000000,0.000000000,0.000000000,1.734229867,0.000000000,4.174009246
1772682921.608768225,0.013868000,0.006740000,0.054041000,-0.002378010,0.002930360,0.019766990,0.999797490,-0.004639000,0.005954000,0.039523000,-0.000351302,0.000521271,0.000685995,0.002689320,0.030793888,-0.012770340,0.010369544,-0.002680419,1.000523000,-0.000783860,0.001100710,-0.001882818,0.000000000,0.000000000,0.000000000,0.000000000,0.014031034,0.006749250,0.054025955,0.009047552,0.000228400,-0.000869242,0.004015301,0.001214136,0.001615286,-0.159646647,0.341937632,1.733976051,-0.001347861,-0.003004704,0.015126966,0.999879231,0.000000000,0.000000000,0.000000000,0.000000000,0.000000000,0.000000000,1.733587735,0.000000000,4.173754365
1772682921.618768454,0.013883000,0.006727000,0.054048000,-0.002360800,0.003358380,0.019671240,0.999798070,-0.004589000,0.006808000,0.039330000,-0.000063462,0.000364569,0.000590968,0.000136512,-0.018552256,0.000202843,0.010095655,-0.002501514,1.001100590,-0.000991586,0.002591087,-0.001863275,0.000000000,0.000000000,0.000000000,0.000000000,0.014033319,0.006748590,0.054025729,0.009113333,0.000241413,-0.000845911,0.004164767,0.001154987,0.001615286,-0.159636683,0.342112394,1.733354290,-0.001347768,-0.003006220,0.015121539,0.999879316,0.000000000,0.000000000,0.000000000,0.000000000,0.000000000,0.000000000,1.732945589,0.000000000,4.173499479
1772682921.628768206,0.013858000,0.006775000,0.054093000,-0.002311250,0.001396120,0.020157230,0.999793180,-0.004565000,0.002885000,0.040311000,-0.000187452,0.000320727,0.000390346,-0.004263037,-0.046958078,0.010202739,0.009821780,-0.002322618,1.001678153,-0.001199301,0.004081392,-0.001843732,0.000000000,0.000000000,0.000000000,0.000000000,0.014035605,0.006747930,0.054025502,0.009179111,0.000254426,-0.000822581,0.004314226,0.001095840,0.001615286,-0.159626721,0.342287148,1.732732559,-0.001347674,-0.003007736,0.015116112,0.999879401,0.000000000,0.000000000,0.000000000,0.000000000,0.000000000,0.000000000,1.732303473,0.000000000,4.173244605
1772682921.638767958,0.013866000,0.006753000,0.054052000,-0.002332460,0.001879640,0.020029880,0.999794890,-0.004589000,0.003852000,0.040054000,-0.000363617,0.000110742,-0.000114161,-0.005570086,-0.033486085,0.009868214,0.010390258,-0.002118222,1.001289651,-0.001807893,0.002966400,-0.001505908,0.000000000,0.000000000,0.000000000,0.000000000,0.014040331,0.006746067,0.054026184,0.009291104,0.000281130,-0.000765615,0.004463684,0.001036694,0.001615286,-0.159616758,0.342461902,1.732110827,-0.001347580,-0.003009252,0.015110685,0.999879631,0.000000000,0.000000000,0.000000000,0.000000000,0.000000000,0.000000000,1.731056941,0.000000000,4.172989730
1772682921.648767948,0.013864000,0.006741000,0.054042000,-0.002424380,0.002338440,0.019836600,0.999797560,-0.004755000,0.004772000,0.039665000,-0.000444289,0.000134518,-0.000214200,-0.003819439,-0.016982456,0.010751833,0.010574615,-0.002635882,1.000447377,0.001057431,-0.003818556,0.000633509,0.000000000,0.000000000,0.000000000,0.000000000,0.014051088,0.006752103,0.054044910,0.009702132,0.000400622,-0.000551636,0.004785241,0.000018870,0.000182154,-0.159755972,0.339859266,1.729620155,-0.001349203,-0.002986531,0.015088980,0.999880012,0.000000000,0.000000000,0.000000000,0.000000000,0.000000000,0.000000000,1.729150295,0.000000000,4.172734850
1772682921.658768415,0.013872000,0.006726000,0.054045000,-0.002462290,0.002654080,0.019856580,0.999796280,-0.004818000,0.005405000,0.039703000,-0.000520669,0.000625447,0.000341434,-0.000885844,-0.041687090,0.022851013,0.009781054,-0.002488284,1.000096342,-0.002498865,0.001738336,0.001052523,0.000000000,0.000000000,0.000000000,0.000000000,0.014054121,0.006761991,0.054051501,0.010004326,0.000449535,-0.000425884,0.003729658,0.000274196,-0.000408130,-0.159238243,0.341443583,1.727563718,-0.001344531,-0.003000264,0.015071031,0.999880071,0.000000000,0.000000000,0.000000000,0.000000000,0.000000000,0.000000000,1.727224713,0.000000000,4.172479957
1772682921.668767929,0.013828000,0.006796000,0.054080000,-0.002387380,0.001214590,0.020380130,0.999788720,-0.004724000,0.002526000,0.040757000,-0.000345863,0.000723505,0.000753594,0.004272703,-0.067257966,0.034350220,0.008012056,-0.002780573,0.999358665,-0.003068815,0.000839014,0.001370764,0.000000000,0.000000000,0.000000000,0.000000000,0.014060027,0.006753718,0.054040524,0.010185631,0.000488945,-0.000515371,0.001023647,0.000361930,-0.000855453,-0.159443019,0.341337342,1.726563489,-0.001346358,-0.002999351,0.015062299,0.999880338,0.000000000,0.000000000,0.000000000,0.000000000,0.000000000,0.000000000,1.725079881,0.000000000,4.172225089
1772682921.678768635,0.013862000,0.006743000,0.054053000,-0.002383520,0.001975780,0.020179450,0.999791580,-0.004686000,0.004047000,0.040352000,-0.000395319,0.000908140,0.000935432,0.005738398,-0.097416772,0.039900109,0.007595193,-0.002367717,0.999079244,-0.003132517,0.001215569,0.000544930,0.000000000,0.000000000,0.000000000,0.000000000,0.014053357,0.006763092,0.054046375,0.010076747,0.000538816,-0.000634930,0.002457785,-0.000518480,-0.001841681,-0.159158004,0.341808352,1.724067339,-0.001343875,-0.003003394,0.015040521,0.999880548,0.000000000,0.000000000,0.000000000,0.000000000,0.000000000,0.000000000,1.722646178,0.000000000,4.171970191
1772682921.688767910,0.013849000,0.006783000,0.054087000,-0.002295370,0.000794590,0.020582770,0.999785200,-0.004557000,0.001683000,0.041165000,0.000024942,0.000091589,0.000089452,0.004048414,-0.046314277,0.022846253,0.008871166,-0.001068982,0.999355967,-0.002771084,0.003447339,-0.001695828,0.000000000,0.000000000,0.000000000,0.000000000,0.014050071,0.006767267,0.054047104,0.010123079,0.000511007,-0.000847285,0.002468049,0.001207666,-0.001602621,-0.160065882,0.343035578,1.722641324,-0.001351673,-0.003014205,0.015028037,0.999880885,0.000000000,0.000000000,0.000000000,0.000000000,0.000000000,0.000000000,1.719982045,0.000000000,4.171715328
1772682921.698767900,0.013841000,0.006795000,0.054095000,-0.002262460,-0.000090960,0.020903980,0.999778920,-0.004528000,-0.000087000,0.041811000,0.000542794,-0.000818960,-0.000759480,0.000257149,0.031884919,-0.003518468,0.007575492,-0.001781742,0.999288463,-0.000401907,0.004238930,-0.002979184,0.000000000,0.000000000,0.000000000,0.000000000,0.014049056,0.006779454,0.054057434,0.010115734,0.000706869,-0.000892865,0.002076237,0.000528406,-0.000147015,-0.161114328,0.342301207,1.719471919,-0.001361000,-0.003007897,0.015000364,0.999881425,0.000000000,0.000000000,0.000000000,0.000000000,0.000000000,0.000000000,1.717388881,0.000000000,4.171460448
1772682921.708767414,0.013858000,0.006751000,0.054057000,-0.002302830,0.001108340,0.020547650,0.999785610,-0.004559000,0.002311000,0.041093000,0.001143474,-0.001477216,-0.001163715,-0.003939419,0.099005427,-0.025203967,0.009195780,-0.002947355,1.000650159,0.000468265,0.001877076,-0.002914672,0.000000000,0.000000000,0.000000000,0.000000000,0.014043634,0.006793436,0.054066594,0.010066497,0.000797075,-0.000825399,0.003730504,0.000059617,-0.000088687,-0.160973098,0.340494632,1.716342362,-0.001360086,-0.002992078,0.014973084,0.999881845,0.000000000,0.000000000,0.000000000,0.000000000,0.000000000,0.000000000,1.714617478,0.000000000,4.171205580
