t,px,py,pz,qx,qy,qz,qw,roll,pitch,yaw,vx,vy,vz,wx_vicon,wy_vicon,wz_vicon,imu_acc_x,imu_acc_y,imu_acc_z,imu_gyro_x,imu_gyro_y,imu_gyro_z,motor_motor_m1,motor_motor_m2,motor_motor_m3,motor_motor_m4,est_stateEstimate_x,est_stateEstimate_y,est_stateEstimate_z,est_stateEstimate_vx,est_stateEstimate_vy,est_stateEstimate_vz,est_stateEstimate_ax,est_stateEstimate_ay,est_stateEstimate_az,att_stateEstimate_roll,att_stateEstimate_pitch,att_stateEstimate_yaw,att_stateEstimate_qx,att_stateEstimate_qy,att_stateEstimate_qz,att_stateEstimate_qw,sp_ctrltarget_x,sp_ctrltarget_y,sp_ctrltarget_z,sp_ctrltarget_yaw,pid_controller_roll,pid_controller_pitch,pid_controller_yaw,pid_controller_cmd_thrust,pwr_pm_vbat
1772684231.079797506,0.013932000,0.004880000,0.071569000,-0.010752300,-0.023712080,-0.009355480,-0.999617230,0.021966000,0.047222000,0.019236000,0.001034519,0.001419718,-0.002598235,-0.030416611,-0.015050156,0.033946381,0.016868033,-0.002432682,1.000551663,-0.002117715,-0.000593592,0.004224236,0.000000000,0.000000000,0.000000000,0.000000000,0.014440593,0.004716261,0.071527841,0.052025094,-0.016128423,-0.004402582,0.015812593,-0.005230402,-0.000885256,0.182829393,0.038462637,0.803740683,0.001597800,-0.000324451,0.007014422,0.999973049,0.000000000,0.000000000,0.000000000,0.000000000,0.000000000,0.000000000,0.803360209,0.000000000,4.146324400
1772684231.089797497,0.013936000,0.004879000,0.071568000,-0.010699130,-0.023884210,-0.009441930,-0.999612890,0.021867000,0.047566000,0.019411000,0.000389647,0.000377992,-0.000830867,-0.008358129,0.005535456,0.006064722,0.015203900,-0.003178344,0.998547299,0.001317574,-0.003549538,0.001947256,0.000000000,0.000000000,0.000000000,0.000000000,0.014446831,0.004713310,0.071529389,0.052128603,-0.016205471,-0.004260586,0.015073256,-0.005460100,-0.000579647,0.181918758,0.038755546,0.805061734,0.001589875,-0.000327044,0.007025952,0.999972999,0.000000000,0.000000000,0.000000000,0.000000000,0.000000000,0.000000000,0.804725637,0.000000000,4.146869032
1772684231.099797487,0.013949000,0.004880000,0.071548000,-0.010701610,-0.023679250,-0.009431040,-0.999617840,0.021868000,0.047156000,0.019384000,0.000062840,-0.000214200,0.000193726,0.003735438,0.012700672,-0.006599113,0.015883427,-0.002524539,0.996785924,-0.000617364,0.000255298,-0.001172742,0.000000000,0.000000000,0.000000000,0.000000000,0.014444489,0.004712647,0.071534758,0.052089473,-0.016339565,-0.004151879,0.014718992,-0.005963229,-0.002288976,0.181619076,0.040613249,0.805092361,0.001587374,-0.000343273,0.007026244,0.999973009,0.000000000,0.000000000,0.000000000,0.000000000,0.000000000,0.000000000,0.805371188,0.000000000,4.147413663
1772684231.109797955,0.013941000,0.004891000,0.071553000,-0.010670070,-0.023714070,-0.009474020,-0.999616940,0.021807000,0.047225000,0.019470000,-0.000036111,-0.000454060,0.000631489,0.008150516,0.010532395,-0.008071127,0.014814107,-0.001982441,0.995800557,0.003735639,0.000163025,-0.003498760,0.000000000,0.000000000,0.000000000,0.000000000,0.014440292,0.004712478,0.071532793,0.052038812,-0.016456082,-0.004242870,0.014450409,-0.005071627,-0.003757849,0.181483823,0.040824746,0.803569919,0.001586202,-0.000345148,0.007012961,0.999973074,0.000000000,0.000000000,0.000000000,0.000000000,0.000000000,0.000000000,0.804229813,0.000000000,4.147958321
1772684231.119797707,0.013933000,0.004878000,0.071567000,-0.010671590,-0.023996950,-0.009328740,-0.999611540,0.021809000,0.047794000,0.019185000,0.000002584,-0.000438792,0.000638365,0.007175878,0.003117923,-0.002370816,0.014493583,-0.001100177,0.998495473,-0.003178350,0.002858149,0.001387489,0.000000000,0.000000000,0.000000000,0.000000000,0.014437350,0.004713493,0.071529961,0.051955541,-0.016486899,-0.004423316,0.014222058,-0.003992600,-0.002046378,0.181840666,0.040093787,0.802016701,0.001589267,-0.000338769,0.006999398,0.999973178,0.000000000,0.000000000,0.000000000,0.000000000,0.000000000,0.000000000,0.802272265,0.000000000,4.148502939
1772684231.129797459,0.013937000,0.004884000,0.071570000,-0.010820330,-0.023965010,-0.009306580,-0.999610920,0.022105000,0.047728000,0.019148000,0.000088714,-0.000265599,0.000370299,0.003100631,-0.005457960,0.006476548,0.015288877,-0.002723093,1.000805539,-0.002114018,0.001061320,-0.003606582,0.000000000,0.000000000,0.000000000,0.000000000,0.014438830,0.004714134,0.071526425,0.051851304,-0.016461021,-0.004444308,0.014396939,-0.005145584,0.000431907,0.180896111,0.038824853,0.801491465,0.001580945,-0.000327761,0.006994794,0.999973182,0.000000000,0.000000000,0.000000000,0.000000000,0.000000000,0.000000000,0.801981853,0.000000000,4.148973465
1772684231.139797449,0.013949000,0.004854000,0.071581000,-0.010777840,-0.023897440,-0.009504400,-0.999611130,0.022028000,0.047589000,0.019540000,-0.000417328,-0.000443241,0.000778866,-0.017781820,0.023351329,0.002952446,0.016498764,-0.002762265,0.999702221,0.002748220,0.004827782,0.004312048,0.000000000,0.000000000,0.000000000,0.000000000,0.014437468,0.004710873,0.071529492,0.051787359,-0.016530572,-0.004221642,0.015539187,-0.005595264,-0.000014404,0.180649615,0.037982010,0.799985242,0.001578738,-0.000320442,0.006981637,0.999973297,0.000000000,0.000000000,0.000000000,0.000000000,0.000000000,0.000000000,0.800299283,0.000000000,4.148973465
1772684231.149797201,0.013950000,0.004872000,0.071564000,-0.010783910,-0.023543730,-0.009545990,-0.999619060,0.022035000,0.046881000,0.019615000,-0.000009810,0.000299437,-0.000801263,0.005047468,-0.009494856,0.011801145,0.016093046,-0.001319794,0.999004701,-0.002195926,-0.000012934,-0.003743368,0.000000000,0.000000000,0.000000000,0.000000000,0.014439742,0.004709492,0.071532581,0.051844547,-0.016649443,-0.004011423,0.015713772,-0.004704632,-0.000463920,0.181154787,0.036713418,0.799667108,0.001583069,-0.000309345,0.006978846,0.999973316,0.000000000,0.000000000,0.000000000,0.000000000,0.000000000,0.000000000,0.800177099,0.000000000,4.148973465
1772684231.159796715,0.013939000,0.004880000,0.071565000,-0.010698250,-0.023797990,-0.009580560,-0.999613630,0.021871000,0.047390000,0.019686000,0.000358217,0.000756838,-0.001680110,0.035170645,-0.044417511,0.021686551,0.016094366,-0.000740127,0.997689012,0.002163317,-0.000033240,0.001098401,0.000000000,0.000000000,0.000000000,0.000000000,0.014444824,0.004705977,0.071529789,0.051908374,-0.016649605,-0.003931267,0.015677023,-0.003613739,-0.001608179,0.180638320,0.035960093,0.797521802,0.001578510,-0.000302832,0.006960113,0.999973476,0.000000000,0.000000000,0.000000000,0.000000000,0.000000000,0.000000000,0.797795272,0.000000000,4.148973465
1772684231.169795990,0.013932000,0.004881000,0.071561000,-0.010706270,-0.023922710,-0.009588400,-0.999610500,0.021890000,0.047639000,0.019705000,0.000591104,0.000452506,-0.001507305,0.053715383,-0.059893414,0.019724436,0.016435189,-0.002980411,0.999563858,0.000620940,0.000761721,0.000499855,0.000000000,0.000000000,0.000000000,0.000000000,0.014441392,0.004707278,0.071527314,0.051947035,-0.016574740,-0.003946155,0.015884633,-0.005046629,-0.001508954,0.180801933,0.035501637,0.797367952,0.001579910,-0.000298824,0.006958765,0.999973487,0.000000000,0.000000000,0.000000000,0.000000000,0.000000000,0.000000000,0.797466258,0.000000000,4.148973465
1772684231.179795980,0.013926000,0.004872000,0.071561000,-0.010765440,-0.024048240,-0.009514130,-0.999607560,0.022007000,0.047891000,0.019562000,0.000790502,0.000108469,-0.000787918,0.055939474,-0.063025719,0.016782918,0.015750863,-0.001565296,0.998274832,-0.001328766,-0.000295909,0.000333315,0.000000000,0.000000000,0.000000000,0.000000000,0.014442777,0.004705041,0.071528227,0.052023197,-0.016653933,-0.003880781,0.015079041,-0.005167453,-0.001283744,0.180350986,0.034877946,0.797097313,0.001575936,-0.000293412,0.006956394,0.999973536,0.000000000,0.000000000,0.000000000,0.000000000,0.000000000,0.000000000,0.797133575,0.000000000,4.148973465
1772684231.189795494,0.013992000,0.004921000,0.071452000,-0.012372680,-0.021880940,-0.010073320,-0.999633270,0.025204000,0.043510000,0.020702000,0.000508761,-0.000449243,0.000330711,0.030234354,-0.039396020,0.010712044,0.013791060,-0.000484228,0.998624631,-0.001047683,-0.000436540,0.003796550,0.000000000,0.000000000,0.000000000,0.000000000,0.014442635,0.004705130,0.071530552,0.052036912,-0.016676065,-0.003841939,0.014339278,-0.003989206,-0.001736858,0.179760691,0.034520296,0.797144898,0.001570764,-0.000290327,0.006956803,0.999973536,0.000000000,0.000000000,0.000000000,0.000000000,0.000000000,0.000000000,0.797162484,0.000000000,4.148973465
1772684231.199795485,0.013970000,0.004868000,0.071545000,-0.011802320,-0.022625860,-0.009901620,-0.999625300,0.024071000,0.045016000,0.020352000,-0.000020940,-0.000515191,0.000921660,-0.008178822,0.005673045,-0.002852681,0.015214178,-0.001854993,0.996859402,0.001874385,-0.000439091,0.000109004,0.000000000,0.000000000,0.000000000,0.000000000,0.014443149,0.004703939,0.071531594,0.051940302,-0.016627505,-0.003827626,0.013682736,-0.004460956,-0.002429132,0.179035093,0.034496251,0.796907346,0.001564430,-0.000290164,0.006954728,0.999973536,0.000000000,0.000000000,0.000000000,0.000000000,0.000000000,0.000000000,0.797086829,0.000000000,4.148973465
1772684231.209795237,0.013957000,0.004856000,0.071574000,-0.011336430,-0.023102120,-0.009705950,-0.999621710,0.023139000,0.045983000,0.019951000,-0.000736170,-0.000442910,0.001320922,-0.042002230,0.062260740,-0.013690295,0.015689839,-0.002824754,0.997001428,0.001333423,-0.002149050,0.004875662,0.000000000,0.000000000,0.000000000,0.000000000,0.014444831,0.004700616,0.071532017,0.051865067,-0.016622314,-0.003899079,0.014935443,-0.004876483,-0.003013870,0.179254134,0.035148821,0.796137008,0.001566379,-0.000295856,0.006948015,0.999973653,0.000000000,0.000000000,0.000000000,0.000000000,0.000000000,0.000000000,0.796248878,0.000000000,4.148973465
1772684231.219794750,0.013946000,0.004872000,0.071574000,-0.011027600,-0.023466340,-0.009716800,-0.999616580,0.022529000,0.046717000,0.019967000,-0.001240328,-0.000204099,0.001295533,-0.062238261,0.102115029,-0.020395759,0.015706062,-0.001604008,0.996882229,-0.000708479,-0.004642476,-0.000067449,0.000000000,0.000000000,0.000000000,0.000000000,0.014443891,0.004703528,0.071528650,0.051857070,-0.016668839,-0.004037709,0.015236084,-0.005393631,-0.003918421,0.179089728,0.035696651,0.797463145,0.001564980,-0.000300628,0.006959593,0.999973488,0.000000000,0.000000000,0.000000000,0.000000000,0.000000000,0.000000000,0.796966294,0.000000000,4.148973465
1772684231.229794502,0.013922000,0.004874000,0.071575000,-0.010656530,-0.024155090,-0.009549460,-0.999605810,0.021793000,0.048106000,0.019630000,-0.001197651,0.000062374,0.000670921,-0.053720987,0.097536348,-0.018660269,0.014930168,-0.001626498,0.996669303,0.000499863,-0.002637382,-0.000374593,0.000000000,0.000000000,0.000000000,0.000000000,0.014441000,0.004709546,0.071524373,0.051861965,-0.016689120,-0.004183075,0.015146902,-0.004380361,-0.003634064,0.178959214,0.036837174,0.795748223,0.001563906,-0.000310612,0.006944644,0.999973559,0.000000000,0.000000000,0.000000000,0.000000000,0.000000000,0.000000000,0.796590511,0.000000000,4.148973465
1772684231.239794254,0.013932000,0.004873000,0.071557000,-0.010669250,-0.024493150,-0.009508550,-0.999597840,0.021823000,0.048783000,0.019557000,-0.000078458,0.000526205,-0.000745921,-0.012837939,0.035216127,-0.003728786,0.015249667,-0.002527090,0.996738322,0.000084652,0.000296716,-0.001110546,0.000000000,0.000000000,0.000000000,0.000000000,0.014438978,0.004712899,0.071524349,0.051847560,-0.016668929,-0.004315153,0.014235031,-0.005188818,-0.002982742,0.179346784,0.036975032,0.795177980,0.001567295,-0.000311800,0.006939671,0.999973631,0.000000000,0.000000000,0.000000000,0.000000000,0.000000000,0.000000000,0.795422313,0.000000000,4.148973465
1772684231.249794006,0.013928000,0.004877000,0.071565000,-0.010796230,-0.024383790,-0.009606740,-0.999598210,0.022080000,0.048560000,0.019757000,0.000251477,0.000026088,-0.000076729,-0.005500217,0.003833230,-0.004209785,0.016469404,-0.003387179,0.996821042,0.000176775,-0.000036895,-0.001125472,0.000000000,0.000000000,0.000000000,0.000000000,0.014440044,0.004715760,0.071526061,0.051800538,-0.016725111,-0.004430786,0.015674543,-0.006918058,-0.002548061,0.178977082,0.036755771,0.793596303,0.001564051,-0.000309930,0.006925864,0.999973727,0.000000000,0.000000000,0.000000000,0.000000000,0.000000000,0.000000000,0.794378146,0.000000000,4.148973465
1772684231.259793520,0.013931000,0.004879000,0.071570000,-0.010655440,-0.024362800,-0.009558310,-0.999600700,0.021795000,0.048521000,0.019653000,0.000358761,-0.000220688,0.000240832,0.000669578,-0.018834265,-0.009443955,0.015980904,-0.002437936,0.997156823,0.003602663,-0.001947772,0.001477843,0.000000000,0.000000000,0.000000000,0.000000000,0.014440088,0.004711394,0.071526999,0.051864634,-0.016910733,-0.004520327,0.015045429,-0.005071355,-0.002946440,0.178771460,0.037657671,0.792925235,0.001562310,-0.000317822,0.006920020,0.999973774,0.000000000,0.000000000,0.000000000,0.000000000,0.000000000,0.000000000,0.792981871,0.000000000,4.148973465
1772684231.269792318,0.013938000,0.004871000,0.071569000,-0.010696440,-0.024113540,-0.009518170,-0.999606690,0.021870000,0.048023000,0.019569000,0.000151204,-0.000112452,0.000310703,0.006403329,-0.026744856,-0.011864406,0.015496209,-0.001625868,0.997079090,0.002997335,-0.000324101,0.000052787,0.000000000,0.000000000,0.000000000,0.000000000,0.014435149,0.004706630,0.071536397,0.051916687,-0.017028348,-0.004572734,0.015033851,-0.004315157,-0.002828672,0.179484748,0.038825452,0.792834081,0.001568604,-0.000327971,0.006919242,0.999973774,0.000000000,0.000000000,0.000000000,0.000000000,0.000000000,0.000000000,0.792863914,0.000000000,4.148973465
1772684231.279792309,0.013947000,0.004868000,0.071573000,-0.010555550,-0.024139840,-0.009389280,-0.999608770,0.021583000,0.048081000,0.019304000,-0.000086228,0.000005167,0.000103438,0.005057126,-0.023998184,-0.013482510,0.016367965,-0.002050020,0.997487243,-0.000637514,0.001387410,-0.001275764,0.000000000,0.000000000,0.000000000,0.000000000,0.014439508,0.004703923,0.071530717,0.051910074,-0.016981165,-0.004639025,0.015073251,-0.004650151,-0.002442385,0.179674285,0.039083885,0.792352801,0.001570273,-0.000330221,0.006915047,0.999973798,0.000000000,0.000000000,0.000000000,0.000000000,0.000000000,0.000000000,0.792647186,0.000000000,4.148973465
1772684231.289792299,0.013930000,0.004872000,0.071582000,-0.010667390,-0.023873660,-0.009289590,-0.999614910,0.021796000,0.047549000,0.019104000,-0.000207051,-0.000010956,-0.000109790,0.003577097,-0.018038182,-0.010831200,0.016687647,-0.001227581,1.000335393,-0.000890717,-0.000214582,0.002748728,0.000000000,0.000000000,0.000000000,0.000000000,0.014446798,0.004706732,0.071516256,0.051988512,-0.017006959,-0.004804963,0.015984242,-0.004710213,-0.000756252,0.179556415,0.039351814,0.792460231,0.001569261,-0.000332565,0.006915988,0.999973819,0.000000000,0.000000000,0.000000000,0.000000000,0.000000000,0.000000000,0.791982989,0.000000000,4.148973465
1772684231.299791098,0.013928000,0.004873000,0.071567000,-0.010846550,-0.024049920,-0.009255420,-0.999609070,0.022157000,0.047899000,0.019048000,-0.000276302,0.000087082,-0.000030556,0.003963429,-0.013869324,-0.000561759,0.017984950,-0.002870389,0.999597968,-0.000232485,0.003033626,0.001860878,0.000000000,0.000000000,0.000000000,0.000000000,0.014447417,0.004706511,0.071516045,0.052071397,-0.016976617,-0.004650670,0.017059606,-0.005103212,0.000137123,0.179518418,0.040088978,0.793168403,0.001568976,-0.000338990,0.006922178,0.999973781,0.000000000,0.000000000,0.000000000,0.000000000,0.000000000,0.000000000,0.793160771,0.000000000,4.148973465
1772684231.309791088,0.013927000,0.004877000,0.071569000,-0.010836040,-0.023922100,-0.009334190,-0.999611520,0.022137000,0.047641000,0.019203000,0.000013384,-0.000016511,-0.000040035,-0.002764078,-0.014456638,0.010712085,0.016538289,-0.003802870,0.999159940,0.002899319,0.001981885,-0.000744821,0.000000000,0.000000000,0.000000000,0.000000000,0.014445918,0.004709426,0.071518737,0.052215881,-0.017010450,-0.004493214,0.016966491,-0.006445418,-0.001248281,0.179018701,0.040137782,0.792323460,0.001564615,-0.000339458,0.006914804,0.999973830,0.000000000,0.000000000,0.000000000,0.000000000,0.000000000,0.000000000,0.792734357,0.000000000,4.148973465
1772684231.319791079,0.013937000,0.004875000,0.071564000,-0.010656870,-0.023654400,-0.009413780,-0.999619070,0.021777000,0.047108000,0.019347000,0.000146387,-0.000085023,-0.000131508,-0.005173409,-0.013431811,0.016246271,0.015423332,-0.002366672,0.998237094,0.001297307,-0.002667668,0.000620886,0.000000000,0.000000000,0.000000000,0.000000000,0.014443752,0.004711017,0.071521194,0.052334483,-0.017146568,-0.004376495,0.015032535,-0.006763081,-0.001362141,0.179788705,0.039968119,0.789997152,0.001571318,-0.000337963,0.006894503,0.999973931,0.000000000,0.000000000,0.000000000,0.000000000,0.000000000,0.000000000,0.791001771,0.000000000,4.148973465
1772684231.329790115,0.013927000,0.004866000,0.071579000,-0.010581620,-0.023795060,-0.009428440,-0.999616390,0.021630000,0.047390000,0.019376000,0.000321484,-0.000222805,-0.000116511,-0.011263673,0.003084112,0.014653247,0.015442779,-0.001077214,0.997266228,0.001157982,-0.002628987,0.000443883,0.000000000,0.000000000,0.000000000,0.000000000,0.014441987,0.004709030,0.071525047,0.052337058,-0.017271364,-0.004324907,0.014302745,-0.003831967,-0.002594577,0.179372812,0.041068985,0.789410540,0.001567753,-0.000347603,0.006889398,0.999973998,0.000000000,0.000000000,0.000000000,0.000000000,0.000000000,0.000000000,0.789627996,0.000000000,4.148973465
1772684231.339790344,0.013940000,0.004872000,0.071573000,-0.010683660,-0.023784570,-0.009589760,-0.999614020,0.021841000,0.047364000,0.019704000,0.000116239,-0.000150661,-0.000007673,-0.006923955,0.011056540,0.007048135,0.015418551,-0.001417861,0.997378316,-0.000823310,0.000317290,0.000157812,0.000000000,0.000000000,0.000000000,0.000000000,0.014440654,0.004707495,0.071529171,0.052292672,-0.017253484,-0.004348454,0.014865507,-0.004587417,-0.002504516,0.179878057,0.041437138,0.789407704,0.001572184,-0.000350785,0.006889380,0.999973977,0.000000000,0.000000000,0.000000000,0.000000000,0.000000000,0.000000000,0.789382782,0.000000000,4.148973465
1772684231.349790096,0.013945000,0.004863000,0.071563000,-0.010606770,-0.023672080,-0.009632790,-0.999617100,0.021687000,0.047139000,0.019784000,0.000003710,-0.000083256,-0.000115832,0.001864787,0.017962953,-0.000246633,0.015449536,-0.002256143,0.997885825,-0.002479386,0.002820239,-0.001115682,0.000000000,0.000000000,0.000000000,0.000000000,0.014440024,0.004706615,0.071526067,0.052272608,-0.017206203,-0.004432477,0.014530462,-0.005615770,-0.002373055,0.178669613,0.041010497,0.789145237,0.001561612,-0.000347138,0.006887080,0.999973983,0.000000000,0.000000000,0.000000000,0.000000000,0.000000000,0.000000000,0.789322439,0.000000000,4.148973465
1772684231.359789610,0.013927000,0.004873000,0.071563000,-0.010667290,-0.024030200,-0.009504240,-0.999609140,0.021810000,0.047857000,0.019537000,0.000014744,-0.000181197,0.000005556,0.005767237,0.015491323,-0.005861198,0.015895698,-0.002272608,0.998524305,0.000081272,0.002260172,-0.001430012,0.000000000,0.000000000,0.000000000,0.000000000,0.014443389,0.004708421,0.071523042,0.052249278,-0.017264605,-0.004467942,0.015091852,-0.005562215,-0.001640289,0.177966851,0.039738509,0.787454248,0.001555398,-0.000336103,0.006872304,0.999974076,0.000000000,0.000000000,0.000000000,0.000000000,0.000000000,0.000000000,0.788335392,0.000000000,4.148973465
1772684231.369789600,0.013940000,0.004862000,0.071568000,-0.010574190,-0.024249410,-0.009501390,-0.999604860,0.021628000,0.048297000,0.019532000,0.000067094,-0.000109227,-0.000061674,0.001696186,0.005665851,-0.005800598,0.016022286,-0.001165496,0.998656799,0.001212397,-0.000792584,0.002146908,0.000000000,0.000000000,0.000000000,0.000000000,0.014452314,0.004704763,0.071517883,0.052302368,-0.017332713,-0.004478322,0.015465605,-0.003824131,-0.001324405,0.177727545,0.039063513,0.786572631,0.001553267,-0.000330239,0.006864600,0.999974165,0.000000000,0.000000000,0.000000000,0.000000000,0.000000000,0.000000000,0.786577327,0.000000000,4.148973465
1772684231.379789829,0.013933000,0.004870000,0.071571000,-0.010726980,-0.023940240,-0.009429810,-0.999611360,0.021924000,0.047678000,0.019389000,-0.000102409,-0.000041511,-0.000014433,0.002997212,0.003555159,-0.004654227,0.015897701,-0.000180443,0.998037882,0.001320085,-0.000088364,0.002012973,0.000000000,0.000000000,0.000000000,0.000000000,0.014447007,0.004705448,0.071525283,0.052311130,-0.017277242,-0.004377788,0.014946656,-0.003182964,-0.002962019,0.178503394,0.039369912,0.786163385,0.001560054,-0.000332872,0.006861036,0.999974191,0.000000000,0.000000000,0.000000000,0.000000000,0.000000000,0.000000000,0.786373470,0.000000000,4.148973465
1772684231.389789581,0.013939000,0.004862000,0.071568000,-0.010716710,-0.023919230,-0.009481530,-0.999611490,0.021905000,0.047635000,0.019492000,-0.000041356,0.000272650,-0.000030692,0.005396055,-0.000764995,0.002883465,0.015115458,-0.002180824,0.999408621,-0.001141483,0.000219062,0.000008235,0.000000000,0.000000000,0.000000000,0.000000000,0.014447337,0.004709186,0.071527821,0.052338831,-0.017108252,-0.004416155,0.014204403,-0.005517733,-0.000359777,0.178826486,0.039144553,0.785611218,0.001562859,-0.000330894,0.006856215,0.999974226,0.000000000,0.000000000,0.000000000,0.000000000,0.000000000,0.000000000,0.785811576,0.000000000,4.148973465
1772684231.399789572,0.013941000,0.004858000,0.071570000,-0.010680740,-0.024015760,-0.009474770,-0.999609620,0.021835000,0.047829000,0.019479000,0.000071717,0.000379876,-0.000279565,0.007426374,-0.008303945,0.009404684,0.015563073,-0.003582731,0.999469727,-0.001077651,-0.000250667,-0.003833563,0.000000000,0.000000000,0.000000000,0.000000000,0.014445918,0.004706040,0.071534470,0.052272065,-0.017134950,-0.004276175,0.014638293,-0.006874800,-0.000097572,0.178019955,0.039060982,0.784197854,0.001555811,-0.000330232,0.006843878,0.999974324,0.000000000,0.000000000,0.000000000,0.000000000,0.000000000,0.000000000,0.784852902,0.000000000,4.148973465
1772684231.409789801,0.013933000,0.004880000,0.071556000,-0.010669560,-0.023988360,-0.009590680,-0.999609290,0.021818000,0.047771000,0.019710000,-0.000233528,0.000430187,0.000029040,0.006564667,-0.001970865,0.008275649,0.016729989,-0.001413872,0.998278404,-0.000933232,0.001388927,-0.000531728,0.000000000,0.000000000,0.000000000,0.000000000,0.014443072,0.004702558,0.071533882,0.052234139,-0.017340800,-0.004120956,0.016279289,-0.005040420,-0.001625924,0.177456697,0.038443611,0.782232447,0.001550854,-0.000324905,0.006826717,0.999974441,0.000000000,0.000000000,0.000000000,0.000000000,0.000000000,0.000000000,0.783045080,0.000000000,4.148973465
1772684231.419789553,0.013929000,0.004878000,0.071563000,-0.010852310,-0.024086850,-0.009537690,-0.999605460,0.022183000,0.047966000,0.019614000,-0.000237374,0.000132848,0.000424068,-0.000124272,0.007745916,0.004050394,0.016554863,-0.001177295,0.997865923,0.000152309,-0.001410455,0.000692862,0.000000000,0.000000000,0.000000000,0.000000000,0.014441008,0.004702564,0.071527373,0.052309263,-0.017392230,-0.004108321,0.016189946,-0.005206403,-0.001877572,0.176800989,0.037727808,0.782124058,0.001545089,-0.000318699,0.006825760,0.999974459,0.000000000,0.000000000,0.000000000,0.000000000,0.000000000,0.000000000,0.781880247,0.000000000,4.148973465
1772684231.429789543,0.013935000,0.004884000,0.071571000,-0.010776790,-0.023990550,-0.009635790,-0.999607660,0.022034000,0.047773000,0.019805000,-0.000101981,0.000015307,0.000288287,-0.002716189,0.003600873,-0.002616626,0.015193573,-0.003520847,0.999255972,0.001703792,-0.003925398,-0.001908577,0.000000000,0.000000000,0.000000000,0.000000000,0.014441426,0.004703173,0.071525655,0.052446200,-0.017312657,-0.004147830,0.015135869,-0.006000977,-0.001083426,0.177116327,0.038497397,0.780667809,0.001547882,-0.000325416,0.006813063,0.999974510,0.000000000,0.000000000,0.000000000,0.000000000,0.000000000,0.000000000,0.781789605,0.000000000,4.148973465
1772684231.439789534,0.013937000,0.004873000,0.071565000,-0.010823320,-0.023897820,-0.009610560,-0.999609620,0.022124000,0.047587000,0.019755000,0.000187762,-0.000289064,0.000041239,-0.008909609,0.003342501,-0.008011645,0.014688263,-0.003256487,1.000396708,-0.000710694,-0.001119532,0.000561156,0.000000000,0.000000000,0.000000000,0.000000000,0.014440125,0.004707950,0.071526423,0.052434133,-0.017445755,-0.004096242,0.014036176,-0.005825449,-0.000333256,0.177363105,0.039364924,0.779050543,0.001550083,-0.000332993,0.006798963,0.999974629,0.000000000,0.000000000,0.000000000,0.000000000,0.000000000,0.000000000,0.779265283,0.000000000,4.148973465
1772684231.449789524,0.013921000,0.004868000,0.071593000,-0.010619510,-0.024112110,-0.009480200,-0.999607900,0.021715000,0.048022000,0.019489000,0.000299087,-0.000250894,-0.000127622,-0.014039781,0.002058537,-0.011007584,0.014796606,-0.001695938,0.997886040,0.000798697,-0.000380315,0.000590454,0.000000000,0.000000000,0.000000000,0.000000000,0.014439292,0.004711445,0.071525702,0.052354409,-0.017537440,-0.003935884,0.014207633,-0.005318843,-0.001802236,0.177204102,0.039405971,0.778388294,0.001548696,-0.000333370,0.006793184,0.999974676,0.000000000,0.000000000,0.000000000,0.000000000,0.000000000,0.000000000,0.778762983,0.000000000,4.148973465
1772684231.459789515,0.013937000,0.004867000,0.071570000,-0.010570880,-0.024181350,-0.009430270,-0.999607220,0.021616000,0.048163000,0.019388000,0.000182576,0.000048232,-0.000454973,-0.011689692,-0.000789571,-0.010467329,0.016087706,-0.004522671,0.996475442,0.001315462,-0.004475703,0.000225094,0.000000000,0.000000000,0.000000000,0.000000000,0.014442019,0.004704207,0.071533840,0.052285432,-0.017590613,-0.003907821,0.015024041,-0.006083623,-0.003285668,0.177543499,0.039507278,0.777627727,0.001551661,-0.000334244,0.006786549,0.999974728,0.000000000,0.000000000,0.000000000,0.000000000,0.000000000,0.000000000,0.777860910,0.000000000,4.148973465
1772684231.469789505,0.013948000,0.004876000,0.071545000,-0.010602330,-0.023971690,-0.009416810,-0.999612060,0.021674000,0.047743000,0.019358000,0.000023951,0.000183489,-0.000238947,0.000210180,-0.010932521,-0.006642154,0.015159142,-0.002044104,0.998178135,0.001058463,0.001966419,-0.004595351,0.000000000,0.000000000,0.000000000,0.000000000,0.014450347,0.004694606,0.071538334,0.052323498,-0.017812559,-0.004031706,0.014823517,-0.005792188,-0.002019655,0.177914504,0.039240839,0.776525637,0.001554880,-0.000331912,0.006776929,0.999974754,0.000000000,0.000000000,0.000000000,0.000000000,0.000000000,0.000000000,0.777251242,0.000000000,4.148973465
1772684231.479789495,0.013940000,0.004872000,0.071563000,-0.010548870,-0.023997270,-0.009389630,-0.999612270,0.021567000,0.047796000,0.019302000,-0.000117463,0.000219814,-0.000021698,0.010043000,-0.020912863,0.003232326,0.014666886,-0.002285109,0.999386726,0.001702571,0.001592658,0.002662786,0.000000000,0.000000000,0.000000000,0.000000000,0.014450424,0.004695800,0.071534542,0.052276099,-0.017840711,-0.004077808,0.014328527,-0.004542035,-0.000754218,0.178046600,0.037811358,0.775260151,0.001555944,-0.000319447,0.006765867,0.999974833,0.000000000,0.000000000,0.000000000,0.000000000,0.000000000,0.000000000,0.775105429,0.000000000,4.148973465
1772684231.489789486,0.013932000,0.004884000,0.071568000,-0.010624540,-0.023863170,-0.009421900,-0.999614370,0.021717000,0.047526000,0.019367000,-0.000372514,0.000155497,0.000207323,0.015862795,-0.016955296,0.006153872,0.015123482,-0.001544732,0.998924699,-0.001642279,0.001491409,0.002618861,0.000000000,0.000000000,0.000000000,0.000000000,0.014446153,0.004699061,0.071526985,0.052160446,-0.017829979,-0.003995812,0.014124055,-0.005009551,-0.001052840,0.177629616,0.037199712,0.775382199,0.001552270,-0.000314133,0.006766922,0.999974803,0.000000000,0.000000000,0.000000000,0.000000000,0.000000000,0.000000000,0.775562373,0.000000000,4.148973465
1772684231.499789715,0.013930000,0.004875000,0.071565000,-0.010785520,-0.023807180,-0.009414920,-0.999614050,0.022038000,0.047411000,0.019359000,-0.000239161,-0.000012646,0.000281721,0.013049826,-0.004573880,0.005343694,0.016562381,-0.001827323,0.998313187,0.000944338,-0.001199211,0.003380783,0.000000000,0.000000000,0.000000000,0.000000000,0.014438497,0.004709464,0.071525852,0.052037084,-0.017753126,-0.003930470,0.015364159,-0.004774062,-0.002651071,0.177014419,0.036985279,0.775300357,0.001546888,-0.000312299,0.006766203,0.999974847,0.000000000,0.000000000,0.000000000,0.000000000,0.000000000,0.000000000,0.775077200,0.000000000,4.148973465
1772684231.509789944,0.013929000,0.004875000,0.071580000,-0.010880660,-0.023584270,-0.009532300,-0.999617190,0.022229000,0.046960000,0.019593000,0.000050486,-0.000181624,0.000028302,0.007309963,0.005978102,0.001244339,0.016277539,-0.002967996,0.998446454,-0.001343230,0.000356025,0.000498830,0.000000000,0.000000000,0.000000000,0.000000000,0.014428826,0.004712142,0.071527334,0.052055165,-0.017707974,-0.003948540,0.015947600,-0.005576255,-0.001563379,0.176955945,0.036942769,0.776105914,0.001546378,-0.000311920,0.006773233,0.999974828,0.000000000,0.000000000,0.000000000,0.000000000,0.000000000,0.000000000,0.775765595,0.000000000,4.148973465
1772684231.519789457,0.013928000,0.004873000,0.071564000,-0.010860590,-0.023860380,-0.009531540,-0.999610860,0.022194000,0.047513000,0.019597000,0.000305226,-0.000047650,-0.000312063,0.003836836,0.007525308,-0.002220079,0.014841658,-0.002691755,0.997827044,-0.000483262,0.000668720,-0.001485828,0.000000000,0.000000000,0.000000000,0.000000000,0.014425735,0.004707603,0.071532674,0.052105189,-0.017798372,-0.003894351,0.014764551,-0.006042108,-0.002156068,0.176361719,0.035896401,0.776619264,0.001541132,-0.000302817,0.006777697,0.999974787,0.000000000,0.000000000,0.000000000,0.000000000,0.000000000,0.000000000,0.776656390,0.000000000,4.148973465
1772684231.529789448,0.013933000,0.004880000,0.071565000,-0.010773360,-0.024071860,-0.009392410,-0.999608050,0.022018000,0.047941000,0.019320000,0.000306935,0.000012315,-0.000058159,0.000705274,0.006385846,-0.003800943,0.014886746,-0.003256029,0.997007136,-0.002027358,-0.006891159,-0.001680327,0.000000000,0.000000000,0.000000000,0.000000000,0.014433779,0.004700925,0.071534527,0.052066366,-0.017874622,-0.003919144,0.014151756,-0.005787052,-0.003150925,0.176076030,0.035287844,0.776386440,0.001538602,-0.000297527,0.006775656,0.999974800,0.000000000,0.000000000,0.000000000,0.000000000,0.000000000,0.000000000,0.776562580,0.000000000,4.148973465
1772684231.539788723,0.013955000,0.004870000,0.071552000,-0.010801200,-0.023899050,-0.009442840,-0.999611430,0.022072000,0.047594000,0.019418000,0.000161713,0.000044988,0.000279565,-0.000757440,0.000635498,-0.003912170,0.017030393,-0.002063111,0.998447981,0.001010701,-0.001558359,-0.005031003,0.000000000,0.000000000,0.000000000,0.000000000,0.014443549,0.004695286,0.071538843,0.051978606,-0.017986106,-0.004023670,0.015660317,-0.005425137,-0.002191402,0.175938753,0.035867723,0.775599617,0.001537437,-0.000302606,0.006768797,0.999974860,0.000000000,0.000000000,0.000000000,0.000000000,0.000000000,0.000000000,0.776020156,0.000000000,4.148973465
1772684231.549788475,0.013930000,0.004873000,0.071576000,-0.010790020,-0.023895080,-0.009368690,-0.999612340,0.022046000,0.047587000,0.019269000,-0.000064491,-0.000081236,0.000315773,-0.002321269,-0.002809195,-0.001777033,0.017397958,-0.002738659,0.998790964,-0.001299326,-0.002923541,-0.003180777,0.000000000,0.000000000,0.000000000,0.000000000,0.014447793,0.004695166,0.071533121,0.052052211,-0.017990760,-0.004050875,0.016442388,-0.005527045,-0.001324971,0.176572433,0.035834090,0.774403374,0.001542961,-0.000302291,0.006758360,0.999974911,0.000000000,0.000000000,0.000000000,0.000000000,0.000000000,0.000000000,0.774977840,0.000000000,4.148973465
1772684231.559787989,0.013937000,0.004883000,0.071570000,-0.010901290,-0.023816950,-0.009445580,-0.999612270,0.022271000,0.047427000,0.019426000,-0.000228633,-0.000168299,0.000302331,-0.005104404,0.002190280,0.003166290,0.015195510,-0.003011256,1.000026345,-0.002189148,-0.002989292,-0.003821481,0.000000000,0.000000000,0.000000000,0.000000000,0.014448151,0.004696505,0.071526732,0.052130443,-0.018020307,-0.004024355,0.014831569,-0.005620240,-0.000075083,0.176153974,0.036756648,0.773232667,0.001539361,-0.000310382,0.006748156,0.999974970,0.000000000,0.000000000,0.000000000,0.000000000,0.000000000,0.000000000,0.773768510,0.000000000,4.148973465
1772684231.569788218,0.013935000,0.004872000,0.071583000,-0.010843200,-0.023836060,-0.009477320,-0.999612150,0.022157000,0.047466000,0.019487000,-0.000330498,-0.000152506,0.000010820,-0.007555756,0.018764157,0.008215799,0.015068606,-0.002035797,0.999203954,-0.001759781,0.003047017,-0.000238462,0.000000000,0.000000000,0.000000000,0.000000000,0.014440565,0.004700109,0.071528426,0.052070307,-0.018056814,-0.003863189,0.014778031,-0.005315952,0.000360595,0.175382839,0.037517535,0.771887432,0.001532672,-0.000317085,0.006736424,0.999975085,0.000000000,0.000000000,0.000000000,0.000000000,0.000000000,0.000000000,0.772220681,0.000000000,4.148973465
1772684231.579787493,0.013931000,0.004866000,0.071578000,-0.010710390,-0.023995530,-0.009458020,-0.999609950,0.021893000,0.047788000,0.019446000,-0.000307265,0.000191337,-0.000347300,-0.005115748,0.025735259,0.008464900,0.015941187,-0.001846413,0.999532594,-0.001602525,-0.001747506,0.002820748,0.000000000,0.000000000,0.000000000,0.000000000,0.014430022,0.004702335,0.071533292,0.051932700,-0.018053198,-0.003680598,0.015149266,-0.004742194,-0.001261169,0.174776889,0.036090540,0.772432587,0.001527302,-0.000304661,0.006741161,0.999975082,0.000000000,0.000000000,0.000000000,0.000000000,0.000000000,0.000000000,0.772207072,0.000000000,4.148973465
1772684231.589787483,0.013928000,0.004872000,0.071559000,-0.010642660,-0.024189500,-0.009532500,-0.999605290,0.021765000,0.048176000,0.019596000,-0.000118104,0.000208159,-0.000426574,0.000738937,0.016454863,0.009937386,0.016216547,-0.000934315,0.996305073,0.002015366,0.002196111,-0.001231830,0.000000000,0.000000000,0.000000000,0.000000000,0.014426709,0.004707039,0.071531653,0.051885369,-0.017973846,-0.003594663,0.015479595,-0.003977345,-0.001835960,0.173926811,0.035956287,0.772864251,0.001519877,-0.000303534,0.006744923,0.999975039,0.000000000,0.000000000,0.000000000,0.000000000,0.000000000,0.000000000,0.773050801,0.000000000,4.148973465
1772684231.599786758,0.013931000,0.004873000,0.071563000,-0.010702250,-0.024404760,-0.009580060,-0.999598970,0.021891000,0.048604000,0.019699000,-0.000006876,0.000047009,0.000007789,0.007530278,0.005850245,0.006633278,0.016300415,-0.003315739,1.001166934,0.002279889,-0.000267530,0.001611519,0.000000000,0.000000000,0.000000000,0.000000000,0.014424585,0.004709246,0.071536403,0.051861688,-0.017849837,-0.003637613,0.015329067,-0.005346809,-0.000740958,0.173818915,0.035143037,0.771829629,0.001518885,-0.000296457,0.006735884,0.999975145,0.000000000,0.000000000,0.000000000,0.000000000,0.000000000,0.000000000,0.771959376,0.000000000,4.148973465
1772684231.609786510,0.013927000,0.004882000,0.071567000,-0.010827020,-0.024249160,-0.009676870,-0.999600480,0.022142000,0.048288000,0.019896000,0.000297786,-0.000033916,0.000238870,0.012078875,-0.011030592,0.003678226,0.016238366,-0.001802013,0.998759305,0.002848475,0.000963804,0.001186039,0.000000000,0.000000000,0.000000000,0.000000000,0.014448835,0.004701632,0.071535816,0.051830143,-0.017907083,-0.003432148,0.015812954,-0.005219248,-0.001242055,0.173790586,0.034736279,0.771277921,0.001518613,-0.000292917,0.006731064,0.999975157,0.000000000,0.000000000,0.000000000,0.000000000,0.000000000,0.000000000,0.771650101,0.000000000,4.148973465
1772684231.619786739,0.013927000,0.004888000,0.071563000,-0.010948770,-0.024005230,-0.009603030,-0.999605750,0.022377000,0.047799000,0.019748000,0.000422203,-0.000310937,0.000349418,0.008603680,-0.022325656,-0.000003597,0.015432401,-0.001492825,0.998200747,0.001337038,0.000812749,-0.000811455,0.000000000,0.000000000,0.000000000,0.000000000,0.014448500,0.004695205,0.071538205,0.051781553,-0.017877198,-0.003361467,0.015400281,-0.004249307,-0.002263836,0.173910302,0.034134755,0.770267165,0.001519620,-0.000287674,0.006722237,0.999975218,0.000000000,0.000000000,0.000000000,0.000000000,0.000000000,0.000000000,0.770592224,0.000000000,4.148973465
1772684231.629786730,0.013936000,0.004864000,0.071584000,-0.010894220,-0.023942820,-0.009615640,-0.999607720,0.022267000,0.047675000,0.019769000,0.000326515,-0.000210121,0.000142871,0.001335949,-0.023391458,-0.002934526,0.015421547,-0.002745866,0.999013126,0.000353297,0.002377917,0.002970783,0.000000000,0.000000000,0.000000000,0.000000000,0.014444774,0.004692768,0.071540485,0.051716088,-0.017794215,-0.003372710,0.014930718,-0.005573077,-0.001239355,0.173344630,0.034032762,0.769768518,0.001514676,-0.000286824,0.006717882,0.999975264,0.000000000,0.000000000,0.000000000,0.000000000,0.000000000,0.000000000,0.769765800,0.000000000,4.148973465
1772684231.639786482,0.013950000,0.004858000,0.071579000,-0.010881810,-0.023973320,-0.009553270,-0.999607720,0.022240000,0.047738000,0.019644000,-0.000018240,0.000141084,-0.000264122,-0.005735219,-0.011297633,-0.004196939,0.014647260,-0.004348093,0.999350716,0.000569548,-0.004171541,-0.003405686,0.000000000,0.000000000,0.000000000,0.000000000,0.014441344,0.004694186,0.071544406,0.051636230,-0.017810741,-0.003306117,0.014556306,-0.006635313,-0.000938793,0.172626303,0.034699243,0.769347759,0.001508446,-0.000292687,0.006714217,0.999975276,0.000000000,0.000000000,0.000000000,0.000000000,0.000000000,0.000000000,0.769899301,0.000000000,4.148973465
1772684231.649785995,0.013938000,0.004873000,0.071568000,-0.010788070,-0.023810920,-0.009546580,-0.999612690,0.022049000,0.047415000,0.019623000,-0.000504507,0.000396795,-0.000307634,-0.011309936,0.001062072,-0.006346726,0.015198262,-0.001440506,0.998351433,-0.002217625,-0.001239676,-0.000046307,0.000000000,0.000000000,0.000000000,0.000000000,0.014435585,0.004694908,0.071546388,0.051515443,-0.017969478,-0.003230022,0.014688255,-0.005487603,-0.001491599,0.172476247,0.036753409,0.767605281,0.001507252,-0.000310644,0.006699038,0.999975341,0.000000000,0.000000000,0.000000000,0.000000000,0.000000000,0.000000000,0.768257082,0.000000000,4.148973465
1772684231.659785509,0.013932000,0.004877000,0.071558000,-0.010763500,-0.023884560,-0.009564340,-0.999611020,0.022002000,0.047563000,0.019659000,-0.000738423,0.000502662,-0.000257207,-0.011466473,0.006893689,-0.006741093,0.015816201,-0.001165619,0.998882397,-0.001077143,0.005164239,0.002939705,0.000000000,0.000000000,0.000000000,0.000000000,0.014432530,0.004697070,0.071544402,0.051447334,-0.017936345,-0.003240194,0.015290221,-0.003896183,-0.001267502,0.172411427,0.037714761,0.766481996,0.001506739,-0.000319052,0.006689248,0.999975443,0.000000000,0.000000000,0.000000000,0.000000000,0.000000000,0.000000000,0.766672850,0.000000000,4.148973465
1772684231.669785023,0.013922000,0.004895000,0.071563000,-0.010764180,-0.023938010,-0.009540150,-0.999609970,0.022003000,0.047670000,0.019612000,-0.000548990,0.000274825,0.000061189,-0.009779025,0.009337164,-0.007607572,0.015546296,-0.002125031,0.999541774,-0.000126234,-0.000826916,-0.001000544,0.000000000,0.000000000,0.000000000,0.000000000,0.014430546,0.004698745,0.071543775,0.051427924,-0.017834991,-0.003216025,0.015067710,-0.004236980,-0.000107000,0.172268327,0.037800868,0.766098419,0.001505494,-0.000319817,0.006685901,0.999975451,0.000000000,0.000000000,0.000000000,0.000000000,0.000000000,0.000000000,0.766039500,0.000000000,4.148973465
1772684231.679785490,0.013912000,0.004887000,0.071566000,-0.010678870,-0.024062660,-0.009446380,-0.999608780,0.021831000,0.047923000,0.019423000,0.000046406,-0.000285237,0.000431508,-0.009143233,0.006459916,-0.005054129,0.016464100,-0.001659920,1.000782369,-0.002269901,0.002297267,0.006112804,0.000000000,0.000000000,0.000000000,0.000000000,0.014431046,0.004706379,0.071540266,0.051423465,-0.017741588,-0.003125193,0.015586437,-0.004038163,0.000429922,0.171379690,0.037936031,0.764655462,0.001497744,-0.000321067,0.006673309,0.999975561,0.000000000,0.000000000,0.000000000,0.000000000,0.000000000,0.000000000,0.764784082,0.000000000,4.148973465
1772684231.689785004,0.013914000,0.004875000,0.071576000,-0.010584200,-0.023939740,-0.009384740,-0.999613320,0.021636000,0.047680000,0.019292000,0.000721621,-0.000604391,0.000217988,-0.004123982,-0.003782888,-0.004599527,0.016969734,-0.002183156,0.999005070,0.000281800,-0.000557610,0.001754360,0.000000000,0.000000000,0.000000000,0.000000000,0.014429376,0.004709798,0.071540082,0.051488705,-0.017631499,-0.002930284,0.016265918,-0.004208098,-0.000176304,0.169748257,0.036810915,0.765734885,0.001483444,-0.000311330,0.006682709,0.999975502,0.000000000,0.000000000,0.000000000,0.000000000,0.000000000,0.000000000,0.765530612,0.000000000,4.148973465
1772684231.699785233,0.013937000,0.004867000,0.071574000,-0.010634750,-0.024020030,-0.009420580,-0.999610520,0.021740000,0.047839000,0.019368000,0.000745708,-0.000421213,-0.000008897,0.000092868,-0.017086982,-0.003831823,0.016232011,-0.000946058,0.997673514,0.000280579,-0.000118365,0.002135209,0.000000000,0.000000000,0.000000000,0.000000000,0.014441058,0.004700591,0.071542496,0.051664665,-0.017619059,-0.002820886,0.015425684,-0.004191258,-0.002111468,0.169670879,0.037358522,0.766190984,0.001482802,-0.000316107,0.006686696,0.999975482,0.000000000,0.000000000,0.000000000,0.000000000,0.000000000,0.000000000,0.766027736,0.000000000,4.148973465
1772684231.709784746,0.013945000,0.004865000,0.071581000,-0.010608590,-0.023945330,-0.009451340,-0.999612300,0.021688000,0.047690000,0.019427000,0.000346154,-0.000185470,-0.000143318,0.006512366,-0.019631413,-0.001164315,0.017281838,-0.000599243,0.998348808,0.001186507,0.000239308,0.002397083,0.000000000,0.000000000,0.000000000,0.000000000,0.014441026,0.004693689,0.071553374,0.051687813,-0.017530770,-0.002864442,0.016405741,-0.003542421,-0.001514358,0.169573411,0.037518799,0.766439378,0.001481962,-0.000317508,0.006688865,0.999975467,0.000000000,0.000000000,0.000000000,0.000000000,0.000000000,0.000000000,0.766322462,0.000000000,4.148973465
1772684231.719784737,0.013947000,0.004871000,0.071562000,-0.010667390,-0.023682400,-0.009442740,-0.999618020,0.021800000,0.047163000,0.019406000,-0.000185451,0.000330575,-0.000285567,0.010099385,-0.015747642,-0.000073372,0.016716088,-0.000545734,0.998755899,0.000468065,0.000071633,0.002729524,0.000000000,0.000000000,0.000000000,0.000000000,0.014440253,0.004691487,0.071553940,0.051840004,-0.017406300,-0.002899778,0.016426310,-0.003631386,-0.001823329,0.169691635,0.037313298,0.766089600,0.001482981,-0.000315713,0.006685811,0.999975502,0.000000000,0.000000000,0.000000000,0.000000000,0.000000000,0.000000000,0.765734800,0.000000000,4.148973465
1772684231.729784250,0.013938000,0.004875000,0.071556000,-0.010772210,-0.023573650,-0.009352730,-0.999620310,0.022003000,0.046945000,0.019229000,-0.000764006,0.000529721,-0.000149087,0.005537130,-0.005881211,-0.002367086,0.016709005,-0.002399974,0.997711500,0.001726475,-0.004164786,0.000253546,0.000000000,0.000000000,0.000000000,0.000000000,0.014435583,0.004700904,0.071547461,0.051939755,-0.017201782,-0.002921463,0.016441484,-0.004785650,-0.001479334,0.169382008,0.037243810,0.765671411,0.001480273,-0.000315130,0.006682160,0.999975533,0.000000000,0.000000000,0.000000000,0.000000000,0.000000000,0.000000000,0.765509864,0.000000000,4.148973465
1772684231.739784241,0.013916000,0.004883000,0.071575000,-0.010751530,-0.023676100,-0.009362750,-0.999618020,0.021964000,0.047150000,0.019250000,-0.000886889,0.000576749,0.000049806,-0.000466153,-0.003245926,-0.001196758,0.016669131,-0.002227022,0.998076059,0.001229511,-0.001628726,0.001573742,0.000000000,0.000000000,0.000000000,0.000000000,0.014426567,0.004707079,0.071543957,0.052033753,-0.017198137,-0.003002706,0.016288777,-0.005272329,-0.002302549,0.169412838,0.038611733,0.765396250,0.001480621,-0.000327069,0.006679777,0.999975562,0.000000000,0.000000000,0.000000000,0.000000000,0.000000000,0.000000000,0.765166248,0.000000000,4.148973465
1772684231.749783516,0.013912000,0.004879000,0.071572000,-0.010781520,-0.023790370,-0.009420700,-0.999614440,0.022029000,0.047377000,0.019370000,-0.000429371,0.000246154,0.000177079,-0.003867048,0.005048385,0.003453034,0.017295847,-0.001587420,0.998083217,-0.000379699,0.001499401,0.004846946,0.000000000,0.000000000,0.000000000,0.000000000,0.014422694,0.004711061,0.071546663,0.052086029,-0.017212910,-0.003048637,0.016615765,-0.005015260,-0.001923127,0.169728638,0.039650088,0.765149099,0.001483437,-0.000336115,0.006677635,0.999975542,0.000000000,0.000000000,0.000000000,0.000000000,0.000000000,0.000000000,0.765074348,0.000000000,4.148973465
1772684231.759783030,0.013920000,0.004890000,0.071562000,-0.010684710,-0.023784820,-0.009398280,-0.999615820,0.021835000,0.047368000,0.019320000,0.000130517,-0.000173019,0.000251729,-0.007055811,0.016489384,0.003491449,0.016904877,-0.000310306,1.000885989,-0.004682095,-0.002916552,-0.002742857,0.000000000,0.000000000,0.000000000,0.000000000,0.014425454,0.004712018,0.071543311,0.052239618,-0.017196687,-0.003091278,0.016663498,-0.004349488,-0.000105156,0.169656186,0.038998593,0.765423180,0.001482768,-0.000330430,0.006680018,0.999975456,0.000000000,0.000000000,0.000000000,0.000000000,0.000000000,0.000000000,0.766546422,0.000000000,4.148973465
1772684231.769782782,0.013916000,0.004885000,0.071578000,-0.010598250,-0.023799840,-0.009403750,-0.999616330,0.021662000,0.047400000,0.019328000,0.000614336,-0.000420843,0.000097708,-0.002629686,0.019430933,0.005220022,0.015726122,-0.002124072,1.000481521,-0.003111031,0.001496591,0.003583646,0.000000000,0.000000000,0.000000000,0.000000000,0.014432300,0.004710779,0.071546950,0.052378872,-0.017116539,-0.002934426,0.015561802,-0.004006561,0.000943446,0.168758357,0.037510387,0.766553869,0.001474849,-0.000317481,0.006689863,0.999975558,0.000000000,0.000000000,0.000000000,0.000000000,0.000000000,0.000000000,0.765512019,0.000000000,4.148973465
1772684231.779782057,0.013929000,0.004882000,0.071570000,-0.010679360,-0.023740200,-0.009514820,-0.999615840,0.021828000,0.047277000,0.019552000,0.000628458,-0.000543765,0.000122009,0.002738258,0.023360742,0.003931562,0.016577532,-0.002829718,0.999752879,-0.002047610,0.005231016,0.002537803,0.000000000,0.000000000,0.000000000,0.000000000,0.014439464,0.004711074,0.071554560,0.052436378,-0.017083893,-0.002740457,0.015379678,-0.004852207,-0.000215007,0.167096104,0.038918050,0.765258546,0.001460422,-0.000329879,0.006678572,0.999975504,0.000000000,0.000000000,0.000000000,0.000000000,0.000000000,0.000000000,0.765962927,0.000000000,4.148973465
1772684231.789782286,0.013936000,0.004862000,0.071574000,-0.010687610,-0.024070720,-0.009489910,-0.999608080,0.021851000,0.047938000,0.019511000,0.000316414,-0.000427215,0.000234305,0.004555251,0.017679863,0.002640436,0.016427090,-0.002088113,0.997623840,-0.001121818,0.002799686,-0.001587460,0.000000000,0.000000000,0.000000000,0.000000000,0.014443683,0.004708952,0.071558442,0.052500206,-0.017135159,-0.002647503,0.016288890,-0.005415874,-0.001525288,0.166539800,0.039179405,0.766284348,0.001455586,-0.000332179,0.006687526,0.999975448,0.000000000,0.000000000,0.000000000,0.000000000,0.000000000,0.000000000,0.767074315,0.000000000,4.148973465
1772684231.799782515,0.013937000,0.004865000,0.071575000,-0.010704510,-0.024305260,-0.009398080,-0.999603090,0.021885000,0.048409000,0.019333000,-0.000003108,-0.000347669,0.000196892,0.002437048,0.007704682,-0.000374152,0.015485633,-0.001806227,0.996102921,0.000389838,-0.001979650,-0.002149462,0.000000000,0.000000000,0.000000000,0.000000000,0.014445401,0.004707210,0.071554344,0.052561300,-0.017172308,-0.002742499,0.014805088,-0.004437268,-0.003592384,0.166521471,0.037268548,0.767467758,0.001455317,-0.000315490,0.006697828,0.999975552,0.000000000,0.000000000,0.000000000,0.000000000,0.000000000,0.000000000,0.766458616,0.000000000,4.148973465
1772684231.809782028,0.013935000,0.004870000,0.071580000,-0.010804440,-0.024148670,-0.009560120,-0.999604280,0.022089000,0.048090000,0.019658000,-0.000110101,0.000181449,-0.000077234,-0.003343329,-0.005034570,-0.002480322,0.015484469,-0.001314054,0.996589955,0.002062161,-0.002747653,0.000651267,0.000000000,0.000000000,0.000000000,0.000000000,0.014444856,0.004708271,0.071547859,0.052550561,-0.017146151,-0.002966902,0.014428173,-0.003586614,-0.003839393,0.166482659,0.037703044,0.766071750,0.001455000,-0.000319301,0.006685651,0.999975605,0.000000000,0.000000000,0.000000000,0.000000000,0.000000000,0.000000000,0.765195336,0.000000000,4.148973465
1772684231.819782257,0.013925000,0.004870000,0.071580000,-0.010683420,-0.024128000,-0.009468920,-0.999606940,0.021842000,0.048053000,0.019470000,-0.000415754,0.000585354,-0.000118998,-0.005828608,-0.013224209,-0.002169072,0.016106661,-0.001406107,0.998292567,0.000691251,0.002341519,0.002189797,0.000000000,0.000000000,0.000000000,0.000000000,0.014441535,0.004709077,0.071544239,0.052506214,-0.017096589,-0.003174691,0.015380226,-0.004641963,-0.002575167,0.166682128,0.039687566,0.764880060,0.001456853,-0.000336623,0.006675278,0.999975622,0.000000000,0.000000000,0.000000000,0.000000000,0.000000000,0.000000000,0.764421692,0.000000000,4.148973465
1772684231.829782248,0.013928000,0.004875000,0.071572000,-0.010643690,-0.023789570,-0.009435670,-0.999615790,0.021754000,0.047378000,0.019393000,-0.000124573,0.000578672,-0.000369989,0.002872540,-0.016242316,0.003858412,0.016440721,-0.001247701,0.999863919,-0.001418788,0.001056303,0.004053102,0.000000000,0.000000000,0.000000000,0.000000000,0.014438021,0.004709768,0.071541685,0.052531715,-0.017046292,-0.003248811,0.016558869,-0.004015839,-0.000535808,0.166612050,0.041186660,0.764253802,0.001456327,-0.000349716,0.006669832,0.999975660,0.000000000,0.000000000,0.000000000,0.000000000,0.000000000,0.000000000,0.763729362,0.000000000,4.148973465
1772684231.839782000,0.013926000,0.004875000,0.071575000,-0.010602950,-0.023908660,-0.009416420,-0.999613570,0.021674000,0.047617000,0.019356000,0.000174068,0.000131546,-0.000177603,0.006962280,-0.003877231,0.002555511,0.015182977,-0.000659243,0.999280874,-0.002556847,-0.000335071,0.005065489,0.000000000,0.000000000,0.000000000,0.000000000,0.014438178,0.004708930,0.071544372,0.052604667,-0.016983526,-0.003138189,0.014426172,-0.002634012,-0.000120550,0.166863688,0.039878689,0.763285681,0.001458444,-0.000338300,0.006661368,0.999975681,0.000000000,0.000000000,0.000000000,0.000000000,0.000000000,0.000000000,0.763209575,0.000000000,4.148973465
1772684231.849781990,0.013932000,0.004894000,0.071563000,-0.010702030,-0.023957530,-0.009517490,-0.999610380,0.021878000,0.047711000,0.019564000,0.000385742,-0.000317716,0.000131236,0.006918762,0.004706160,-0.000793187,0.015738965,-0.001364273,0.999510991,-0.000309993,0.001002148,0.002194305,0.000000000,0.000000000,0.000000000,0.000000000,0.014438684,0.004710727,0.071548221,0.052572454,-0.016839537,-0.003005545,0.014639669,-0.004029049,-0.000242967,0.166585494,0.040542651,0.763307115,0.001456055,-0.000344110,0.006661562,0.999975681,0.000000000,0.000000000,0.000000000,0.000000000,0.000000000,0.000000000,0.763265530,0.000000000,4.148973465
1772684231.859781504,0.013924000,0.004882000,0.071571000,-0.010844220,-0.024024040,-0.009524670,-0.999607190,0.022165000,0.047841000,0.019587000,0.000434596,-0.000507887,0.000330070,0.006148537,-0.000306218,0.001472610,0.016594492,-0.002403980,0.998686934,0.001195649,-0.002910040,0.000931195,0.000000000,0.000000000,0.000000000,0.000000000,0.014438575,0.004714748,0.071548009,0.052546387,-0.016784570,-0.002936379,0.015532184,-0.005241284,-0.001228433,0.166461699,0.040207904,0.763199647,0.001454955,-0.000341198,0.006660620,0.999975788,0.000000000,0.000000000,0.000000000,0.000000000,0.000000000,0.000000000,0.762653278,0.000000000,4.148973465
1772684231.869781494,0.013950000,0.004863000,0.071572000,-0.010950140,-0.023994940,-0.009556360,-0.999606430,0.022378000,0.047780000,0.019654000,0.000116375,-0.000508470,0.000220416,-0.002324392,0.001861254,-0.001407369,0.015599553,-0.001059697,0.999166030,0.000684110,-0.000294601,0.001080102,0.000000000,0.000000000,0.000000000,0.000000000,0.014442218,0.004713731,0.071544699,0.052650788,-0.016838899,-0.002956473,0.015485650,-0.004277841,-0.001846975,0.166437511,0.040230102,0.762189201,0.001454742,-0.000341405,0.006651803,0.999975745,0.000000000,0.000000000,0.000000000,0.000000000,0.000000000,0.000000000,0.761888550,0.000000000,4.148973465
1772684231.879781485,0.013937000,0.004859000,0.071591000,-0.010665890,-0.024024590,-0.009370920,-0.999610550,0.021800000,0.047849000,0.019270000,-0.000347611,-0.000177098,0.000152584,-0.009970524,0.000586958,-0.004643191,0.016109341,-0.001343882,0.999020049,0.000761177,0.001911525,-0.004940870,0.000000000,0.000000000,0.000000000,0.000000000,0.014445255,0.004710041,0.071538346,0.052669139,-0.016789038,-0.002944706,0.015146766,-0.003702030,-0.000593734,0.166930056,0.041532513,0.761715705,0.001459115,-0.000352748,0.006647688,0.999975843,0.000000000,0.000000000,0.000000000,0.000000000,0.000000000,0.000000000,0.761576586,0.000000000,4.148973465
1772684231.889781475,0.013935000,0.004860000,0.071582000,-0.010629800,-0.023843700,-0.009429460,-0.999614710,0.021727000,0.047486000,0.019382000,-0.000690269,0.000225156,-0.000123563,-0.012329199,0.007225104,-0.007349576,0.016193555,-0.003806115,0.996674504,0.003280893,0.000309621,0.005018784,0.000000000,0.000000000,0.000000000,0.000000000,0.014442799,0.004709934,0.071535831,0.052701199,-0.016730894,-0.002915186,0.015468378,-0.006096106,-0.002773780,0.166833078,0.041101730,0.760276483,0.001458239,-0.000349013,0.006635124,0.999975979,0.000000000,0.000000000,0.000000000,0.000000000,0.000000000,0.000000000,0.758549374,0.000000000,4.148973465
1772684231.899781227,0.013927000,0.004877000,0.071570000,-0.010666220,-0.023871180,-0.009483340,-0.999613160,0.021803000,0.047539000,0.019492000,-0.000689647,0.000601807,-0.000339064,-0.007192127,0.012360835,-0.003761072,0.014335559,-0.004499114,0.996253905,0.004542752,0.000337117,0.002176540,0.000000000,0.000000000,0.000000000,0.000000000,0.014442376,0.004709353,0.071542779,0.052752830,-0.016930949,-0.003066782,0.014503806,-0.006978774,-0.003262317,0.166341529,0.040485719,0.758714493,0.001453909,-0.000343686,0.006621484,0.999975979,0.000000000,0.000000000,0.000000000,0.000000000,0.000000000,0.000000000,0.759039887,0.000000000,4.148973465
1772684231.909781456,0.013911000,0.004880000,0.071567000,-0.010582660,-0.024246870,-0.009411960,-0.999605680,0.021640000,0.048294000,0.019353000,-0.000410801,0.000595688,-0.000117871,0.000925681,0.006539265,0.000950899,0.015029708,-0.004089136,0.998800381,0.002048863,0.000354630,0.004032761,0.000000000,0.000000000,0.000000000,0.000000000,0.014445572,0.004707990,0.071544117,0.052660191,-0.017157903,-0.003262401,0.014151496,-0.006288295,-0.001459186,0.166122211,0.040722445,0.758816784,0.001452009,-0.000345763,0.006622379,0.999975963,0.000000000,0.000000000,0.000000000,0.000000000,0.000000000,0.000000000,0.758456986,0.000000000,4.148973465
1772684231.919780731,0.013908000,0.004886000,0.071580000,-0.010642530,-0.024160330,-0.009379230,-0.999607450,0.021757000,0.048121000,0.019289000,0.000224845,0.000172436,0.000248796,0.006959954,-0.005081495,0.004259754,0.015222141,-0.003375209,0.999386334,0.000556720,0.001352506,0.001334511,0.000000000,0.000000000,0.000000000,0.000000000,0.014444071,0.004715422,0.071543207,0.052582625,-0.017318315,-0.003249003,0.014550364,-0.006055921,-0.001054102,0.166573131,0.041168393,0.758807858,0.001455970,-0.000349629,0.006622308,0.999975920,0.000000000,0.000000000,0.000000000,0.000000000,0.000000000,0.000000000,0.759395496,0.000000000,4.148973465
1772684231.929780006,0.013923000,0.004880000,0.071566000,-0.010721460,-0.024097210,-0.009394720,-0.999607980,0.021914000,0.047993000,0.019322000,0.000542755,-0.000147980,0.000470494,0.008880421,-0.019818677,0.003229117,0.014845446,-0.000854701,0.996757039,-0.000746055,0.000590889,-0.001655000,0.000000000,0.000000000,0.000000000,0.000000000,0.014442966,0.004720211,0.071539585,0.052540853,-0.017439530,-0.003206768,0.014699897,-0.004093744,-0.002869665,0.166256984,0.040546366,0.759521028,0.001453177,-0.000344210,0.006628523,0.999975988,0.000000000,0.000000000,0.000000000,0.000000000,0.000000000,0.000000000,0.759259042,0.000000000,4.148973465
1772684231.939779520,0.013932000,0.004876000,0.071586000,-0.010726830,-0.023941870,-0.009505540,-0.999610610,0.021927000,0.047679000,0.019541000,0.000673835,-0.000302001,0.000279934,0.007880638,-0.029899967,0.004361801,0.015661500,-0.000929964,0.997774286,0.000889248,-0.000032181,0.001283819,0.000000000,0.000000000,0.000000000,0.000000000,0.014446524,0.004715997,0.071536000,0.052503866,-0.017324605,-0.003420338,0.015317069,-0.004003697,-0.002097788,0.165712040,0.039399532,0.758160449,0.001448352,-0.000334251,0.006616633,0.999976099,0.000000000,0.000000000,0.000000000,0.000000000,0.000000000,0.000000000,0.756683805,0.000000000,4.148973465
1772684231.949779510,0.013938000,0.004880000,0.071592000,-0.010730390,-0.023626010,-0.009505300,-0.999618090,0.021928000,0.047047000,0.019533000,0.000411150,-0.000168163,-0.000122747,0.005388674,-0.018067110,0.002593707,0.017188935,-0.002744751,0.998577961,-0.001054149,-0.000144046,-0.001074337,0.000000000,0.000000000,0.000000000,0.000000000,0.014441472,0.004709914,0.071532797,0.052491220,-0.017251941,-0.003493775,0.016167745,-0.004950655,-0.001630762,0.165544125,0.039443238,0.756591630,0.001446884,-0.000334661,0.006602943,0.999976115,0.000000000,0.000000000,0.000000000,0.000000000,0.000000000,0.000000000,0.756352068,0.000000000,4.148973465
1772684231.959779263,0.013935000,0.004869000,0.071585000,-0.010791150,-0.023665410,-0.009466820,-0.999616870,0.022048000,0.047126000,0.019460000,-0.000084130,-0.000038636,-0.000395377,-0.000494529,0.001843779,-0.004127247,0.016560541,-0.003677950,0.997179975,0.003368745,-0.005405378,0.000142925,0.000000000,0.000000000,0.000000000,0.000000000,0.014442168,0.004708315,0.071536068,0.052632241,-0.017299995,-0.003478924,0.016306906,-0.005726487,-0.002223592,0.165356950,0.040257306,0.756044264,0.001445296,-0.000341783,0.006598177,0.999976158,0.000000000,0.000000000,0.000000000,0.000000000,0.000000000,0.000000000,0.755526419,0.000000000,4.148973465
1772684231.969779015,0.013935000,0.004877000,0.071567000,-0.010880000,-0.023661880,-0.009458770,-0.999616060,0.022226000,0.047117000,0.019448000,-0.000338035,-0.000025058,-0.000331391,-0.002994341,0.012091826,-0.005576205,0.015287046,-0.001614856,0.998226150,0.002163153,0.000308743,-0.003785864,0.000000000,0.000000000,0.000000000,0.000000000,0.014443185,0.004701941,0.071539315,0.052746567,-0.017457868,-0.003573130,0.014921281,-0.005129728,-0.002267480,0.165113558,0.041490635,0.755489825,0.001443241,-0.000352567,0.006593353,0.999976194,0.000000000,0.000000000,0.000000000,0.000000000,0.000000000,0.000000000,0.755309828,0.000000000,4.148973465
1772684231.979778290,0.013927000,0.004877000,0.071570000,-0.010679210,-0.023920580,-0.009411120,-0.999612520,0.021827000,0.047640000,0.019349000,-0.000383470,0.000065948,-0.000287607,-0.003183901,0.013994265,-0.003807508,0.015416233,-0.002034564,0.998255410,0.002337589,-0.001404844,-0.000877709,0.000000000,0.000000000,0.000000000,0.000000000,0.014445679,0.004703660,0.071538223,0.052711355,-0.017417105,-0.003610374,0.014805350,-0.004919606,-0.001664012,0.165829294,0.042655608,0.754697267,0.001449552,-0.000362702,0.006586454,0.999976293,0.000000000,0.000000000,0.000000000,0.000000000,0.000000000,0.000000000,0.753450167,0.000000000,4.148973465
