t,px,py,pz,qx,qy,qz,qw,roll,pitch,yaw,vx,vy,vz,wx_vicon,wy_vicon,wz_vicon,imu_acc_x,imu_acc_y,imu_acc_z,imu_gyro_x,imu_gyro_y,imu_gyro_z,motor_motor_m1,motor_motor_m2,motor_motor_m3,motor_motor_m4,est_stateEstimate_x,est_stateEstimate_y,est_stateEstimate_z,est_stateEstimate_vx,est_stateEstimate_vy,est_stateEstimate_vz,est_stateEstimate_ax,est_stateEstimate_ay,est_stateEstimate_az,att_stateEstimate_roll,att_stateEstimate_pitch,att_stateEstimate_yaw,att_stateEstimate_qx,att_stateEstimate_qy,att_stateEstimate_qz,att_stateEstimate_qw,sp_ctrltarget_x,sp_ctrltarget_y,sp_ctrltarget_z,sp_ctrltarget_yaw,pid_controller_roll,pid_controller_pitch,pid_controller_yaw,pid_controller_cmd_thrust,pwr_pm_vbat
1772684557.565480709,0.016052000,0.005100000,0.054076000,-0.000937070,0.004820680,0.004656340,0.999977100,-0.001829000,0.009650000,0.009304000,0.002169544,0.000248194,-0.001249477,-0.021219681,-0.019893937,-0.036717154,0.010310893,-0.002928100,1.002291703,0.000666201,-0.000709899,0.001984833,0.000000000,0.000000000,0.000000000,0.000000000,0.016405748,0.005097796,0.054077732,0.018467642,-0.000698262,0.001182006,0.006577585,-0.001925389,0.002113224,-0.074440560,0.211170708,0.330512438,-0.000644297,-0.001844679,0.002883056,0.999992967,0.000000000,0.000000000,0.000000000,0.000000000,0.000000000,0.000000000,0.330192444,0.000000000,4.106744766
1772684557.575480223,0.016059000,0.005103000,0.054049000,-0.000852090,0.004586620,0.004704860,0.999978050,-0.001661000,0.009181000,0.009402000,0.000978867,0.000142716,-0.001077798,0.026625339,-0.046214776,0.011483037,0.010488546,-0.002845376,1.002612243,0.001280101,-0.001244738,0.002036849,0.000000000,0.000000000,0.000000000,0.000000000,0.016408434,0.005098321,0.054076326,0.018507262,-0.000731754,0.001205545,0.006864069,-0.001981383,0.002238313,-0.074563095,0.211257839,0.330431104,-0.000645365,-0.001845442,0.002882344,0.999992967,0.000000000,0.000000000,0.000000000,0.000000000,0.000000000,0.000000000,0.330058294,0.000000000,4.106744766
1772684557.585479498,0.016070000,0.005104000,0.054055000,-0.000661410,0.004418820,0.004719650,0.999978880,-0.001281000,0.008844000,0.009434000,0.000173038,0.000040385,-0.000737938,0.039124972,-0.044590265,0.029025044,0.010666195,-0.002762654,1.002932775,0.001893987,-0.001779564,0.002088864,0.000000000,0.000000000,0.000000000,0.000000000,0.016411120,0.005098846,0.054074920,0.018546882,-0.000765245,0.001229083,0.007150545,-0.002037375,0.002363400,-0.074685626,0.211344968,0.330349772,-0.000646434,-0.001846204,0.002881631,0.999992967,0.000000000,0.000000000,0.000000000,0.000000000,0.000000000,0.000000000,0.329924147,0.000000000,4.106744766
1772684557.595479965,0.016072000,0.005100000,0.054051000,-0.000595150,0.004192900,0.004892970,0.999979060,-0.001149000,0.008392000,0.009781000,-0.000302487,-0.000044114,-0.000313112,0.026889027,-0.024742690,0.024597333,0.010762923,-0.002672222,1.003196225,0.002293151,-0.002272355,0.002074435,0.000000000,0.000000000,0.000000000,0.000000000,0.016413806,0.005099371,0.054073513,0.018586506,-0.000798741,0.001252624,0.006246215,-0.001792012,0.002253847,-0.074797212,0.211508824,0.330175018,-0.000647406,-0.001847636,0.002880104,0.999992967,0.000000000,0.000000000,0.000000000,0.000000000,0.000000000,0.000000000,0.329789985,0.000000000,4.106744766
1772684557.605479956,0.016062000,0.005103000,0.054047000,-0.000546300,0.004279040,0.004879180,0.999978790,-0.001051000,0.008563000,0.009754000,-0.000502254,-0.000096096,0.000113462,0.000544725,0.003634417,0.006908974,0.008888021,-0.002394216,1.002068280,-0.002539824,-0.001739639,0.000441365,0.000000000,0.000000000,0.000000000,0.000000000,0.016414176,0.005094392,0.054082658,0.018635545,-0.000887796,0.001405862,0.005408273,-0.001152726,0.002132154,-0.074877407,0.211892362,0.329732773,-0.000648103,-0.001850983,0.002876241,0.999992967,0.000000000,0.000000000,0.000000000,0.000000000,0.000000000,0.000000000,0.329657081,0.000000000,4.106744766
1772684557.615479708,0.016068000,0.005103000,0.054047000,-0.000488390,0.004216840,0.004980600,0.999978590,-0.000935000,0.008438000,0.009957000,-0.000480809,-0.000100874,0.000458567,-0.029275536,0.030829531,-0.015359568,0.011136610,-0.000569096,1.000656479,-0.001109597,0.003125351,-0.000189392,0.000000000,0.000000000,0.000000000,0.000000000,0.016416332,0.005089672,0.054085563,0.018748401,-0.000917150,0.001550045,0.006644359,0.000231151,0.002056088,-0.074732911,0.211526610,0.329596315,-0.000646854,-0.001847787,0.002875054,0.999992967,0.000000000,0.000000000,0.000000000,0.000000000,0.000000000,0.000000000,0.329944364,0.000000000,4.106744766
1772684557.625479460,0.016060000,0.005104000,0.054041000,-0.000575270,0.004172530,0.004939460,0.999978930,-0.001109000,0.008351000,0.009874000,-0.000238520,0.000096853,0.000370397,-0.039976218,0.028484444,-0.022537322,0.010633301,0.000481204,0.999256982,0.000410614,0.001703272,-0.001386615,0.000000000,0.000000000,0.000000000,0.000000000,0.016422765,0.005088501,0.054083646,0.018953645,-0.000809115,0.001580175,0.007536593,0.001720984,0.000371114,-0.076053928,0.211567763,0.330281648,-0.000658370,-0.001848183,0.002881014,0.999992967,0.000000000,0.000000000,0.000000000,0.000000000,0.000000000,0.000000000,0.330189289,0.000000000,4.106744766
1772684557.635479450,0.016038000,0.005095000,0.054060000,-0.001115250,0.004917080,0.004603290,0.999976690,-0.002185000,0.009844000,0.009196000,0.000201904,0.000209149,0.000200194,-0.027879012,0.009870618,-0.018302379,0.008445204,-0.000994781,0.999125512,0.001833277,-0.000650623,-0.000961828,0.000000000,0.000000000,0.000000000,0.000000000,0.016430674,0.005088244,0.054083164,0.019115194,-0.000675797,0.001480838,0.004900686,0.000185361,-0.001936233,-0.076185695,0.209844129,0.329892269,-0.000659569,-0.001833142,0.002877623,0.999992967,0.000000000,0.000000000,0.000000000,0.000000000,0.000000000,0.000000000,0.329597540,0.000000000,4.106744766
1772684557.645479918,0.016053000,0.005103000,0.054079000,-0.001387750,0.004946110,0.004380520,0.999977210,-0.002732000,0.009904000,0.008748000,0.000189316,0.000240424,0.000211072,-0.014777875,-0.004155763,-0.008773933,0.009123745,-0.001688573,1.001211038,0.001250681,-0.000427012,-0.000735412,0.000000000,0.000000000,0.000000000,0.000000000,0.016434545,0.005088380,0.054079263,0.019097548,-0.000631418,0.001328059,0.004505764,-0.000080952,0.000560552,-0.075887039,0.210125784,0.329208961,-0.000656967,-0.001835589,0.002871664,0.999992999,0.000000000,0.000000000,0.000000000,0.000000000,0.000000000,0.000000000,0.328810869,0.000000000,4.106744766
1772684557.655479908,0.016078000,0.005110000,0.054051000,-0.001178380,0.004494630,0.004527030,0.999978960,-0.002316000,0.009000000,0.009044000,-0.000096892,0.000205595,-0.000029565,0.001605221,-0.005653137,0.001084591,0.010456789,-0.002068950,1.000872976,-0.001634828,0.001464855,-0.001534633,0.000000000,0.000000000,0.000000000,0.000000000,0.016434630,0.005089651,0.054075745,0.019129380,-0.000661048,0.001370334,0.006551470,-0.000642517,0.001757391,-0.074802976,0.210530245,0.328323152,-0.000647511,-0.001839086,0.002863949,0.999993026,0.000000000,0.000000000,0.000000000,0.000000000,0.000000000,0.000000000,0.328279286,0.000000000,4.106744766
1772684557.665480375,0.016064000,0.005115000,0.054051000,-0.000914980,0.004142760,0.004762990,0.999979660,-0.001791000,0.008294000,0.009519000,-0.000033372,0.000121873,-0.000377584,0.023862496,-0.025465107,0.017581582,0.010974550,-0.001595216,0.999647850,-0.000886258,0.001588186,-0.001869002,0.000000000,0.000000000,0.000000000,0.000000000,0.016435129,0.005090144,0.054072995,0.019269468,-0.000685105,0.001399956,0.006381871,0.000108949,0.000152798,-0.075205057,0.209616871,0.328403466,-0.000651041,-0.001831126,0.002864648,0.999993026,0.000000000,0.000000000,0.000000000,0.000000000,0.000000000,0.000000000,0.328008308,0.000000000,4.106744766
1772684557.675480604,0.016060000,0.005107000,0.054048000,-0.000714160,0.004234660,0.004810800,0.999979210,-0.001388000,0.008476000,0.009616000,-0.000370494,-0.000047805,-0.000274534,0.028085035,-0.024119845,0.016404425,0.009535760,-0.001536672,0.999619996,-0.001270428,0.003579228,-0.000988697,0.000000000,0.000000000,0.000000000,0.000000000,0.016428776,0.005088259,0.054074645,0.019368194,-0.000698089,0.001329385,0.005612510,-0.000770131,-0.000497741,-0.075754813,0.208731239,0.327428704,-0.000655876,-0.001823406,0.002856138,0.999993063,0.000000000,0.000000000,0.000000000,0.000000000,0.000000000,0.000000000,0.326974178,0.000000000,4.106744766
1772684557.685480356,0.016037000,0.005107000,0.054069000,-0.000986780,0.004612980,0.004680590,0.999977920,-0.001930000,0.009235000,0.009352000,-0.000351418,-0.000295183,0.000211034,0.013495919,-0.002113776,0.000035981,0.008214436,-0.001963796,1.002376808,0.000630925,0.002587485,-0.000397265,0.000000000,0.000000000,0.000000000,0.000000000,0.016424236,0.005087030,0.054084817,0.019357860,-0.000699676,0.001340814,0.004271294,0.000280468,0.001238329,-0.075657291,0.208699507,0.326580311,-0.000655040,-0.001823121,0.002848736,0.999993086,0.000000000,0.000000000,0.000000000,0.000000000,0.000000000,0.000000000,0.326356196,0.000000000,4.106744766
1772684557.695480824,0.016047000,0.005103000,0.054046000,-0.000788980,0.004448180,0.004772130,0.999978410,-0.001536000,0.008904000,0.009538000,0.000099107,-0.000291648,0.000650253,0.001877641,-0.000018006,-0.010128369,0.010198036,-0.001676038,1.002001619,0.001090379,0.001551906,0.001639315,0.000000000,0.000000000,0.000000000,0.000000000,0.016432353,0.005090633,0.054088939,0.019306506,-0.000684513,0.001513984,0.005232181,-0.000618519,0.002535593,-0.076572100,0.208686867,0.325703528,-0.000663037,-0.001823029,0.002841070,0.999993125,0.000000000,0.000000000,0.000000000,0.000000000,0.000000000,0.000000000,0.325918940,0.000000000,4.106744766
1772684557.705480814,0.016065000,0.005105000,0.054053000,-0.000572000,0.003834280,0.004848100,0.999980730,-0.001107000,0.007674000,0.009692000,0.000573485,-0.000032653,0.000408722,0.005746572,-0.012845629,-0.009425529,0.011913168,0.000666234,1.001474571,-0.001451977,-0.002453317,0.000881605,0.000000000,0.000000000,0.000000000,0.000000000,0.016439205,0.005096036,0.054084538,0.019466483,-0.000640292,0.001634512,0.007907768,0.000699751,0.000927976,-0.076559702,0.207351241,0.325690370,-0.000662962,-0.001811373,0.002840964,0.999993145,0.000000000,0.000000000,0.000000000,0.000000000,0.000000000,0.000000000,0.325360339,0.000000000,4.106744766
1772684557.715480089,0.016050000,0.005101000,0.054079000,-0.000840290,0.004412510,0.004471590,0.999979910,-0.001641000,0.008832000,0.008936000,0.000372553,0.000171115,0.000216550,0.016529161,-0.024910442,-0.001654851,0.009218507,0.000837069,1.001629255,0.000944443,-0.003284243,0.002398551,0.000000000,0.000000000,0.000000000,0.000000000,0.016439327,0.005097992,0.054082646,0.019644702,-0.000424243,0.001708705,0.006299652,0.002129547,0.001338043,-0.076670823,0.206097094,0.325053723,-0.000663973,-0.001800428,0.002835414,0.999993145,0.000000000,0.000000000,0.000000000,0.000000000,0.000000000,0.000000000,0.325123634,0.000000000,4.106744766
1772684557.725479603,0.016078000,0.005102000,0.054070000,-0.000702720,0.004149310,0.004570470,0.999980700,-0.001368000,0.008305000,0.009135000,0.000205769,0.000152661,-0.000473524,0.027391788,-0.027385371,0.009270246,0.008550766,-0.000684671,0.999879440,-0.000427874,0.001405250,-0.001339250,0.000000000,0.000000000,0.000000000,0.000000000,0.016432291,0.005099451,0.054088644,0.019628049,-0.000248740,0.001764979,0.005157609,0.000785667,0.000271983,-0.076358081,0.207600034,0.325189306,-0.000661204,-0.001813536,0.002836593,0.999993145,0.000000000,0.000000000,0.000000000,0.000000000,0.000000000,0.000000000,0.325244132,0.000000000,4.106744766
1772684557.735479116,0.016062000,0.005108000,0.054066000,-0.000501920,0.003859980,0.004797750,0.999980910,-0.000967000,0.007725000,0.009592000,-0.000398000,0.000195863,-0.000374068,0.017418442,-0.007515063,0.008110379,0.009355252,-0.001271643,0.999334236,-0.002818371,0.000540407,-0.000051504,0.000000000,0.000000000,0.000000000,0.000000000,0.016427461,0.005100234,0.054090057,0.019594778,-0.000188110,0.001718775,0.005739258,0.000154598,-0.000676335,-0.075927523,0.207804901,0.325289059,-0.000657441,-0.001815314,0.002837469,0.999993145,0.000000000,0.000000000,0.000000000,0.000000000,0.000000000,0.000000000,0.325342056,0.000000000,4.106744766
1772684557.745479107,0.016056000,0.005116000,0.054052000,-0.000307880,0.003867110,0.004770670,0.999981100,-0.000579000,0.007737000,0.009539000,-0.000443182,0.000218065,-0.000416861,0.007298449,0.000720810,0.006569802,0.009785275,-0.002178906,0.999341367,-0.003721775,-0.000393437,0.000579112,0.000000000,0.000000000,0.000000000,0.000000000,0.016426903,0.005100051,0.054084980,0.019602856,-0.000178485,0.001607194,0.006385030,-0.000685413,-0.001262827,-0.075824152,0.207768795,0.324989507,-0.000656544,-0.001814995,0.002834857,0.999993145,0.000000000,0.000000000,0.000000000,0.000000000,0.000000000,0.000000000,0.324437026,0.000000000,4.106744766
1772684557.755479097,0.016047000,0.005108000,0.054048000,-0.000276690,0.003847650,0.004840200,0.999980850,-0.000516000,0.007698000,0.009679000,-0.000168901,0.000249767,-0.000014918,-0.005795000,-0.001871387,-0.000980329,0.008865933,-0.004037689,1.000052856,-0.001151933,0.000556496,-0.002155627,0.000000000,0.000000000,0.000000000,0.000000000,0.016435137,0.005100129,0.054083468,0.019691565,-0.000289319,0.001456838,0.005338463,-0.001926349,-0.000515568,-0.076138742,0.207350454,0.324390795,-0.000659309,-0.001811348,0.002829630,0.999993145,0.000000000,0.000000000,0.000000000,0.000000000,0.000000000,0.000000000,0.324639350,0.000000000,4.106744766
1772684557.765478373,0.016059000,0.005108000,0.054034000,-0.000357120,0.003896480,0.004867020,0.999980500,-0.000676000,0.007796000,0.009732000,-0.000123893,0.000117191,0.000373291,-0.020639524,0.013054083,-0.013683349,0.008043020,-0.003136961,1.000462786,-0.001230969,-0.002164730,-0.000201476,0.000000000,0.000000000,0.000000000,0.000000000,0.016433153,0.005096848,0.054093672,0.019576722,-0.000519727,0.001459712,0.004865624,-0.002003363,0.000921388,-0.076076236,0.206526025,0.324589942,-0.000658781,-0.001804153,0.002831373,0.999993203,0.000000000,0.000000000,0.000000000,0.000000000,0.000000000,0.000000000,0.324269549,0.000000000,4.106744766
1772684557.775477648,0.016043000,0.005116000,0.054084000,-0.000776140,0.004315750,0.004518930,0.999980180,-0.001513000,0.008638000,0.009031000,0.000236131,-0.000011538,0.000266978,-0.019307920,0.012158535,-0.013135964,0.008010543,-0.001151500,1.001784253,-0.000741200,-0.000837407,-0.001077680,0.000000000,0.000000000,0.000000000,0.000000000,0.016443037,0.005093662,0.054096843,0.019554732,-0.000650624,0.001516059,0.005255714,0.000126656,0.001720149,-0.075246408,0.205860130,0.324074560,-0.000651564,-0.001798319,0.002826893,0.999993146,0.000000000,0.000000000,0.000000000,0.000000000,0.000000000,0.000000000,0.324043402,0.000000000,4.106744766
1772684557.785476685,0.016064000,0.005117000,0.054067000,-0.000758850,0.004005240,0.004591160,0.999981150,-0.001481000,0.008017000,0.009176000,0.000297786,-0.000133897,-0.000191414,-0.004219263,0.000270849,-0.000535654,0.007988766,-0.001705008,1.002274616,0.000206156,-0.004727912,0.000164665,0.000000000,0.000000000,0.000000000,0.000000000,0.016441757,0.005094859,0.054096516,0.019439905,-0.000561217,0.001655708,0.004530151,0.000059369,0.001540739,-0.075312969,0.207089706,0.323862427,-0.000652118,-0.001809049,0.002825033,0.999993145,0.000000000,0.000000000,0.000000000,0.000000000,0.000000000,0.000000000,0.323597660,0.000000000,4.106744766
1772684557.795476437,0.016063000,0.005114000,0.054062000,-0.000684730,0.003943050,0.004582140,0.999981490,-0.001333000,0.007892000,0.009159000,0.000128963,-0.000116861,-0.000229196,0.004374906,-0.001881709,0.002658032,0.007206914,-0.001485325,0.999000994,-0.001280505,-0.001257843,0.001381814,0.000000000,0.000000000,0.000000000,0.000000000,0.016436489,0.005099113,0.054091337,0.019289679,-0.000587461,0.001661018,0.004296395,-0.000693758,0.000295709,-0.074690244,0.208982099,0.323261831,-0.000646646,-0.001825545,0.002819791,0.999993145,0.000000000,0.000000000,0.000000000,0.000000000,0.000000000,0.000000000,0.322944919,0.000000000,4.106744766
1772684557.805475950,0.016053000,0.005107000,0.054046000,-0.000530700,0.004074870,0.004702860,0.999980500,-0.001023000,0.008155000,0.009402000,-0.000190132,-0.000270125,-0.000115657,0.006370734,0.000266348,0.006642654,0.010240965,-0.000763105,0.998251825,0.001653358,-0.003342691,0.004451770,0.000000000,0.000000000,0.000000000,0.000000000,0.016427418,0.005098479,0.054084629,0.019138224,-0.000594012,0.001509174,0.005389595,0.000283199,-0.000905307,-0.074516078,0.209490224,0.322532222,-0.000645126,-0.001829971,0.002813424,0.999993202,0.000000000,0.000000000,0.000000000,0.000000000,0.000000000,0.000000000,0.322097505,0.000000000,4.106744766
1772684557.815475941,0.016058000,0.005106000,0.054045000,-0.000463950,0.004069350,0.004768530,0.999980240,-0.000889000,0.008143000,0.009534000,-0.000316997,-0.000215365,0.000183198,0.002510794,0.003234217,0.008438342,0.010349057,-0.000717255,1.001118660,-0.002475991,0.002428926,-0.000005122,0.000000000,0.000000000,0.000000000,0.000000000,0.016427614,0.005097530,0.054071128,0.019233198,-0.000510922,0.001257735,0.006765543,0.000016316,0.000946632,-0.074971462,0.208352399,0.322166217,-0.000649133,-0.001820050,0.002810229,0.999993205,0.000000000,0.000000000,0.000000000,0.000000000,0.000000000,0.000000000,0.322543708,0.000000000,4.106744766
1772684557.825475931,0.016060000,0.005105000,0.054049000,-0.000475000,0.003955360,0.004837420,0.999980360,-0.000912000,0.007915000,0.009671000,-0.000086946,0.000233839,0.000544018,-0.000107286,0.004353819,0.006908951,0.009946168,-0.000479717,1.001595573,-0.001603563,0.001430045,-0.002715130,0.000000000,0.000000000,0.000000000,0.000000000,0.016421625,0.005102503,0.054091840,0.019329132,-0.000469563,0.001481223,0.006495753,0.000683887,0.001979369,-0.076048936,0.207978691,0.321998803,-0.000658548,-0.001816815,0.002808754,0.999993205,0.000000000,0.000000000,0.000000000,0.000000000,0.000000000,0.000000000,0.321313622,0.000000000,4.106744766
1772684557.835476398,0.016044000,0.005113000,0.054089000,-0.000836320,0.004249440,0.004567720,0.999980190,-0.001634000,0.008506000,0.009129000,-0.000027856,0.000500234,0.000426807,-0.005936384,0.005427995,0.001830468,0.009143165,0.000401749,1.000058921,-0.001207932,-0.000494999,0.001710295,0.000000000,0.000000000,0.000000000,0.000000000,0.016430035,0.005105932,0.054093913,0.019410051,-0.000327844,0.001585922,0.005641027,0.001771416,-0.000040537,-0.077371032,0.207385027,0.320651546,-0.000670121,-0.001811659,0.002796979,0.999993205,0.000000000,0.000000000,0.000000000,0.000000000,0.000000000,0.000000000,0.320140007,0.000000000,4.106744766
1772684557.845475912,0.016047000,0.005109000,0.054072000,-0.000693810,0.004180420,0.004753170,0.999979720,-0.001348000,0.008367000,0.009501000,-0.000076632,0.000521562,0.000076302,-0.007764216,0.008842561,-0.003758493,0.010055208,-0.001091489,0.999269132,0.000439606,-0.000642411,0.002398821,0.000000000,0.000000000,0.000000000,0.000000000,0.016629312,0.005105301,0.054106518,0.019934459,-0.000208211,0.001467558,0.005191293,0.001024441,0.000562598,-0.077470885,0.206823485,0.319632398,-0.000671022,-0.001806755,0.002788087,0.999993258,0.000000000,0.000000000,0.000000000,0.000000000,0.000000000,0.000000000,0.319134848,0.000000000,4.106744766
1772684557.855475903,0.016058000,0.005122000,0.054067000,-0.000568420,0.004023580,0.004844260,0.999980010,-0.001098000,0.008053000,0.009684000,0.000167755,0.000161286,-0.000485704,-0.004125814,0.007298514,-0.002617405,0.010298254,-0.002754808,1.000975326,0.003143974,-0.002381341,0.000432633,0.000000000,0.000000000,0.000000000,0.000000000,0.017530756,0.005095737,0.054170075,0.021794036,-0.000519928,0.001456034,0.005908425,-0.000300456,0.001318854,-0.077280747,0.247491090,0.319782815,-0.000668369,-0.002161641,0.002789162,0.999992900,0.000000000,0.000000000,0.000000000,0.000000000,0.000000000,0.000000000,0.319327990,0.000000000,4.106744766
1772684557.865476370,0.016073000,0.005133000,0.054043000,-0.000454470,0.004037750,0.004858740,0.999979940,-0.000870000,0.008080000,0.009714000,0.000543318,-0.000137898,-0.000853284,0.002169871,-0.008092383,0.002625103,0.011939880,-0.001989562,0.999888894,-0.000207902,-0.002493831,0.000897471,0.000000000,0.000000000,0.000000000,0.000000000,0.016599095,0.005108133,0.054098587,0.016316039,-0.000632153,0.001020995,0.006542789,-0.000954489,0.000791369,-0.076048910,0.264381406,0.319563176,-0.000657213,-0.002309005,0.002787170,0.999992251,0.000000000,0.000000000,0.000000000,0.000000000,0.000000000,0.000000000,0.319521142,0.000000000,4.106744766
1772684557.875475883,0.016034000,0.005116000,0.054063000,-0.000903810,0.004471290,0.004539570,0.999979290,-0.001767000,0.008951000,0.009071000,0.000250136,-0.000422747,-0.000201612,-0.004536910,-0.010342592,-0.000186657,0.007760571,-0.001278540,1.000223286,-0.003391246,0.004630195,0.000191611,0.000000000,0.000000000,0.000000000,0.000000000,0.016254267,0.005107398,0.054067213,0.014349791,-0.000697020,0.000792025,0.004513353,-0.000170135,-0.000243034,-0.076016295,0.265137623,0.319636794,-0.000656908,-0.002315603,0.002787808,0.999992203,0.000000000,0.000000000,0.000000000,0.000000000,0.000000000,0.000000000,0.319737385,0.000000000,4.106744766
1772684557.885476112,0.016063000,0.005110000,0.054049000,-0.000718630,0.004138890,0.004710890,0.999980080,-0.001398000,0.008284000,0.009416000,-0.000049767,-0.000330983,0.000504604,-0.007192324,-0.010102671,-0.003422185,0.008341666,-0.002426325,1.001249868,-0.002299754,-0.003182382,0.002260442,0.000000000,0.000000000,0.000000000,0.000000000,0.016316946,0.005096499,0.054066811,0.014617340,-0.000727828,0.000816265,0.003138305,-0.000382993,0.001222692,-0.076361470,0.264487191,0.319571840,-0.000659938,-0.002309935,0.002787238,0.999992194,0.000000000,0.000000000,0.000000000,0.000000000,0.000000000,0.000000000,0.319092766,0.000000000,4.106744766
1772684557.895476341,0.016079000,0.005101000,0.054052000,-0.000679060,0.003878570,0.004812800,0.999980670,-0.001321000,0.007764000,0.009621000,-0.000572320,-0.000209693,0.000797301,-0.008506776,-0.000249788,-0.002031274,0.010512242,-0.002339249,1.001508692,-0.002340223,0.002443443,-0.001808696,0.000000000,0.000000000,0.000000000,0.000000000,0.016334843,0.005095903,0.054074627,0.014863941,-0.000855896,0.000930968,0.004768090,-0.000770225,0.002127582,-0.077040251,0.264915248,0.318309612,-0.000665876,-0.002313680,0.002776207,0.999992262,0.000000000,0.000000000,0.000000000,0.000000000,0.000000000,0.000000000,0.317930958,0.000000000,4.106744766
1772684557.905476093,0.016059000,0.005112000,0.054064000,-0.000692630,0.003820210,0.004802330,0.999980930,-0.001349000,0.007647000,0.009600000,-0.000694756,0.000113734,0.000558703,-0.007683931,0.011523300,-0.003418502,0.011619686,-0.001855816,1.000756898,-0.002490920,0.003726334,-0.003924241,0.000000000,0.000000000,0.000000000,0.000000000,0.016329489,0.005095801,0.054095316,0.015146682,-0.000913577,0.001156238,0.006920242,-0.000442846,0.000580205,-0.078294717,0.263548953,0.317118809,-0.000676880,-0.002301780,0.002765798,0.999992328,0.000000000,0.000000000,0.000000000,0.000000000,0.000000000,0.000000000,0.316777329,0.000000000,4.106744766
1772684557.915476322,0.016029000,0.005111000,0.054098000,-0.000961340,0.004344640,0.004572440,0.999979650,-0.001883000,0.008698000,0.009137000,-0.000381488,0.000291783,-0.000196407,-0.006876831,0.029454994,-0.006288344,0.011987940,-0.000693328,1.000767645,0.000707375,0.000769791,-0.001620938,0.000000000,0.000000000,0.000000000,0.000000000,0.016337438,0.005100172,0.054088400,0.015558122,-0.000895782,0.001132515,0.007613510,0.001213203,0.000660747,-0.079653291,0.261492911,0.316470072,-0.000688799,-0.002283867,0.002760122,0.999992371,0.000000000,0.000000000,0.000000000,0.000000000,0.000000000,0.000000000,0.316167371,0.000000000,4.106744766
1772684557.925476313,0.016049000,0.005123000,0.054059000,-0.000656270,0.004155700,0.004744070,0.999979900,-0.001273000,0.008318000,0.009483000,-0.000259052,0.000240385,-0.000472203,-0.009274408,0.037656087,-0.010850958,0.010205217,0.000274211,1.001735417,0.001696508,-0.002101803,0.000335098,0.000000000,0.000000000,0.000000000,0.000000000,0.016335679,0.005099194,0.054088228,0.015925630,-0.000747028,0.001188771,0.005401439,0.001275689,0.001965782,-0.080570270,0.260165748,0.316303118,-0.000696836,-0.002272306,0.002758655,0.999992371,0.000000000,0.000000000,0.000000000,0.000000000,0.000000000,0.000000000,0.316414642,0.000000000,4.106744766
1772684557.935476303,0.016024000,0.005114000,0.054069000,-0.001059650,0.004714910,0.004542220,0.999978010,-0.002077000,0.009439000,0.009075000,0.000385276,-0.000039705,-0.000625253,0.001990071,0.014831834,0.000137079,0.008381013,-0.001082332,1.002110442,0.000323036,-0.000523955,0.001962851,0.000000000,0.000000000,0.000000000,0.000000000,0.016352468,0.005099556,0.054075430,0.016108248,-0.000604186,0.001301507,0.004731458,0.001002945,0.002162928,-0.080995093,0.259313214,0.316338270,-0.000700563,-0.002264877,0.002758959,0.999992374,0.000000000,0.000000000,0.000000000,0.000000000,0.000000000,0.000000000,0.315507678,0.000000000,4.106744766
1772684557.945476055,0.016057000,0.005113000,0.054039000,-0.000873440,0.004565370,0.004570590,0.999978750,-0.001705000,0.009139000,0.009134000,0.000951730,-0.000227059,-0.000708528,0.019776674,-0.021881287,0.010034825,0.009007518,-0.001362253,1.002008726,0.000544490,-0.000172359,0.002168076,0.000000000,0.000000000,0.000000000,0.000000000,0.016355375,0.005099534,0.054074594,0.016136877,-0.000602974,0.001313738,0.004769198,0.000804745,0.001960748,-0.080949875,0.259368361,0.316182680,-0.000700170,-0.002265356,0.002757602,0.999992384,0.000000000,0.000000000,0.000000000,0.000000000,0.000000000,0.000000000,0.315469209,0.000000000,4.106744766
1772684557.955475569,0.016071000,0.005111000,0.054040000,-0.000764190,0.004475400,0.004676520,0.999978760,-0.001487000,0.008958000,0.009347000,0.000443571,-0.000168862,-0.000186675,0.019782080,-0.041510872,0.009979072,0.009634008,-0.001642168,1.001907012,0.000765939,0.000179228,0.002373297,0.000000000,0.000000000,0.000000000,0.000000000,0.016358282,0.005099511,0.054073759,0.016165506,-0.000601761,0.001325968,0.004806937,0.000606550,0.001758573,-0.080904657,0.259423506,0.316027094,-0.000699778,-0.002265836,0.002756244,0.999992394,0.000000000,0.000000000,0.000000000,0.000000000,0.000000000,0.000000000,0.315430742,0.000000000,4.106744766
1772684557.965475559,0.016062000,0.005116000,0.054060000,-0.000590500,0.004007380,0.004772390,0.999980410,-0.001143000,0.008020000,0.009540000,-0.000109402,-0.000069755,0.000173738,0.013487380,-0.037962186,0.005236313,0.010260529,-0.001922097,1.001805293,0.000987399,0.000530832,0.002578527,0.000000000,0.000000000,0.000000000,0.000000000,0.016361189,0.005099489,0.054072923,0.016194137,-0.000600549,0.001338199,0.004844677,0.000408345,0.001556388,-0.080859437,0.259478655,0.315871500,-0.000699385,-0.002266315,0.002754887,0.999992404,0.000000000,0.000000000,0.000000000,0.000000000,0.000000000,0.000000000,0.315392272,0.000000000,4.106744766
1772684557.975475311,0.016055000,0.005103000,0.054063000,-0.000514440,0.003789070,0.004869610,0.999980830,-0.000992000,0.007583000,0.009736000,-0.000451652,0.000179254,0.000192230,0.001196630,-0.018638586,-0.002259106,0.010887034,-0.002202018,1.001703577,0.001208853,0.000882428,0.002783753,0.000000000,0.000000000,0.000000000,0.000000000,0.016364096,0.005099467,0.054072088,0.016222766,-0.000599336,0.001350430,0.004882417,0.000210145,0.001354208,-0.080814218,0.259533802,0.315715910,-0.000698992,-0.002266794,0.002753530,0.999992413,0.000000000,0.000000000,0.000000000,0.000000000,0.000000000,0.000000000,0.315353804,0.000000000,4.106744766
1772684557.985475063,0.016057000,0.005116000,0.054043000,-0.000424930,0.003733210,0.004707200,0.999981860,-0.000815000,0.007470000,0.009411000,-0.000713656,0.000165987,0.000445008,-0.017247182,0.022793313,-0.011211565,0.011513539,-0.002481940,1.001601861,0.001430308,0.001234023,0.002988978,0.000000000,0.000000000,0.000000000,0.000000000,0.016367003,0.005099445,0.054071252,0.016251396,-0.000598124,0.001362661,0.005136599,-0.000038345,0.001207502,-0.080769000,0.259588949,0.315560320,-0.000698599,-0.002267273,0.002752173,0.999992423,0.000000000,0.000000000,0.000000000,0.000000000,0.000000000,0.000000000,0.315315335,0.000000000,4.106744766
1772684557.995475531,0.016028000,0.005115000,0.054064000,-0.000931730,0.004191970,0.004571690,0.999980330,-0.001825000,0.008392000,0.009136000,-0.000155012,0.000016065,0.000264530,-0.018153732,0.047918904,-0.010838149,0.011742143,-0.002106405,1.001432489,0.000299313,0.000815390,0.003095024,0.000000000,0.000000000,0.000000000,0.000000000,0.016370271,0.005099665,0.054071425,0.016316605,-0.000601256,0.001387586,0.007190479,-0.000705000,0.001522039,-0.081051829,0.259390575,0.315391826,-0.000701075,-0.002265548,0.002750698,0.999992416,0.000000000,0.000000000,0.000000000,0.000000000,0.000000000,0.000000000,0.315276864,0.000000000,4.106744766
1772684558.005475283,0.016053000,0.005117000,0.054045000,-0.000777820,0.004371470,0.004632940,0.999979410,-0.001515000,0.008750000,0.009259000,0.000151049,-0.000153419,0.000152195,-0.010035358,0.051062335,-0.002361054,0.011190006,-0.001344629,1.001112495,-0.002130022,0.000880100,0.001441216,0.000000000,0.000000000,0.000000000,0.000000000,0.016376284,0.005101727,0.054079266,0.016659798,-0.000637408,0.001508980,0.006165305,-0.000460917,0.001285227,-0.081114549,0.259217739,0.315720203,-0.000701620,-0.002264043,0.002753563,0.999992378,0.000000000,0.000000000,0.000000000,0.000000000,0.000000000,0.000000000,0.316285588,0.000000000,4.106744766
1772684558.015475273,0.016043000,0.005116000,0.054075000,-0.001029730,0.004807610,0.004488800,0.999977840,-0.002016000,0.009624000,0.008968000,0.000275661,-0.000047824,0.000032187,0.006465020,0.021286378,0.008522512,0.009641228,-0.001890222,1.000750005,-0.002098508,0.001556948,-0.003139509,0.000000000,0.000000000,0.000000000,0.000000000,0.016379252,0.005096341,0.054085025,0.016857747,-0.000654580,0.001581143,0.005357378,-0.000277926,0.001151899,-0.081244473,0.259362734,0.316220376,-0.000702741,-0.002265315,0.002757925,0.999992430,0.000000000,0.000000000,0.000000000,0.000000000,0.000000000,0.000000000,0.315960295,0.000000000,4.106744766
1772684558.025475025,0.016061000,0.005108000,0.054066000,-0.000684650,0.004755720,0.004755590,0.999977150,-0.001324000,0.009518000,0.009505000,0.000368474,-0.000202564,-0.000522417,0.024331641,-0.012943846,0.021665529,0.009389501,-0.001492233,1.001214044,0.000750564,-0.003469046,0.000016633,0.000000000,0.000000000,0.000000000,0.000000000,0.016380797,0.005099952,0.054080481,0.016970132,-0.000665063,0.001609908,0.005167540,0.000046151,0.001244696,-0.082287787,0.258921121,0.315760755,-0.000711865,-0.002261483,0.002753896,0.999992401,0.000000000,0.000000000,0.000000000,0.000000000,0.000000000,0.000000000,0.315538887,0.000000000,4.106744766
1772684558.035475016,0.016059000,0.005103000,0.054057000,-0.000578750,0.004550310,0.004820120,0.999977860,-0.001114000,0.009106000,0.009635000,0.000371659,-0.000052914,-0.000812996,0.027702055,-0.038140485,0.021070343,0.009908308,0.000082693,1.001311864,0.004374277,0.000045027,0.002041256,0.000000000,0.000000000,0.000000000,0.000000000,0.016371997,0.005102101,0.054086204,0.017036774,-0.000589623,0.001716660,0.005497908,0.000694730,0.000765233,-0.082832907,0.260118928,0.316130322,-0.000716586,-0.002271951,0.002757102,0.999992311,0.000000000,0.000000000,0.000000000,0.000000000,0.000000000,0.000000000,0.316166687,0.000000000,4.106744766
1772684558.045475245,0.016046000,0.005111000,0.054043000,-0.000490570,0.004199970,0.004896960,0.999979070,-0.000940000,0.008405000,0.009790000,-0.000141162,-0.000042288,-0.000137005,0.005401575,-0.026869578,0.005305684,0.009976500,-0.002336836,0.999480744,-0.000279790,0.002175235,-0.004004087,0.000000000,0.000000000,0.000000000,0.000000000,0.016377181,0.005105199,0.054092056,0.017205903,-0.000399745,0.001770361,0.005824869,0.000110437,0.000076626,-0.081028133,0.259539062,0.316053082,-0.000700852,-0.002266847,0.002756468,0.999992362,0.000000000,0.000000000,0.000000000,0.000000000,0.000000000,0.000000000,0.316175204,0.000000000,4.106744766
1772684558.055475235,0.016058000,0.005120000,0.054036000,-0.000430260,0.003959000,0.004912400,0.999980000,-0.000822000,0.007922000,0.009822000,-0.000280128,-0.000046193,0.000339297,-0.012515469,-0.003992058,-0.009995083,0.010205733,-0.003198537,1.000055960,0.002147666,-0.001526504,0.000601130,0.000000000,0.000000000,0.000000000,0.000000000,0.016384464,0.005103792,0.054097082,0.017367836,-0.000473154,0.001715457,0.005208709,-0.001821190,-0.000209164,-0.080244295,0.259292572,0.316309383,-0.000694013,-0.002264679,0.002758722,0.999992371,0.000000000,0.000000000,0.000000000,0.000000000,0.000000000,0.000000000,0.315596784,0.000000000,4.106744766
1772684558.065474749,0.016058000,0.005103000,0.054037000,-0.000490650,0.004152000,0.004961710,0.999978950,-0.000940000,0.008309000,0.009920000,-0.000497825,0.000056197,0.000943494,-0.027577904,0.018337013,-0.020687060,0.007841957,-0.001822062,0.999725917,0.001346731,0.001111764,0.000161707,0.000000000,0.000000000,0.000000000,0.000000000,0.016391602,0.005098592,0.054094246,0.017424083,-0.000622054,0.001641868,0.003751054,-0.000972506,0.000211220,-0.079933719,0.257654454,0.315025672,-0.000691367,-0.002250368,0.002747535,0.999992420,0.000000000,0.000000000,0.000000000,0.000000000,0.000000000,0.000000000,0.315232408,0.000000000,4.106744766
1772684558.075475454,0.016050000,0.005111000,0.054076000,-0.000864710,0.004344290,0.004643110,0.999979410,-0.001689000,0.008697000,0.009279000,-0.000203769,0.000111286,0.000538579,-0.017811294,0.011623467,-0.014071515,0.007915781,-0.002351931,1.000753525,-0.000628006,-0.000419738,0.003261445,0.000000000,0.000000000,0.000000000,0.000000000,0.016388786,0.005097417,0.054084510,0.017334389,-0.000674434,0.001542315,0.003954821,0.000090880,0.000696851,-0.079366119,0.258176446,0.315268829,-0.000686396,-0.002254911,0.002749665,0.999992430,0.000000000,0.000000000,0.000000000,0.000000000,0.000000000,0.000000000,0.314906460,0.000000000,4.106744766
1772684558.085474730,0.016034000,0.005106000,0.054092000,-0.001054180,0.004781990,0.004411060,0.999978280,-0.002066000,0.009573000,0.008812000,-0.000279818,0.000160587,0.000201846,-0.012536490,0.001512064,-0.006898479,0.008922145,-0.000660142,1.001513551,-0.002368520,0.003479789,-0.000952652,0.000000000,0.000000000,0.000000000,0.000000000,0.016390367,0.005102172,0.054074672,0.017288063,-0.000645115,0.001562556,0.004357545,0.000190683,0.001825823,-0.079574229,0.258187959,0.315026454,-0.000688217,-0.002255015,0.002747547,0.999992430,0.000000000,0.000000000,0.000000000,0.000000000,0.000000000,0.000000000,0.315625276,0.000000000,4.106744766
1772684558.095474720,0.016040000,0.005111000,0.054066000,-0.000914790,0.004479860,0.004610130,0.999978920,-0.001788000,0.008968000,0.009212000,-0.000207984,0.000225175,-0.000366414,-0.005879662,-0.014074451,-0.002220395,0.008408323,-0.000446520,1.001928270,0.002507057,0.002238478,-0.000296606,0.000000000,0.000000000,0.000000000,0.000000000,0.016391727,0.005098086,0.054071523,0.017281061,-0.000610347,0.001665568,0.004586600,-0.000153281,0.001978199,-0.080717271,0.257888332,0.315803472,-0.000698184,-0.002252433,0.002754306,0.999992430,0.000000000,0.000000000,0.000000000,0.000000000,0.000000000,0.000000000,0.315510656,0.000000000,4.106744766
1772684558.105474710,0.016047000,0.005122000,0.054050000,-0.000724500,0.004052260,0.004761140,0.999980190,-0.001410000,0.008111000,0.009517000,0.000300777,0.000012315,-0.000535024,0.003461596,-0.023651338,0.005452928,0.010390301,-0.003264847,1.001986880,0.001512317,0.003249681,0.002412497,0.000000000,0.000000000,0.000000000,0.000000000,0.016389785,0.005097810,0.054085687,0.017299376,-0.000607271,0.001831484,0.005575160,-0.000485668,0.001143485,-0.079441384,0.257531591,0.315169707,-0.000687071,-0.002249285,0.002748803,0.999992430,0.000000000,0.000000000,0.000000000,0.000000000,0.000000000,0.000000000,0.315017155,0.000000000,4.106744766
1772684558.115474701,0.016053000,0.005117000,0.054035000,-0.000657030,0.003788630,0.004807330,0.999981050,-0.001278000,0.007584000,0.009610000,0.000723544,-0.000502642,-0.000398174,0.014610387,-0.024397039,0.014679011,0.011064928,-0.000314863,0.998564972,-0.000623093,-0.000892678,-0.002023829,0.000000000,0.000000000,0.000000000,0.000000000,0.016382246,0.005096843,0.054105696,0.017437901,-0.000636951,0.001912516,0.006792861,0.000654174,-0.000456167,-0.078954752,0.254828958,0.314780844,-0.000682896,-0.002225686,0.002745436,0.999992534,0.000000000,0.000000000,0.000000000,0.000000000,0.000000000,0.000000000,0.314653303,0.000000000,4.106744766
1772684558.125474453,0.016038000,0.005110000,0.054069000,-0.001006560,0.004253100,0.004653620,0.999979620,-0.001974000,0.008515000,0.009299000,0.000374923,-0.000433955,0.000414530,0.007605776,-0.008776486,0.006715125,0.011672570,0.000287167,0.998968986,0.001133349,-0.000009032,0.000543797,0.000000000,0.000000000,0.000000000,0.000000000,0.016380595,0.005097926,0.054107064,0.017661184,-0.000481764,0.001763815,0.006594948,0.001593083,-0.001036755,-0.078455123,0.253977271,0.314416149,-0.000678564,-0.002218240,0.002742268,0.999992549,0.000000000,0.000000000,0.000000000,0.000000000,0.000000000,0.000000000,0.313970224,0.000000000,4.106744766
1772684558.135474205,0.016062000,0.005101000,0.054058000,-0.000849050,0.004142420,0.004613360,0.999980420,-0.001660000,0.008293000,0.009220000,-0.000016977,-0.000164938,0.000581780,0.001905960,0.013385793,0.000230729,0.010365794,-0.002445694,0.999399927,0.002459070,0.004051478,-0.001499927,0.000000000,0.000000000,0.000000000,0.000000000,0.016383498,0.005102179,0.054099552,0.017799036,-0.000415108,0.001621793,0.005561086,-0.000549717,-0.000247238,-0.077981091,0.253782356,0.313584155,-0.000674448,-0.002216523,0.002735018,0.999992591,0.000000000,0.000000000,0.000000000,0.000000000,0.000000000,0.000000000,0.312874754,0.000000000,4.106744766
1772684558.145473957,0.016068000,0.005092000,0.054074000,-0.000642620,0.004117410,0.004865450,0.999979480,-0.001245000,0.008241000,0.009726000,-0.000178652,0.000181138,0.000073252,0.002713266,0.019706866,0.000809305,0.009896275,-0.002382840,0.999532896,0.002330925,0.000267520,-0.001728050,0.000000000,0.000000000,0.000000000,0.000000000,0.016387898,0.005106644,0.054089548,0.017887345,-0.000435947,0.001505061,0.005656560,-0.000303921,-0.000522866,-0.077849146,0.252364437,0.312264142,-0.000673356,-0.002204138,0.002723509,0.999992639,0.000000000,0.000000000,0.000000000,0.000000000,0.000000000,0.000000000,0.311716326,0.000000000,4.106744766
1772684558.155474424,0.016057000,0.005102000,0.054063000,-0.000525810,0.004025820,0.004898450,0.999979760,-0.001012000,0.008057000,0.009793000,-0.000090307,0.000556508,-0.000662918,0.010140225,0.006860728,0.005536120,0.009886341,-0.001620796,1.000480812,0.001866719,-0.002125844,-0.002276015,0.000000000,0.000000000,0.000000000,0.000000000,0.016392707,0.005106676,0.054078739,0.017964235,-0.000480392,0.001374224,0.004786929,-0.000469447,0.000156722,-0.077938573,0.250979851,0.312086600,-0.000674173,-0.002192057,0.002721967,0.999992669,0.000000000,0.000000000,0.000000000,0.000000000,0.000000000,0.000000000,0.312320228,0.000000000,4.106744766
1772684558.165474415,0.016029000,0.005127000,0.054066000,-0.000865150,0.004380130,0.004660990,0.999979170,-0.001689000,0.008768000,0.009315000,-0.000079487,0.000468396,-0.000581741,0.003540535,0.006018031,0.003782566,0.009852985,-0.001089791,1.001126891,-0.001565361,0.001777304,-0.002991478,0.000000000,0.000000000,0.000000000,0.000000000,0.016391741,0.005102826,0.054086443,0.017985149,-0.000500486,0.001416158,0.005474867,-0.000450638,0.001294557,-0.078167574,0.251294374,0.311626092,-0.000676172,-0.002194804,0.002717942,0.999992669,0.000000000,0.000000000,0.000000000,0.000000000,0.000000000,0.000000000,0.311036461,0.000000000,4.106744766
1772684558.175473928,0.016055000,0.005124000,0.054037000,-0.000700360,0.004353000,0.004808710,0.999978720,-0.001359000,0.008713000,0.009612000,-0.000018221,0.000113578,0.000179915,-0.007991321,0.017298079,-0.003947191,0.010892802,-0.001734619,1.000560449,-0.003476819,0.004698279,-0.001761658,0.000000000,0.000000000,0.000000000,0.000000000,0.016402439,0.005095965,0.054087738,0.018113513,-0.000512356,0.001480010,0.006129212,-0.000044984,0.000717484,-0.077905858,0.251245669,0.310926972,-0.000673903,-0.002194369,0.002711846,0.999992687,0.000000000,0.000000000,0.000000000,0.000000000,0.000000000,0.000000000,0.310802732,0.000000000,4.106744766
1772684558.185473442,0.016056000,0.005113000,0.054044000,-0.000672670,0.004353650,0.004771710,0.999978910,-0.001304000,0.008714000,0.009538000,0.000262102,-0.000243784,0.000388967,-0.005535668,0.012548220,-0.008840636,0.012744624,-0.002307043,0.999651815,0.000025512,0.001234537,0.001551297,0.000000000,0.000000000,0.000000000,0.000000000,0.016410830,0.005089333,0.054094368,0.018333924,-0.000554511,0.001492267,0.008652902,-0.000808491,0.000298867,-0.078066331,0.249443666,0.310361624,-0.000675357,-0.002178644,0.002706920,0.999992728,0.000000000,0.000000000,0.000000000,0.000000000,0.000000000,0.000000000,0.310010482,0.000000000,4.106744766
1772684558.195472717,0.016063000,0.005113000,0.054051000,-0.000609660,0.004181990,0.004849190,0.999979310,-0.001179000,0.008370000,0.009694000,0.000415171,-0.000378011,0.000296581,0.000295084,0.003220785,-0.002787158,0.012251076,-0.001492051,0.999130345,-0.000707531,0.000349944,0.003874197,0.000000000,0.000000000,0.000000000,0.000000000,0.016411113,0.005092023,0.054092569,0.018679820,-0.000595976,0.001404452,0.008164035,0.000180174,-0.000894119,-0.078105297,0.247851143,0.310166772,-0.000675738,-0.002164746,0.002705229,0.999992744,0.000000000,0.000000000,0.000000000,0.000000000,0.000000000,0.000000000,0.310361002,0.000000000,4.106744766
1772684558.205472469,0.016054000,0.005101000,0.054092000,-0.000925280,0.004635200,0.004666200,0.999977940,-0.001807000,0.009279000,0.009324000,0.000146523,-0.000241511,-0.000141978,0.006278071,-0.006253698,0.000044386,0.010385386,-0.001247760,1.000557519,-0.002849647,0.003646733,0.002641655,0.000000000,0.000000000,0.000000000,0.000000000,0.016402113,0.005104075,0.054091810,0.018864108,-0.000509886,0.001274976,0.006728129,0.000094278,-0.000056394,-0.078259174,0.246395565,0.310619804,-0.000677107,-0.002152050,0.002709188,0.999992788,0.000000000,0.000000000,0.000000000,0.000000000,0.000000000,0.000000000,0.310964209,0.000000000,4.106744766
1772684558.215472221,0.016062000,0.005106000,0.054069000,-0.000678250,0.004434140,0.004669390,0.999979040,-0.001315000,0.008875000,0.009333000,-0.000196737,0.000210995,-0.000454507,0.005346563,-0.014144983,-0.001322198,0.008673589,-0.001035375,1.000714050,-0.001190817,0.001376910,0.001144520,0.000000000,0.000000000,0.000000000,0.000000000,0.016411823,0.005109645,0.054075536,0.018967547,-0.000472693,0.001207839,0.004450015,-0.000021919,0.000578632,-0.079151440,0.244289326,0.310767250,-0.000684940,-0.002133692,0.002710471,0.999992797,0.000000000,0.000000000,0.000000000,0.000000000,0.000000000,0.000000000,0.310462814,0.000000000,4.106744766
1772684558.225472212,0.016053000,0.005116000,0.054039000,-0.000596850,0.004212310,0.004718560,0.999979820,-0.001154000,0.008430000,0.009432000,-0.000017619,0.000321892,-0.000885568,0.012097087,-0.016509773,0.007171542,0.008988066,-0.001483056,1.000759860,0.000221180,0.003346425,0.000514960,0.000000000,0.000000000,0.000000000,0.000000000,0.016417239,0.005106853,0.054071162,0.018854119,-0.000460109,0.001209545,0.005344023,0.000176569,0.000935593,-0.079616655,0.242953234,0.310696984,-0.000689033,-0.002122043,0.002709857,0.999992837,0.000000000,0.000000000,0.000000000,0.000000000,0.000000000,0.000000000,0.311068120,0.000000000,4.106744766
1772684558.235472441,0.016061000,0.005119000,0.054025000,-0.000602460,0.004144610,0.004869050,0.999979380,-0.001165000,0.008295000,0.009733000,-0.000011888,0.000103535,-0.000614336,0.015277031,-0.017101561,0.014352614,0.010489921,-0.000894379,1.000119847,0.000152763,0.000534079,-0.001187906,0.000000000,0.000000000,0.000000000,0.000000000,0.016415061,0.005105754,0.054072128,0.018809456,-0.000430382,0.001253867,0.005794143,0.000653765,-0.000184619,-0.079713691,0.243087545,0.311021334,-0.000689871,-0.002123219,0.002712685,0.999992724,0.000000000,0.000000000,0.000000000,0.000000000,0.000000000,0.000000000,0.310872828,0.000000000,4.106744766
1772684558.245471716,0.016053000,0.005112000,0.054039000,-0.000477100,0.004073750,0.004840440,0.999979870,-0.000915000,0.008152000,0.009677000,0.000004215,-0.000042113,0.000062005,0.016610642,-0.021466908,0.019897088,0.010139129,-0.002050030,0.999798490,-0.001134616,-0.000155966,0.001293493,0.000000000,0.000000000,0.000000000,0.000000000,0.016258583,0.005109246,0.054055034,0.016638549,-0.000342352,0.001022608,0.005656311,-0.000356915,0.001024107,-0.080434722,0.267341735,0.311752578,-0.000695573,-0.002334897,0.002718903,0.999992362,0.000000000,0.000000000,0.000000000,0.000000000,0.000000000,0.000000000,0.311306120,0.000000000,4.106744766
1772684558.255471945,0.016060000,0.005118000,0.054049000,-0.000453630,0.003901870,0.004912990,0.999980220,-0.000869000,0.007808000,0.009823000,-0.000154099,-0.000233508,0.000643221,0.008295611,-0.014567421,0.015307528,0.009735199,-0.002208082,1.001475413,0.001641948,-0.003518403,0.002057456,0.000000000,0.000000000,0.000000000,0.000000000,0.016236139,0.005108178,0.054056461,0.016077887,-0.000375941,0.001002229,0.004908227,-0.000455918,0.000965728,-0.081371298,0.272089156,0.311293291,-0.000703643,-0.002376346,0.002714846,0.999992251,0.000000000,0.000000000,0.000000000,0.000000000,0.000000000,0.000000000,0.311788200,0.000000000,4.106744766
1772684558.265471935,0.016058000,0.005108000,0.054051000,-0.000404310,0.004173290,0.005084680,0.999978280,-0.000766000,0.008351000,0.010166000,-0.000282906,-0.000088481,0.000331022,0.004236101,-0.014112181,0.008987920,0.011098777,0.000382950,1.000343247,-0.002253846,0.001493498,-0.000243542,0.000000000,0.000000000,0.000000000,0.000000000,0.016303929,0.005102581,0.054068709,0.016582194,-0.000368149,0.001108965,0.006059363,0.000598754,0.000933380,-0.081121002,0.273187733,0.311745264,-0.000701423,-0.002385929,0.002718789,0.999992195,0.000000000,0.000000000,0.000000000,0.000000000,0.000000000,0.000000000,0.311256011,0.000000000,4.106744766
1772684558.275471926,0.016052000,0.005104000,0.054060000,-0.000381630,0.003863710,0.005105920,0.999979430,-0.000724000,0.007731000,0.010209000,-0.000162801,0.000168415,-0.000200156,-0.003293522,-0.013982897,-0.000046571,0.011175436,-0.001655010,1.000952296,-0.001879471,0.001366954,0.002428856,0.000000000,0.000000000,0.000000000,0.000000000,0.016344346,0.005104967,0.054072318,0.017030323,-0.000259982,0.001160855,0.006775219,0.000079330,0.000949426,-0.080433507,0.272286269,0.310994203,-0.000695461,-0.002378042,0.002712254,0.999992250,0.000000000,0.000000000,0.000000000,0.000000000,0.000000000,0.000000000,0.311071390,0.000000000,4.106744766
1772684558.285471201,0.016051000,0.005115000,0.054052000,-0.000353570,0.003653620,0.005067220,0.999980420,-0.000670000,0.007311000,0.010132000,0.000347242,0.000045727,-0.000536927,-0.005300457,-0.014718590,-0.003320533,0.011156081,-0.001079117,1.000704008,-0.003236570,-0.000957000,0.003724031,0.000000000,0.000000000,0.000000000,0.000000000,0.016366237,0.005107812,0.054062743,0.017394148,-0.000280299,0.001197654,0.006500951,-0.000242279,0.000798477,-0.080801991,0.271759855,0.310930603,-0.000698690,-0.002373457,0.002711695,0.999992251,0.000000000,0.000000000,0.000000000,0.000000000,0.000000000,0.000000000,0.310540349,0.000000000,4.106744766
1772684558.295471191,0.016049000,0.005116000,0.054029000,-0.000494740,0.003737660,0.004971310,0.999980540,-0.000952000,0.007480000,0.009939000,0.000330051,0.000007012,0.000019328,-0.009764343,-0.004541335,-0.014234956,0.010520228,-0.000571780,0.999170608,-0.000601570,0.001946314,0.000569909,0.000000000,0.000000000,0.000000000,0.000000000,0.016377865,0.005110521,0.054060806,0.017588237,-0.000236815,0.001187749,0.006338217,0.000878362,-0.000002972,-0.081192443,0.271830373,0.310297334,-0.000702109,-0.002374077,0.002706160,0.999992251,0.000000000,0.000000000,0.000000000,0.000000000,0.000000000,0.000000000,0.309910287,0.000000000,4.106744766
1772684558.305470705,0.016054000,0.005120000,0.054036000,-0.000594960,0.003834910,0.004907360,0.999980430,-0.001152000,0.007676000,0.009810000,0.000448097,-0.000150311,0.000494115,-0.015865370,0.012434829,-0.016555700,0.011337486,-0.000710676,0.999135032,0.000882659,0.001531232,-0.000127995,0.000000000,0.000000000,0.000000000,0.000000000,0.016395241,0.005110418,0.054063423,0.017820604,-0.000152635,0.001121622,0.005979118,0.001239315,-0.000194847,-0.081784423,0.269850695,0.309641259,-0.000707335,-0.002356811,0.002700435,0.999992337,0.000000000,0.000000000,0.000000000,0.000000000,0.000000000,0.000000000,0.309070668,0.000000000,4.106744766
1772684558.315471411,0.016079000,0.005111000,0.054049000,-0.000580040,0.003809200,0.004836230,0.999980880,-0.001123000,0.007624000,0.009668000,0.000232829,-0.000158120,0.000510684,-0.016957918,0.034983284,-0.013278903,0.006935288,-0.001532391,1.002213129,-0.000411851,0.001451396,-0.001434663,0.000000000,0.000000000,0.000000000,0.000000000,0.016411303,0.005104143,0.054071199,0.017923955,-0.000099735,0.001170434,0.003532177,-0.000247776,0.001437079,-0.081781621,0.269335391,0.308477007,-0.000707347,-0.002352307,0.002690278,0.999992371,0.000000000,0.000000000,0.000000000,0.000000000,0.000000000,0.000000000,0.308454246,0.000000000,4.106744766
1772684558.325471163,0.016075000,0.005097000,0.054059000,-0.000526280,0.003873150,0.004888070,0.999980410,-0.001015000,0.007751000,0.009772000,-0.000168609,0.000027040,0.000287743,-0.011712203,0.037910902,-0.008789671,0.007507711,-0.002447678,1.000129944,0.002525972,0.000849760,0.000864326,0.000000000,0.000000000,0.000000000,0.000000000,0.016404358,0.005107346,0.054088153,0.017709770,-0.000167377,0.001320635,0.002860095,-0.001740687,0.000355866,-0.080095747,0.268712091,0.308174219,-0.000692656,-0.002346826,0.002687675,0.999992371,0.000000000,0.000000000,0.000000000,0.000000000,0.000000000,0.000000000,0.307670148,0.000000000,4.106744766
1772684558.335471153,0.016047000,0.005116000,0.054081000,-0.000856670,0.004357200,0.004632270,0.999979410,-0.001673000,0.008722000,0.009257000,-0.000351768,0.000271348,-0.000216783,-0.005328046,0.026554915,-0.000071541,0.008860805,-0.001435007,0.999275375,-0.001370850,-0.002290898,0.000657414,0.000000000,0.000000000,0.000000000,0.000000000,0.016403744,0.005104827,0.054081181,0.017582663,-0.000309914,0.001219057,0.004260269,-0.000371906,-0.000745851,-0.079275023,0.268185289,0.307543144,-0.000685519,-0.002342206,0.002682187,0.999992430,0.000000000,0.000000000,0.000000000,0.000000000,0.000000000,0.000000000,0.307742772,0.000000000,4.106744766
1772684558.345470905,0.016062000,0.005106000,0.054047000,-0.000818820,0.004469610,0.004824780,0.999978040,-0.001595000,0.008947000,0.009643000,-0.000437957,0.000156002,-0.000700603,-0.001519783,0.014882969,0.007053711,0.010816509,0.000198756,0.999765909,0.000310090,-0.002070373,-0.000163836,0.000000000,0.000000000,0.000000000,0.000000000,0.016402670,0.005105956,0.054077669,0.017577446,-0.000304389,0.001177098,0.005280578,0.000945125,-0.000882747,-0.078912821,0.269000978,0.307860000,-0.000682332,-0.002349318,0.002684955,0.999992420,0.000000000,0.000000000,0.000000000,0.000000000,0.000000000,0.000000000,0.307890016,0.000000000,4.106744766
1772684558.355470896,0.016048000,0.005128000,0.054029000,-0.000704090,0.004446690,0.004800560,0.999978340,-0.001366000,0.008900000,0.009595000,-0.000302176,0.000056779,-0.000516823,0.006273894,-0.002343365,0.013044848,0.010949059,0.000201274,0.999743791,0.000239241,-0.002037866,-0.000693696,0.000000000,0.000000000,0.000000000,0.000000000,0.016401378,0.005107627,0.054074917,0.017583835,-0.000281536,0.001145405,0.005748512,0.001017722,-0.000730440,-0.078867851,0.269015242,0.307919189,-0.000681938,-0.002349442,0.002685472,0.999992409,0.000000000,0.000000000,0.000000000,0.000000000,0.000000000,0.000000000,0.307952435,0.000000000,4.106744766
1772684558.365470648,0.016051000,0.005120000,0.054034000,-0.000610620,0.004274320,0.004903520,0.999978660,-0.001179000,0.008555000,0.009802000,0.000006080,-0.000237005,-0.000018939,0.014902437,-0.017629545,0.015566284,0.011081605,0.000203793,0.999721675,0.000168393,-0.002005360,-0.001223543,0.000000000,0.000000000,0.000000000,0.000000000,0.016400086,0.005109297,0.054072165,0.017590223,-0.000258683,0.001113713,0.006216435,0.001090317,-0.000578137,-0.078822883,0.269029506,0.307978376,-0.000681545,-0.002349565,0.002685989,0.999992399,0.000000000,0.000000000,0.000000000,0.000000000,0.000000000,0.000000000,0.308014854,0.000000000,4.106744766
1772684558.375469923,0.016061000,0.005107000,0.054043000,-0.000629360,0.004086840,0.005054960,0.999978670,-0.001217000,0.008180000,0.010105000,0.000212121,-0.000404002,0.000420746,0.019618030,-0.023876430,0.013952435,0.011214145,0.000206311,0.999699559,0.000097549,-0.001972855,-0.001753365,0.000000000,0.000000000,0.000000000,0.000000000,0.016398794,0.005110968,0.054069413,0.017596612,-0.000235831,0.001082022,0.006684335,0.001162909,-0.000425841,-0.078777917,0.269043769,0.308037560,-0.000681151,-0.002349689,0.002686507,0.999992389,0.000000000,0.000000000,0.000000000,0.000000000,0.000000000,0.000000000,0.308077269,0.000000000,4.106744766
1772684558.385469437,0.016053000,0.005097000,0.054054000,-0.000542180,0.004156160,0.005026230,0.999978580,-0.001043000,0.008318000,0.010048000,-0.000015307,-0.000132051,0.000567347,0.014215519,-0.012025960,0.004359509,0.011346689,0.000208829,0.999677443,0.000026703,-0.001940350,-0.002283199,0.000000000,0.000000000,0.000000000,0.000000000,0.016397502,0.005112638,0.054066661,0.017603000,-0.000212979,0.001050331,0.007152247,0.001235502,-0.000273542,-0.078732950,0.269058032,0.308096746,-0.000680757,-0.002349813,0.002687024,0.999992378,0.000000000,0.000000000,0.000000000,0.000000000,0.000000000,0.000000000,0.308139686,0.000000000,4.106744766
1772684558.395469427,0.016052000,0.005110000,0.054063000,-0.000387490,0.004028960,0.005062900,0.999978990,-0.000734000,0.008062000,0.010123000,0.000018065,0.000058061,0.000021698,0.011014866,0.001149375,0.003457122,0.011479238,0.000211347,0.999655325,-0.000044146,-0.001907843,-0.002813059,0.000000000,0.000000000,0.000000000,0.000000000,0.016396379,0.005114254,0.054063622,0.017644258,-0.000174425,0.001014726,0.007620181,0.001308099,-0.000121235,-0.078687981,0.269072297,0.308155934,-0.000680363,-0.002349937,0.002687541,0.999992371,0.000000000,0.000000000,0.000000000,0.000000000,0.000000000,0.000000000,0.308202105,0.000000000,4.106744766
1772684558.405469179,0.016053000,0.005108000,0.054053000,-0.000392140,0.004103840,0.005043930,0.999978780,-0.000743000,0.008212000,0.010085000,-0.000077584,0.000285237,-0.000409791,0.004735152,0.004449045,-0.000865242,0.011556428,0.000217865,0.999646614,-0.000131069,-0.001930216,-0.003294821,0.000000000,0.000000000,0.000000000,0.000000000,0.016396003,0.005115628,0.054059308,0.017840333,-0.000066163,0.000961750,0.006966159,0.001727756,0.000080163,-0.078794121,0.269226687,0.307958256,-0.000681289,-0.002351285,0.002685813,0.999992371,0.000000000,0.000000000,0.000000000,0.000000000,0.000000000,0.000000000,0.307060567,0.000000000,4.106744766
1772684558.415468454,0.016063000,0.005116000,0.054040000,-0.000370730,0.004078090,0.005010380,0.999979060,-0.000701000,0.008160000,0.010018000,0.000078322,0.000080983,-0.000427331,-0.003089406,-0.004095876,-0.004597183,0.009198450,0.000487471,1.000268464,-0.000395705,-0.003765429,-0.001367439,0.000000000,0.000000000,0.000000000,0.000000000,0.016401243,0.005112519,0.054059721,0.017964405,0.000111644,0.000937536,0.004876256,0.002399059,0.000197569,-0.079671414,0.270247220,0.306403464,-0.000688953,-0.002360202,0.002672222,0.999992428,0.000000000,0.000000000,0.000000000,0.000000000,0.000000000,0.000000000,0.305898954,0.000000000,4.106744766
1772684558.425468683,0.016047000,0.005117000,0.054034000,-0.000393490,0.004173300,0.005016670,0.999978630,-0.000745000,0.008350000,0.010030000,0.000260917,-0.000051981,-0.000063034,-0.006368188,-0.016280594,-0.004495501,0.008553770,0.000880487,1.001059674,0.002983419,0.000835050,0.000885597,0.000000000,0.000000000,0.000000000,0.000000000,0.016401809,0.005107025,0.054065945,0.017909078,0.000345455,0.000951151,0.003766110,0.002172914,0.001439884,-0.079931144,0.270971503,0.305561180,-0.000691220,-0.002366524,0.002664861,0.999992430,0.000000000,0.000000000,0.000000000,0.000000000,0.000000000,0.000000000,0.305503202,0.000000000,4.106744766
1772684558.435467958,0.016056000,0.005111000,0.054042000,-0.000470130,0.004095690,0.005066130,0.999978670,-0.000899000,0.008196000,0.010129000,0.000235859,-0.000137335,0.000279973,-0.009192063,-0.022591600,-0.006922173,0.008665343,-0.001055461,1.002086421,-0.001856903,0.001089919,-0.001427899,0.000000000,0.000000000,0.000000000,0.000000000,0.016400079,0.005111736,0.054073873,0.017814659,0.000492936,0.001124751,0.004126714,0.001272840,0.002519245,-0.079699717,0.270495454,0.304998226,-0.000689223,-0.002362361,0.002659956,0.999992431,0.000000000,0.000000000,0.000000000,0.000000000,0.000000000,0.000000000,0.304280634,0.000000000,4.106744766
1772684558.445468426,0.016063000,0.005100000,0.054050000,-0.000568570,0.003776680,0.004935640,0.999980530,-0.001100000,0.007559000,0.009867000,0.000060392,0.000018104,0.000484694,-0.007140349,-0.020678041,-0.007568030,0.009820736,-0.000227430,1.000737292,-0.000481042,0.004340548,0.000823656,0.000000000,0.000000000,0.000000000,0.000000000,0.016399125,0.005114728,0.054075562,0.017798403,0.000548616,0.001266643,0.004768356,0.000341473,0.002038887,-0.079762519,0.270066531,0.303709607,-0.000689808,-0.002358611,0.002648712,0.999992479,0.000000000,0.000000000,0.000000000,0.000000000,0.000000000,0.000000000,0.302803942,0.000000000,4.106744766
1772684558.455468655,0.016065000,0.005106000,0.054057000,-0.000518710,0.003668170,0.004860050,0.999981330,-0.001002000,0.007341000,0.009717000,-0.000046775,0.000084674,0.000249495,-0.000626290,-0.002833312,-0.006729408,0.010007599,-0.003391795,1.001020298,0.000278112,0.003384251,-0.000966296,0.000000000,0.000000000,0.000000000,0.000000000,0.016403588,0.005120970,0.054069612,0.017828292,0.000522217,0.001249052,0.005460555,-0.001493763,0.001272540,-0.080043325,0.268208899,0.302141481,-0.000692333,-0.002342398,0.002635033,0.999992505,0.000000000,0.000000000,0.000000000,0.000000000,0.000000000,0.000000000,0.301313295,0.000000000,4.106744766
1772684558.465467930,0.016060000,0.005121000,0.054060000,-0.000423960,0.003724390,0.004923600,0.999980850,-0.000811000,0.007453000,0.009844000,-0.000162607,0.000166239,-0.000098368,0.003776311,0.016716905,-0.006656903,0.010808502,-0.002240175,1.002326625,0.003888033,0.002885481,0.001827351,0.000000000,0.000000000,0.000000000,0.000000000,0.016398078,0.005123044,0.054063938,0.017922647,0.000302029,0.001372259,0.005736905,-0.001274888,0.002234510,-0.080343625,0.266822957,0.300774455,-0.000695014,-0.002330302,0.002623106,0.999992609,0.000000000,0.000000000,0.000000000,0.000000000,0.000000000,0.000000000,0.300285846,0.000000000,4.106744766
