t,px,py,pz,qx,qy,qz,qw,roll,pitch,yaw,vx,vy,vz,wx_vicon,wy_vicon,wz_vicon,imu_acc_x,imu_acc_y,imu_acc_z,imu_gyro_x,imu_gyro_y,imu_gyro_z,motor_motor_m1,motor_motor_m2,motor_motor_m3,motor_motor_m4,est_stateEstimate_x,est_stateEstimate_y,est_stateEstimate_z,est_stateEstimate_vx,est_stateEstimate_vy,est_stateEstimate_vz,est_stateEstimate_ax,est_stateEstimate_ay,est_stateEstimate_az,att_stateEstimate_roll,att_stateEstimate_pitch,att_stateEstimate_yaw,att_stateEstimate_qx,att_stateEstimate_qy,att_stateEstimate_qz,att_stateEstimate_qw,sp_ctrltarget_x,sp_ctrltarget_y,sp_ctrltarget_z,sp_ctrltarget_yaw,pid_controller_roll,pid_controller_pitch,pid_controller_yaw,pid_controller_cmd_thrust,pwr_pm_vbat
1772424689.277293682,0.016920000,0.008786000,0.053685000,0.002377330,-0.003319900,-0.014717420,-0.999883360,-0.004657000,0.006709000,0.029421000,0.001184053,-0.000284519,0.000065929,-0.005028525,-0.013532148,0.000839443,0.010288346,-0.002038977,1.001169494,0.000082796,0.000504746,-0.001702524,0.000000000,0.000000000,0.000000000,0.000000000,0.017084567,0.008814313,0.053689514,0.014098772,0.002509718,0.000304185,0.005341829,0.000076299,-0.000081283,-0.148733817,0.320264799,1.186198536,-0.001268941,-0.002808120,0.010347664,0.999940727,0.000000000,0.000000000,0.000000000,0.000000000,0.000000000,0.000000000,1.184669212,0.000000000,4.180645466
1772424689.287293434,0.016922000,0.008789000,0.053680000,0.002409860,-0.003571530,-0.014674040,-0.999883050,-0.004714000,0.007213000,0.029332000,-0.000022941,-0.000002700,0.000025253,-0.005535926,0.030000742,-0.000023460,0.010455498,-0.002163924,1.001374208,0.000334965,-0.000233009,-0.001654259,0.000000000,0.000000000,0.000000000,0.000000000,0.017066463,0.008811659,0.053688091,0.014041168,0.002509924,0.000287778,0.005457446,-0.000042889,-0.000250532,-0.148936612,0.319830003,1.185759878,-0.001270761,-0.002804340,0.010343836,0.999940750,0.000000000,0.000000000,0.000000000,0.000000000,0.000000000,0.000000000,1.184441676,0.000000000,4.180645466
1772424689.297293425,0.016915000,0.008792000,0.053683000,0.002476980,-0.003472580,-0.014721270,-0.999882540,-0.004851000,0.007017000,0.029427000,-0.000406974,0.000063151,-0.000008197,-0.006506104,0.038026493,-0.002384109,0.010310274,-0.002903246,0.999391790,-0.002386992,-0.001169834,0.001471039,0.000000000,0.000000000,0.000000000,0.000000000,0.017057717,0.008812085,0.053687031,0.014057453,0.002499079,0.000319162,0.004770720,-0.000029552,-0.000529042,-0.149440131,0.319084410,1.184328464,-0.001275257,-0.002797863,0.010331342,0.999940868,0.000000000,0.000000000,0.000000000,0.000000000,0.000000000,0.000000000,1.184232697,0.000000000,4.180645466
1772424689.307293892,0.016920000,0.008783000,0.053685000,0.002488130,-0.003807030,-0.014715020,-0.999881380,-0.004864000,0.007686000,0.029413000,-0.000205109,-0.000026127,-0.000023232,-0.007498566,0.020831456,-0.005544834,0.009082994,-0.002719891,0.998534313,-0.001242953,-0.001828947,-0.000766890,0.000000000,0.000000000,0.000000000,0.000000000,0.017056244,0.008812037,0.053686865,0.014104294,0.002447141,0.000312621,0.002815801,0.000406680,-0.001035898,-0.149691033,0.319691612,1.184283017,-0.001277392,-0.002803184,0.010330932,0.999940900,0.000000000,0.000000000,0.000000000,0.000000000,0.000000000,0.000000000,1.184288983,0.000000000,4.180645466
1772424689.317293882,0.016930000,0.008778000,0.053688000,0.002456980,-0.003749420,-0.014620400,-0.999883070,-0.004804000,0.007570000,0.029224000,0.000345591,-0.000209693,-0.000008664,-0.008070432,-0.011297901,-0.008787894,0.009290651,-0.000851621,0.999169874,0.000646203,0.001917548,-0.000110878,0.000000000,0.000000000,0.000000000,0.000000000,0.017059039,0.008808173,0.053687918,0.014084457,0.002373682,0.000196309,0.003630617,0.001763579,-0.001146929,-0.149273202,0.320401117,1.182958050,-0.001273715,-0.002809323,0.010319372,0.999940966,0.000000000,0.000000000,0.000000000,0.000000000,0.000000000,0.000000000,1.182733690,0.000000000,4.180645466
1772424689.327294350,0.016920000,0.008786000,0.053683000,0.002563220,-0.003621680,-0.014570250,-0.999884000,-0.005020000,0.007317000,0.029123000,0.001008062,-0.000426710,0.000046698,-0.007775053,-0.048071568,-0.011409788,0.009744040,0.000303798,1.000190865,0.002973188,-0.002367547,-0.001005999,0.000000000,0.000000000,0.000000000,0.000000000,0.017109507,0.008813680,0.053689029,0.014157380,0.002430973,0.000093829,0.003483810,0.002940238,-0.000225049,-0.149146168,0.319633702,1.182299207,-0.001272692,-0.002802607,0.010313634,0.999941078,0.000000000,0.000000000,0.000000000,0.000000000,0.000000000,0.000000000,1.182230100,0.000000000,4.180645466
1772424689.337294340,0.016923000,0.008788000,0.053679000,0.002610330,-0.003395130,-0.014577530,-0.999884570,-0.005121000,0.006866000,0.029139000,0.001206392,-0.000534402,0.000189550,-0.004899080,-0.068881650,-0.012149455,0.010637607,-0.000688028,1.000371690,0.000476872,-0.000115468,-0.002591086,0.000000000,0.000000000,0.000000000,0.000000000,0.017203641,0.008831394,0.053688780,0.014400376,0.002657766,0.000062046,0.005157864,0.002621589,0.000875134,-0.148454557,0.320712899,1.181289723,-0.001266584,-0.002811951,0.010304831,0.999941135,0.000000000,0.000000000,0.000000000,0.000000000,0.000000000,0.000000000,1.181141125,0.000000000,4.180645466
1772424689.347294331,0.016963000,0.008768000,0.053687000,0.002629050,-0.002923100,-0.014463540,-0.999887670,-0.005173000,0.005922000,0.028913000,0.001252934,-0.000628827,0.000524204,-0.001411880,-0.079526675,-0.009162406,0.010912956,-0.003506316,1.000370515,-0.001150168,0.003893186,-0.000391602,0.000000000,0.000000000,0.000000000,0.000000000,0.017154123,0.008822297,0.053686178,0.014322941,0.002793404,0.000100216,0.005905041,-0.001314754,0.000452369,-0.148712212,0.320026241,1.179666350,-0.001268934,-0.002805964,0.010290667,0.999941262,0.000000000,0.000000000,0.000000000,0.000000000,0.000000000,0.000000000,1.179469138,0.000000000,4.180645466
1772424689.357294321,0.016973000,0.008759000,0.053692000,0.002632120,-0.002281970,-0.014407870,-0.999890130,-0.005198000,0.004639000,0.028805000,0.001030226,-0.000569872,0.000617192,0.003817075,-0.063823018,-0.005796280,0.011378532,-0.003353726,1.000427059,0.000410664,0.001661400,-0.001080348,0.000000000,0.000000000,0.000000000,0.000000000,0.017161556,0.008817714,0.053686417,0.014499619,0.002626542,0.000158735,0.005143407,-0.000794971,0.000996691,-0.148602692,0.318595349,1.179554345,-0.001268110,-0.002793467,0.010289708,0.999941349,0.000000000,0.000000000,0.000000000,0.000000000,0.000000000,0.000000000,1.179405561,0.000000000,4.180645466
1772424689.367294788,0.016975000,0.008760000,0.053701000,0.002493840,-0.002161720,-0.014416850,-0.999890630,-0.004925000,0.004395000,0.028824000,0.000647067,-0.000454624,0.000504701,0.009006545,-0.040192377,-0.005164747,0.010119172,-0.002684300,1.000234098,0.000068847,-0.000971897,0.000686236,0.000000000,0.000000000,0.000000000,0.000000000,0.017157438,0.008805938,0.053692575,0.014587505,0.002424907,0.000245642,0.005152747,0.000577077,-0.000250802,-0.148015638,0.317808089,1.178292677,-0.001263088,-0.002786531,0.010278722,0.999941471,0.000000000,0.000000000,0.000000000,0.000000000,0.000000000,0.000000000,1.178110366,0.000000000,4.180645466
1772424689.377294779,0.016967000,0.008757000,0.053708000,0.002511860,-0.002131610,-0.014411550,-0.999890720,-0.004962000,0.004335000,0.028814000,-0.000164472,-0.000063112,0.000225894,0.008546045,-0.011098587,-0.002178066,0.009898340,-0.002961808,0.997738478,-0.003234774,-0.000592028,0.002837672,0.000000000,0.000000000,0.000000000,0.000000000,0.017106448,0.008785400,0.053701250,0.014477013,0.002288894,0.000291985,0.004848016,-0.000455304,-0.001846967,-0.146998549,0.317095028,1.176831565,-0.001254312,-0.002780201,0.010266004,0.999941619,0.000000000,0.000000000,0.000000000,0.000000000,0.000000000,0.000000000,1.176853097,0.000000000,4.180645466
1772424689.387295246,0.016978000,0.008756000,0.053711000,0.002475100,-0.002108220,-0.014405610,-0.999890950,-0.004889000,0.004287000,0.028802000,-0.000552487,0.000075758,0.000097883,0.006413051,0.006548009,-0.000551329,0.011212873,-0.002941087,0.997627152,-0.000510785,-0.001076288,0.002368594,0.000000000,0.000000000,0.000000000,0.000000000,0.017111323,0.008781614,0.053707243,0.014485774,0.002183874,0.000130393,0.004922400,0.000488268,-0.002139226,-0.146804010,0.316056024,1.176931775,-0.001252706,-0.002771118,0.010266895,0.999941647,0.000000000,0.000000000,0.000000000,0.000000000,0.000000000,0.000000000,1.176854539,0.000000000,4.180645466
1772424689.397295713,0.016964000,0.008764000,0.053697000,0.002441970,-0.002219080,-0.014390840,-0.999891000,-0.004820000,0.004508000,0.028772000,-0.000274243,-0.000072086,-0.000034033,0.001570486,0.007597069,-0.000757917,0.010212491,-0.001005616,0.999118967,0.000206222,-0.002159245,-0.002115408,0.000000000,0.000000000,0.000000000,0.000000000,0.017223931,0.008797156,0.053708096,0.014893759,0.002161179,-0.000089040,0.005049739,0.000614663,-0.000778681,-0.145253105,0.316001984,1.176192829,-0.001239195,-0.002770500,0.010260486,0.999941700,0.000000000,0.000000000,0.000000000,0.000000000,0.000000000,0.000000000,1.176065813,0.000000000,4.180645466
1772424689.407296658,0.016965000,0.008754000,0.053700000,0.002423870,-0.002225690,-0.014357290,-0.999891510,-0.004783000,0.004521000,0.028705000,-0.000024029,-0.000123718,-0.000031954,-0.002086208,-0.004886316,-0.000281122,0.010597451,-0.001784555,1.000689303,-0.000403791,0.003680334,-0.000414757,0.000000000,0.000000000,0.000000000,0.000000000,0.017143587,0.008784294,0.053701899,0.014667919,0.002161619,-0.000229297,0.004828365,0.001156409,0.000425609,-0.144326930,0.315772705,1.174977003,-0.001231163,-0.002768403,0.010249901,0.999941866,0.000000000,0.000000000,0.000000000,0.000000000,0.000000000,0.000000000,1.174792999,0.000000000,4.180645466
1772424689.417296886,0.016955000,0.008760000,0.053706000,0.002466510,-0.002219270,-0.014423270,-0.999890470,-0.004869000,0.004509000,0.028837000,0.000095066,-0.000046678,-0.000053652,-0.001325942,-0.009559386,0.002861081,0.010031429,-0.001233330,1.001785334,0.000316967,-0.007744768,-0.000105547,0.000000000,0.000000000,0.000000000,0.000000000,0.017103394,0.008779956,0.053701407,0.014556501,0.002201871,-0.000189166,0.004621128,0.001689564,0.001280361,-0.144407304,0.314295437,1.173518135,-0.001232031,-0.002755504,0.010237186,0.999941991,0.000000000,0.000000000,0.000000000,0.000000000,0.000000000,0.000000000,1.173427090,0.000000000,4.180645466
1772424689.427297115,0.016971000,0.008749000,0.053712000,0.002467610,-0.002016420,-0.014377040,-0.999891570,-0.004877000,0.004103000,0.028745000,0.000196970,-0.000048096,-0.000024106,-0.002192809,-0.005221164,0.005718100,0.010242589,-0.002814154,1.000298460,-0.001267766,0.002084335,-0.000201351,0.000000000,0.000000000,0.000000000,0.000000000,0.017105648,0.008777086,0.053705103,0.014562845,0.002256809,-0.000035643,0.004889988,0.000526027,0.001066779,-0.143581859,0.315733114,1.172733361,-0.001224719,-0.002767967,0.010230340,0.999942049,0.000000000,0.000000000,0.000000000,0.000000000,0.000000000,0.000000000,1.172659024,0.000000000,4.180159225
1772424689.437298775,0.016974000,0.008755000,0.053699000,0.002514150,-0.002019390,-0.014449630,-0.999890400,-0.004969000,0.004111000,0.028890000,0.000137141,0.000089258,-0.000049495,-0.001170772,-0.000674260,0.008244272,0.011107093,-0.001503821,0.999744175,-0.003588568,-0.001302119,0.002907788,0.000000000,0.000000000,0.000000000,0.000000000,0.017110057,0.008775978,0.053704157,0.014584718,0.002215320,0.000019494,0.005200238,0.000000518,-0.000089645,-0.143370743,0.314910681,1.171044068,-0.001222991,-0.002760754,0.010215615,0.999942201,0.000000000,0.000000000,0.000000000,0.000000000,0.000000000,0.000000000,1.170901605,0.000000000,4.179661086
1772424689.447298288,0.016971000,0.008760000,0.053705000,0.002465550,-0.002017450,-0.014472760,-0.999890190,-0.004872000,0.004106000,0.028937000,-0.000099728,0.000289239,-0.000091822,0.001003386,0.007345044,0.006902345,0.010187581,-0.003036542,1.001388109,0.000399646,-0.000021015,0.002819614,0.000000000,0.000000000,0.000000000,0.000000000,0.017112260,0.008778272,0.053703739,0.014656140,0.002212205,0.000014641,0.005195827,0.000812174,0.000277049,-0.144973805,0.314783006,1.169896488,-0.001237018,-0.002759770,0.010205563,0.999942294,0.000000000,0.000000000,0.000000000,0.000000000,0.000000000,0.000000000,1.169756626,0.000000000,4.179163054
1772424689.457298517,0.016965000,0.008761000,0.053696000,0.002447100,-0.002209680,-0.014536990,-0.999888900,-0.004829000,0.004490000,0.029064000,-0.000097261,0.000215016,-0.000061441,0.001206570,0.017049271,0.001411568,0.009861273,-0.001799878,0.998949407,-0.002894798,0.000759682,0.000179982,0.000000000,0.000000000,0.000000000,0.000000000,0.017110481,0.008780224,0.053701123,0.014670568,0.002180688,0.000073792,0.003890532,0.001109551,-0.000148197,-0.144328933,0.313377174,1.168826396,-0.001231542,-0.002747433,0.010196257,0.999942463,0.000000000,0.000000000,0.000000000,0.000000000,0.000000000,0.000000000,1.168701129,0.000000000,4.178664986
1772424689.467297554,0.016967000,0.008759000,0.053703000,0.002476240,-0.002357110,-0.014529190,-0.999888600,-0.004884000,0.004786000,0.029048000,-0.000378380,0.000184810,0.000128807,0.002920189,0.019804940,-0.003495051,0.008454074,-0.001561547,1.000943803,-0.002082003,0.000823358,0.000725601,0.000000000,0.000000000,0.000000000,0.000000000,0.017109800,0.008780445,0.053701521,0.014630200,0.002198954,0.000044829,0.003383988,0.001103943,0.000523250,-0.144451332,0.313109125,1.167828646,-0.001232658,-0.002745095,0.010187551,0.999942534,0.000000000,0.000000000,0.000000000,0.000000000,0.000000000,0.000000000,1.167677596,0.000000000,4.178166977
1772424689.477298260,0.016953000,0.008768000,0.053704000,0.002458270,-0.002261910,-0.014519400,-0.999889010,-0.004850000,0.004595000,0.029029000,-0.000384810,0.000170435,0.000085295,0.001297987,0.018270830,-0.007356383,0.011152390,-0.001531564,1.001040672,0.001666863,-0.000241379,0.001353252,0.000000000,0.000000000,0.000000000,0.000000000,0.017104198,0.008783662,0.053703079,0.014485209,0.002245631,0.000091429,0.004969705,0.000763166,0.000881895,-0.144345459,0.312567424,1.166675170,-0.001231810,-0.002740346,0.010177494,0.999942639,0.000000000,0.000000000,0.000000000,0.000000000,0.000000000,0.000000000,1.166603371,0.000000000,4.177668885
1772424689.487298012,0.016964000,0.008766000,0.053708000,0.002451190,-0.002425700,-0.014413920,-0.999890170,-0.004832000,0.004922000,0.028817000,-0.000532576,0.000235160,-0.000168299,-0.001752584,0.022931853,-0.004215214,0.012616602,-0.001262777,1.001032329,-0.001799194,0.003916111,0.001438918,0.000000000,0.000000000,0.000000000,0.000000000,0.017102692,0.008786175,0.053705699,0.014503543,0.002284567,0.000184670,0.007060827,0.000718164,0.000645374,-0.143038057,0.313090489,1.166164016,-0.001220367,-0.002744789,0.010173060,0.999942756,0.000000000,0.000000000,0.000000000,0.000000000,0.000000000,0.000000000,1.166004385,0.000000000,4.177170841
1772424689.497298479,0.016961000,0.008763000,0.053699000,0.002480600,-0.002616840,-0.014367680,-0.999890280,-0.004886000,0.005304000,0.028724000,-0.000643124,0.000330556,-0.000206954,-0.002021352,0.028700990,0.000492551,0.012629873,-0.001766149,0.999483604,-0.000438389,-0.000275776,0.001747734,0.000000000,0.000000000,0.000000000,0.000000000,0.017184457,0.008799537,0.053708201,0.014927259,0.002353037,0.000264462,0.007120424,0.000519418,-0.000140337,-0.143776706,0.311572420,1.165107607,-0.001226973,-0.002731596,0.010163840,0.999942865,0.000000000,0.000000000,0.000000000,0.000000000,0.000000000,0.000000000,1.164912869,0.000000000,4.176672761
1772424689.507298231,0.016936000,0.008771000,0.053703000,0.002407930,-0.002618390,-0.014423580,-0.999889650,-0.004740000,0.005306000,0.028836000,-0.000656197,0.000342483,-0.000321659,-0.002675977,0.032335685,0.005790368,0.010779904,-0.003605915,0.998290439,0.002705372,0.002658378,0.000034251,0.000000000,0.000000000,0.000000000,0.000000000,0.017180447,0.008801191,0.053707266,0.015121139,0.002375316,0.000258081,0.005410001,-0.000178335,-0.001539191,-0.143830599,0.311256145,1.163806178,-0.001227502,-0.002728827,0.010152486,0.999942971,0.000000000,0.000000000,0.000000000,0.000000000,0.000000000,0.000000000,1.163643378,0.000000000,4.176174717
1772424689.517297506,0.016939000,0.008781000,0.053688000,0.002560600,-0.002902740,-0.014512180,-0.999887200,-0.005036000,0.005879000,0.029011000,-0.000353944,0.000197184,-0.000200194,-0.003288019,0.032890653,0.008518070,0.009381543,-0.004308446,0.997758572,0.001965852,0.002957364,-0.000137294,0.000000000,0.000000000,0.000000000,0.000000000,0.017090553,0.008792236,0.053701847,0.014953479,0.002284437,0.000117585,0.003559420,-0.001811150,-0.002552103,-0.143489890,0.309606332,1.163033786,-0.001224694,-0.002714392,0.010145772,0.999943069,0.000000000,0.000000000,0.000000000,0.000000000,0.000000000,0.000000000,1.162930885,0.000000000,4.175676697
1772424689.527297020,0.016931000,0.008775000,0.053693000,0.002529570,-0.003130590,-0.014588730,-0.999885480,-0.004967000,0.006334000,0.029163000,-0.000276807,0.000100466,-0.000142755,-0.003217424,0.023403598,0.009327641,0.008676154,-0.003685066,0.998094498,-0.000598751,0.002231227,-0.000144411,0.000000000,0.000000000,0.000000000,0.000000000,0.017087337,0.008796374,0.053696090,0.014915789,0.002138771,-0.000077220,0.004021030,-0.001161325,-0.002474944,-0.143403497,0.308013072,1.161932521,-0.001224107,-0.002700469,0.010136182,0.999943180,0.000000000,0.000000000,0.000000000,0.000000000,0.000000000,0.000000000,1.161730539,0.000000000,4.175366402
1772424689.537296295,0.016936000,0.008780000,0.053697000,0.002506070,-0.003163290,-0.014558600,-0.999885870,-0.004920000,0.006399000,0.029103000,0.000019328,0.000109887,-0.000137840,-0.001764004,0.015561298,0.005256989,0.008852611,-0.002601657,0.998746630,-0.002426986,0.001990238,-0.000579815,0.000000000,0.000000000,0.000000000,0.000000000,0.017081699,0.008795681,0.053693866,0.014804709,0.001952449,-0.000278587,0.002806616,0.000507860,0.000756816,-0.143745444,0.315828708,1.168385230,-0.001226232,-0.002768769,0.010192394,0.999943455,0.000000000,0.000000000,0.000000000,0.000000000,0.000000000,0.000000000,1.170139041,0.000000000,4.175366402
1772424689.547296286,0.016938000,0.008777000,0.053692000,0.002538120,-0.003128320,-0.014560350,-0.999885880,-0.004985000,0.006330000,0.029106000,-0.000064006,0.000103108,-0.000137471,0.000263125,0.010034153,0.001101355,0.010061169,-0.001992432,0.998795614,-0.003083809,0.000802574,-0.000344745,0.000000000,0.000000000,0.000000000,0.000000000,0.017187691,0.008812252,0.053686299,0.010822983,0.000683097,-0.000336067,0.003500761,0.000921509,0.000316910,-0.144279615,0.332222255,1.182201729,-0.001229089,-0.002912018,0.010312761,0.999942174,0.000000000,0.000000000,0.000000000,0.000000000,0.000000000,0.000000000,1.183848827,0.000000000,4.175366402
1772424689.557296753,0.016942000,0.008774000,0.053692000,0.002534570,-0.003255890,-0.014582040,-0.999885160,-0.004974000,0.006585000,0.029149000,-0.000258314,0.000330770,-0.000151826,0.003020177,0.000064912,0.000559264,0.011403630,-0.001294165,1.000028566,-0.001689981,0.000522102,0.000076170,0.000000000,0.000000000,0.000000000,0.000000000,0.016956467,0.008792774,0.053681205,0.010624800,0.000749742,-0.000461174,0.005072602,0.001066328,-0.000251440,-0.144645986,0.335036692,1.183336290,-0.001232008,-0.002936622,0.010322621,0.999940604,0.000000000,0.000000000,0.000000000,0.000000000,0.000000000,0.000000000,1.183111835,0.000000000,4.175366402
1772424689.567296505,0.016924000,0.008783000,0.053684000,0.002546980,-0.003179300,-0.014608940,-0.999884990,-0.005001000,0.006432000,0.029203000,-0.000298077,0.000562433,-0.000333606,-0.000918679,0.000935814,-0.000040867,0.011808585,-0.002163907,1.001480428,-0.002585069,-0.000917722,0.000758703,0.000000000,0.000000000,0.000000000,0.000000000,0.016998851,0.008790572,0.053681507,0.011106772,0.000896548,-0.000442989,0.006091669,0.000542174,0.000948556,-0.145388981,0.334646723,1.182032318,-0.001238560,-0.002933272,0.010311229,0.999940763,0.000000000,0.000000000,0.000000000,0.000000000,0.000000000,0.000000000,1.181902053,0.000000000,4.175366402
1772424689.577296734,0.016928000,0.008796000,0.053683000,0.002509520,-0.003239950,-0.014569760,-0.999885460,-0.004924000,0.006552000,0.029125000,-0.000369775,0.000432188,-0.000261597,-0.004366300,0.000987315,-0.002096839,0.011423142,-0.003016531,0.999168507,0.001260348,-0.003094428,0.001146794,0.000000000,0.000000000,0.000000000,0.000000000,0.017020060,0.008790032,0.053687317,0.011573076,0.000957701,-0.000291338,0.005795528,-0.000367085,-0.000627563,-0.146961151,0.334548838,1.180805241,-0.001252320,-0.002932546,0.010300481,0.999940860,0.000000000,0.000000000,0.000000000,0.000000000,0.000000000,0.000000000,1.180703146,0.000000000,4.175366402
1772424689.587297678,0.016919000,0.008791000,0.053688000,0.002521560,-0.003286970,-0.014581660,-0.999885100,-0.004947000,0.006647000,0.029148000,-0.000116414,0.000198602,-0.000186286,-0.006810829,0.008564580,-0.003711450,0.011469842,-0.002713321,0.999248702,-0.001984625,0.002374432,0.000038414,0.000000000,0.000000000,0.000000000,0.000000000,0.017039577,0.008786419,0.053698796,0.011958207,0.000918561,-0.000248472,0.005325152,0.000632589,-0.000952059,-0.146271409,0.333934298,1.179895567,-0.001246379,-0.002927111,0.010292568,0.999940917,0.000000000,0.000000000,0.000000000,0.000000000,0.000000000,0.000000000,1.179717289,0.000000000,4.175366402
1772424689.597297907,0.016930000,0.008799000,0.053679000,0.002569020,-0.003181670,-0.014589490,-0.999885210,-0.005045000,0.006438000,0.029164000,-0.000081974,-0.000091123,-0.000083916,-0.007248707,0.013714373,-0.002155441,0.012374704,-0.002921921,0.998845421,-0.002315383,0.000179861,-0.003132717,0.000000000,0.000000000,0.000000000,0.000000000,0.017062181,0.008777403,0.053703555,0.012333585,0.000900705,-0.000299089,0.006172008,-0.000203097,-0.001159299,-0.146902218,0.331618271,1.178093168,-0.001252138,-0.002906939,0.010276850,0.999941123,0.000000000,0.000000000,0.000000000,0.000000000,0.000000000,0.000000000,1.177801313,0.000000000,4.175366402
1772424689.607297897,0.016923000,0.008793000,0.053680000,0.002675680,-0.003338420,-0.014506340,-0.999885620,-0.005254000,0.006754000,0.028996000,0.000094056,-0.000347106,0.000300253,-0.002177859,0.007735389,0.001936200,0.012123866,-0.003303846,0.999581928,-0.002600388,0.000885192,-0.001368734,0.000000000,0.000000000,0.000000000,0.000000000,0.017080585,0.008769704,0.053700213,0.012730222,0.000868172,-0.000423062,0.006307399,-0.000408118,-0.000118080,-0.146938894,0.330638688,1.175890732,-0.001252601,-0.002898369,0.010257642,0.999941367,0.000000000,0.000000000,0.000000000,0.000000000,0.000000000,0.000000000,1.175709568,0.000000000,4.175366402
1772424689.617297888,0.016926000,0.008781000,0.053685000,0.002682940,-0.003310160,-0.014513290,-0.999885600,-0.005269000,0.006697000,0.029010000,0.000212257,-0.000499612,0.000594095,0.004217357,-0.008379001,0.005988095,0.010881347,-0.002167930,1.000046654,-0.000079473,-0.005814405,0.003951359,0.000000000,0.000000000,0.000000000,0.000000000,0.017087746,0.008768640,0.053701473,0.013057600,0.000796107,-0.000433379,0.005339116,0.000634358,0.000227964,-0.147447447,0.329981851,1.174816003,-0.001257125,-0.002892672,0.010248258,0.999941527,0.000000000,0.000000000,0.000000000,0.000000000,0.000000000,0.000000000,1.174800723,0.000000000,4.175366402
1772424689.627297878,0.016933000,0.008780000,0.053687000,0.002603120,-0.003550100,-0.014613010,-0.999883530,-0.005102000,0.007176000,0.029209000,0.000652429,-0.000624010,0.000672106,0.009335165,-0.026398538,0.005082851,0.011276807,-0.001865482,1.000396776,-0.000436796,-0.002897716,0.003538961,0.000000000,0.000000000,0.000000000,0.000000000,0.017088599,0.008768518,0.053701752,0.013097621,0.000796158,-0.000429512,0.005272116,0.001125120,0.000341737,-0.147460514,0.330840208,1.174664736,-0.001257166,-0.002900161,0.010246928,0.999941519,0.000000000,0.000000000,0.000000000,0.000000000,0.000000000,0.000000000,1.174635831,0.000000000,4.175366402
1772424689.637298107,0.016923000,0.008781000,0.053701000,0.002511310,-0.003156730,-0.014654070,-0.999884490,-0.004930000,0.006386000,0.029294000,0.000919542,-0.000711695,0.000635684,0.008538919,-0.042682652,0.000877547,0.011672277,-0.001563027,1.000746906,-0.000794126,0.000019042,0.003126553,0.000000000,0.000000000,0.000000000,0.000000000,0.017089119,0.008768444,0.053701977,0.013122299,0.000800077,-0.000424925,0.005694472,0.001239773,0.000546297,-0.147611043,0.330446202,1.174449143,-0.001258520,-0.002896734,0.010245047,0.999941510,0.000000000,0.000000000,0.000000000,0.000000000,0.000000000,0.000000000,1.174417911,0.000000000,4.175366402
1772424689.647298098,0.016950000,0.008771000,0.053716000,0.002418090,-0.002690170,-0.014655120,-0.999886070,-0.004757000,0.005451000,0.029299000,0.001069912,-0.000557304,0.000362102,0.003578835,-0.057851617,-0.004943720,0.012067737,-0.001260580,1.001097028,-0.001151449,0.002935731,0.002714156,0.000000000,0.000000000,0.000000000,0.000000000,0.017089638,0.008768370,0.053702202,0.013146977,0.000803996,-0.000420338,0.006116818,0.001354423,0.000750852,-0.147761568,0.330052205,1.174233555,-0.001259874,-0.002893307,0.010243167,0.999941502,0.000000000,0.000000000,0.000000000,0.000000000,0.000000000,0.000000000,1.174199996,0.000000000,4.175366402
1772424689.657297850,0.016962000,0.008759000,0.053708000,0.002464670,-0.002535570,-0.014589230,-0.999887320,-0.004855000,0.005142000,0.029167000,0.000962472,-0.000515269,0.000149922,-0.000492671,-0.054173699,-0.011732088,0.012462675,-0.000958660,1.001446487,-0.001507310,0.005846827,0.002302608,0.000000000,0.000000000,0.000000000,0.000000000,0.017090158,0.008768296,0.053702427,0.013171654,0.000807915,-0.000415751,0.006539154,0.001469071,0.000955402,-0.147912090,0.329658218,1.174017972,-0.001261229,-0.002889880,0.010241287,0.999941493,0.000000000,0.000000000,0.000000000,0.000000000,0.000000000,0.000000000,1.173982087,0.000000000,4.175366402
1772424689.667297602,0.016974000,0.008754000,0.053700000,0.002525130,-0.002309930,-0.014457370,-0.999889630,-0.004983000,0.004692000,0.028904000,0.000678536,-0.000299651,0.000081566,-0.001472560,-0.047969890,-0.014198543,0.012428175,-0.001092864,1.001248095,-0.000646459,0.004131028,0.002594544,0.000000000,0.000000000,0.000000000,0.000000000,0.017090678,0.008768222,0.053702652,0.013196332,0.000811835,-0.000411164,0.006961490,0.001583718,0.001159952,-0.148062612,0.329264231,1.173802389,-0.001262583,-0.002886453,0.010239406,0.999941485,0.000000000,0.000000000,0.000000000,0.000000000,0.000000000,0.000000000,1.173764177,0.000000000,4.175366402
1772424689.677297115,0.016969000,0.008759000,0.053707000,0.002562250,-0.002150310,-0.014396760,-0.999890770,-0.005062000,0.004374000,0.028784000,0.000304759,-0.000040987,0.000025466,0.002885253,-0.029701540,-0.013445594,0.012393676,-0.001227066,1.001049706,0.000214372,0.002415269,0.002886473,0.000000000,0.000000000,0.000000000,0.000000000,0.017091197,0.008768148,0.053702877,0.013221008,0.000815754,-0.000406578,0.007383816,0.001698363,0.001364498,-0.148213130,0.328870253,1.173586811,-0.001263937,-0.002883027,0.010237526,0.999941476,0.000000000,0.000000000,0.000000000,0.000000000,0.000000000,0.000000000,1.173546273,0.000000000,4.175366402
1772424689.687296867,0.016967000,0.008759000,0.053709000,0.002485880,-0.001956010,-0.014392660,-0.999891420,-0.004915000,0.003983000,0.028777000,-0.000180789,0.000131333,0.000108023,0.006802641,-0.014735889,-0.009955258,0.012359176,-0.001361270,1.000851314,0.001075223,0.000699469,0.003178409,0.000000000,0.000000000,0.000000000,0.000000000,0.017091717,0.008768074,0.053703102,0.013245685,0.000819673,-0.000401991,0.007806152,0.001813011,0.001569048,-0.148363652,0.328476265,1.173371228,-0.001265291,-0.002879600,0.010235646,0.999941483,0.000000000,0.000000000,0.000000000,0.000000000,0.000000000,0.000000000,1.173328363,0.000000000,4.175366402
1772424689.697297812,0.016973000,0.008757000,0.053713000,0.002370840,-0.002037500,-0.014359440,-0.999892010,-0.004683000,0.004143000,0.028710000,-0.000229759,0.000119891,0.000094250,0.007089749,0.004521708,-0.002467226,0.012324672,-0.001495490,1.000652897,0.001936177,-0.001016535,0.003470379,0.000000000,0.000000000,0.000000000,0.000000000,0.017095487,0.008767495,0.053705227,0.013441317,0.000910784,-0.000303006,0.007065800,0.001245500,0.001580263,-0.148426644,0.328031008,1.173145041,-0.001265886,-0.002875718,0.010233676,0.999941673,0.000000000,0.000000000,0.000000000,0.000000000,0.000000000,0.000000000,1.173079129,0.000000000,4.175366402
1772424689.707298517,0.016965000,0.008767000,0.053715000,0.002375930,-0.001852430,-0.014333200,-0.999892740,-0.004698000,0.003773000,0.028659000,-0.000219678,0.000002467,-0.000109654,0.002947974,0.024211584,0.002569379,0.011321981,-0.001364739,1.001336988,0.001017127,-0.002183313,0.000860265,0.000000000,0.000000000,0.000000000,0.000000000,0.017097941,0.008769149,0.053707895,0.013672488,0.001005188,-0.000189621,0.005540088,0.000361260,0.001608419,-0.147495518,0.327004115,1.172798733,-0.001257862,-0.002866670,0.010230689,0.999941744,0.000000000,0.000000000,0.000000000,0.000000000,0.000000000,0.000000000,1.172752311,0.000000000,4.175366402
1772424689.717299223,0.016965000,0.008757000,0.053707000,0.002351490,-0.002170870,-0.014294040,-0.999892710,-0.004640000,0.004409000,0.028579000,-0.000315171,-0.000024106,-0.000225544,-0.001928386,0.037682293,0.003729486,0.010892677,-0.001559161,1.001633255,-0.000149943,-0.002375990,0.000597829,0.000000000,0.000000000,0.000000000,0.000000000,0.017098689,0.008771420,0.053709377,0.013882999,0.001087987,-0.000055663,0.004937694,0.000942913,0.002212173,-0.147105897,0.327434674,1.171653910,-0.001254452,-0.002870379,0.010220703,0.999941822,0.000000000,0.000000000,0.000000000,0.000000000,0.000000000,0.000000000,1.171502199,0.000000000,4.175366402
1772424689.727299929,0.016960000,0.008758000,0.053704000,0.002457420,-0.002461570,-0.014387690,-0.999890440,-0.004844000,0.004993000,0.028764000,-0.000428303,0.000171873,-0.000149301,-0.006345203,0.033659195,0.003775861,0.010963607,-0.000540921,1.000611463,0.000139442,-0.000110908,-0.000815951,0.000000000,0.000000000,0.000000000,0.000000000,0.017144837,0.008773984,0.053708818,0.014131225,0.001176221,0.000110196,0.005337802,0.003152337,0.000929485,-0.147453099,0.328278358,1.170273154,-0.001257441,-0.002877758,0.010208636,0.999941914,0.000000000,0.000000000,0.000000000,0.000000000,0.000000000,0.000000000,1.170139378,0.000000000,4.175366402
1772424689.737299442,0.016958000,0.008762000,0.053700000,0.002510260,-0.002665510,-0.014475570,-0.999888520,-0.004943000,0.005403000,0.028939000,-0.000608353,0.000360334,-0.000190482,-0.008419678,0.017132729,0.002961357,0.010705256,-0.000517676,0.999317936,0.001489789,0.002365391,0.000164180,0.000000000,0.000000000,0.000000000,0.000000000,0.017186214,0.008778512,0.053707718,0.014372834,0.001353995,0.000223116,0.005011169,0.002437410,-0.000648961,-0.147096143,0.327151509,1.168429145,-0.001254473,-0.002867873,0.010192567,0.999942066,0.000000000,0.000000000,0.000000000,0.000000000,0.000000000,0.000000000,1.168215713,0.000000000,4.175366402
1772424689.747299433,0.016952000,0.008765000,0.053705000,0.002483070,-0.002622540,-0.014403100,-0.999889750,-0.004890000,0.005316000,0.028794000,-0.000601321,0.000548524,-0.000353283,-0.006212767,0.009180092,0.002654906,0.009773432,-0.001231324,0.998967868,0.000313714,0.000283423,0.002453226,0.000000000,0.000000000,0.000000000,0.000000000,0.017096377,0.008773958,0.053704699,0.014238136,0.001556739,0.000179869,0.003853516,0.000604793,-0.001176450,-0.146879551,0.325824550,1.168019559,-0.001252711,-0.002856269,0.010189013,0.999942209,0.000000000,0.000000000,0.000000000,0.000000000,0.000000000,0.000000000,1.167999922,0.000000000,4.175366402
1772424689.757299185,0.016939000,0.008773000,0.053705000,0.002487990,-0.002653520,-0.014387930,-0.999889870,-0.004899000,0.005378000,0.028764000,-0.000690269,0.000597592,-0.000461092,-0.002701291,0.001174342,0.002614726,0.009189411,-0.000064857,0.998328997,-0.000542668,-0.001636394,0.002270766,0.000000000,0.000000000,0.000000000,0.000000000,0.017093272,0.008777716,0.053705338,0.014272278,0.001678180,0.000088584,0.003050670,0.002576132,-0.002578545,-0.147286650,0.325283825,1.167981603,-0.001256313,-0.002851587,0.010188678,0.999942243,0.000000000,0.000000000,0.000000000,0.000000000,0.000000000,0.000000000,1.167982405,0.000000000,4.175366402
1772424689.767299175,0.016942000,0.008782000,0.053697000,0.002550580,-0.002407860,-0.014403000,-0.999890120,-0.005031000,0.004889000,0.028795000,-0.000287529,0.000283159,-0.000483897,-0.000778242,0.005875071,0.001866062,0.009451337,0.001530796,0.997954768,0.000059180,0.000443963,0.001561776,0.000000000,0.000000000,0.000000000,0.000000000,0.017086338,0.008783291,0.053705241,0.014197207,0.001776761,-0.000026010,0.003344057,0.004135068,-0.001465523,-0.147795396,0.324859183,1.167863133,-0.001260793,-0.002847925,0.010187637,0.999942243,0.000000000,0.000000000,0.000000000,0.000000000,0.000000000,0.000000000,1.167824656,0.000000000,4.175366402
1772424689.777298689,0.016929000,0.008782000,0.053683000,0.002584580,-0.002584190,-0.014435540,-0.999889120,-0.005094000,0.005242000,0.028859000,-0.000118260,0.000063093,-0.000345863,-0.001392637,0.017805908,0.003135523,0.010327360,-0.000898048,1.000071040,-0.001612172,0.002420572,0.002679712,0.000000000,0.000000000,0.000000000,0.000000000,0.017227319,0.008803078,0.053703729,0.014122535,0.002189877,-0.000288718,0.005193940,0.001267298,-0.000479653,-0.148096924,0.323456561,1.167703954,-0.001263552,-0.002835711,0.010186255,0.999942249,0.000000000,0.000000000,0.000000000,0.000000000,0.000000000,0.000000000,1.167717361,0.000000000,4.175366402
1772424689.787299156,0.016936000,0.008782000,0.053678000,0.002516300,-0.002984790,-0.014511340,-0.999887080,-0.004946000,0.006042000,0.029009000,0.000172514,-0.000138908,-0.000071212,-0.001122199,0.039115535,0.003560795,0.012100554,-0.003751074,1.000113945,-0.001576272,-0.000285992,-0.001067259,0.000000000,0.000000000,0.000000000,0.000000000,0.017097446,0.008799396,0.053691621,0.014110411,0.002389860,-0.000347008,0.005942052,-0.000128677,-0.000249457,-0.148626876,0.321651734,1.167471985,-0.001268343,-0.002820006,0.010184239,0.999942302,0.000000000,0.000000000,0.000000000,0.000000000,0.000000000,0.000000000,1.167306057,0.000000000,4.175366402
1772424689.797299147,0.016935000,0.008773000,0.053688000,0.002512230,-0.002997830,-0.014496930,-0.999887260,-0.004937000,0.006068000,0.028980000,0.000266259,-0.000220591,0.000043512,-0.001644489,0.047262516,0.001532233,0.012004305,-0.002510523,0.998869453,0.002189487,0.001771319,-0.001275292,0.000000000,0.000000000,0.000000000,0.000000000,0.017161199,0.008813036,0.053687421,0.014478362,0.002379041,-0.000350935,0.006397200,-0.000140570,-0.000449014,-0.148944266,0.321075260,1.166425939,-0.001271190,-0.002814992,0.010175111,0.999942428,0.000000000,0.000000000,0.000000000,0.000000000,0.000000000,0.000000000,1.166174337,0.000000000,4.175366402
1772424689.807299137,0.016953000,0.008773000,0.053693000,0.002596490,-0.003144560,-0.014459410,-0.999887140,-0.005102000,0.006364000,0.028904000,-0.000080653,0.000111636,-0.000107459,-0.000201789,0.044244051,0.002837981,0.012328065,-0.001876929,0.999044737,0.002729916,-0.000727577,0.000422532,0.000000000,0.000000000,0.000000000,0.000000000,0.017164479,0.008813548,0.053684895,0.014661534,0.002316240,-0.000383228,0.006985705,0.000577867,-0.000608369,-0.147873478,0.320136641,1.164589733,-0.001261974,-0.002806686,0.010159125,0.999942580,0.000000000,0.000000000,0.000000000,0.000000000,0.000000000,0.000000000,1.164368714,0.000000000,4.175366402
1772424689.817299128,0.016930000,0.008780000,0.053691000,0.002568650,-0.003465010,-0.014471700,-0.999885980,-0.005037000,0.007004000,0.028927000,-0.000332129,0.000390152,-0.000251146,-0.000323530,0.023630566,0.005443460,0.011827743,-0.001467756,1.000581150,0.001456068,-0.001640989,0.000589699,0.000000000,0.000000000,0.000000000,0.000000000,0.017112577,0.008804507,0.053681895,0.014728699,0.002283614,-0.000455794,0.006831919,0.001401923,0.000745846,-0.146825723,0.320378120,1.163346711,-0.001252841,-0.002808687,0.010148302,0.999942740,0.000000000,0.000000000,0.000000000,0.000000000,0.000000000,0.000000000,1.163086180,0.000000000,4.175366402
1772424689.827299595,0.016942000,0.008779000,0.053686000,0.002581760,-0.003790780,-0.014508050,-0.999884230,-0.005053000,0.007656000,0.028998000,-0.000570436,0.000423718,-0.000437724,-0.001986260,0.013108167,0.007854278,0.010725876,-0.001170103,1.001460702,-0.000869471,-0.000569931,-0.000174389,0.000000000,0.000000000,0.000000000,0.000000000,0.017207495,0.008819225,0.053679380,0.015213966,0.002354249,-0.000473221,0.003868805,0.001726814,0.000898875,-0.146211791,0.321226183,1.162383552,-0.001247432,-0.002816022,0.010139903,0.999942852,0.000000000,0.000000000,0.000000000,0.000000000,0.000000000,0.000000000,1.162212404,0.000000000,4.175366402
1772424689.837299824,0.016927000,0.008788000,0.053667000,0.002611540,-0.003537650,-0.014584800,-0.999883970,-0.005119000,0.007151000,0.029153000,-0.000380847,0.000225525,-0.000264122,-0.000329355,0.008935579,0.007641846,0.009546606,-0.000929648,1.000784966,-0.003606692,0.001126289,-0.000706224,0.000000000,0.000000000,0.000000000,0.000000000,0.017117735,0.008805477,0.053684730,0.015058554,0.002372744,-0.000344186,0.003616986,0.000743013,0.000480678,-0.145987053,0.322169506,1.161600165,-0.001245407,-0.002824226,0.010133061,0.999942890,0.000000000,0.000000000,0.000000000,0.000000000,0.000000000,0.000000000,1.161554148,0.000000000,4.175366402
1772424689.847299576,0.016913000,0.008800000,0.053669000,0.002512380,-0.003522900,-0.014670030,-0.999883030,-0.004921000,0.007119000,0.029324000,-0.000106585,-0.000044347,0.000091822,-0.000482487,0.002414904,0.006105388,0.008635541,-0.002489007,1.000190441,0.000748576,-0.005790372,0.001792875,0.000000000,0.000000000,0.000000000,0.000000000,0.017163921,0.008813251,0.053685510,0.015190187,0.002458595,-0.000255296,0.003435158,0.000371812,0.000141290,-0.146452547,0.321260288,1.161301830,-0.001249556,-0.002816330,0.010130455,0.999942939,0.000000000,0.000000000,0.000000000,0.000000000,0.000000000,0.000000000,1.161259769,0.000000000,4.175366402
1772424689.857299566,0.016926000,0.008784000,0.053684000,0.002592350,-0.003453300,-0.014650230,-0.999883360,-0.005083000,0.006982000,0.029284000,0.000181954,-0.000127856,0.000315871,-0.001034867,-0.000525679,0.005457597,0.009298597,-0.001711963,1.000625232,0.001675135,-0.003965671,0.001468401,0.000000000,0.000000000,0.000000000,0.000000000,0.017121967,0.008811844,0.053677532,0.014965290,0.002455581,-0.000239300,0.003402939,0.000718743,0.000190206,-0.145365040,0.323048284,1.160664683,-0.001239924,-0.002831829,0.010124903,0.999943007,0.000000000,0.000000000,0.000000000,0.000000000,0.000000000,0.000000000,1.160406212,0.000000000,4.175366402
1772424689.867299557,0.016931000,0.008780000,0.053683000,0.002647740,-0.003728470,-0.014628240,-0.999882540,-0.005186000,0.007534000,0.029238000,0.000041045,-0.000032867,0.000196776,-0.001364492,0.002548371,0.003742349,0.010604849,-0.003591762,0.999094007,0.000410410,-0.008304181,0.005759460,0.000000000,0.000000000,0.000000000,0.000000000,0.017209619,0.008828598,0.053672939,0.015123727,0.002513116,-0.000200491,0.004682332,-0.000879711,-0.000116221,-0.144396916,0.323674404,1.159182031,-0.001231457,-0.002837191,0.010111982,0.999943086,0.000000000,0.000000000,0.000000000,0.000000000,0.000000000,0.000000000,1.159271983,0.000000000,4.175366402
1772424689.877300262,0.016936000,0.008780000,0.053692000,0.002572600,-0.003702900,-0.014615120,-0.999883030,-0.005037000,0.007480000,0.029213000,0.000090054,0.000117114,-0.000087529,-0.001237557,0.003008941,0.001840764,0.011062177,-0.003335893,1.000838504,0.000713800,0.003850106,-0.000394561,0.000000000,0.000000000,0.000000000,0.000000000,0.017084766,0.008813748,0.053676322,0.014806191,0.002353965,-0.000213179,0.005641014,0.000018951,0.000719186,-0.143959665,0.324838604,1.159422663,-0.001227533,-0.002847314,0.010114080,0.999943165,0.000000000,0.000000000,0.000000000,0.000000000,0.000000000,0.000000000,1.159183979,0.000000000,4.175366402
1772424689.887300730,0.016928000,0.008790000,0.053681000,0.002600510,-0.003659400,-0.014732020,-0.999881400,-0.005093000,0.007395000,0.029447000,-0.000151379,0.000300933,-0.000297747,0.000328915,-0.007656028,0.004012870,0.012300135,-0.001188808,1.002032078,-0.002238029,-0.000514672,0.000966738,0.000000000,0.000000000,0.000000000,0.000000000,0.017171948,0.008827537,0.053675464,0.015128574,0.002285131,-0.000173260,0.006036525,0.001024511,0.001830147,-0.143831111,0.322994021,1.157910477,-0.001226612,-0.002831190,0.010100908,0.999943244,0.000000000,0.000000000,0.000000000,0.000000000,0.000000000,0.000000000,1.157757786,0.000000000,4.175366402
1772424689.897300482,0.016920000,0.008795000,0.053674000,0.002572280,-0.003528650,-0.014761090,-0.999881510,-0.005040000,0.007132000,0.029506000,-0.000234149,0.000221873,-0.000026282,0.004545817,-0.014189995,0.004127632,0.011491625,-0.001444812,1.001365087,-0.001097110,-0.002290966,0.001263839,0.000000000,0.000000000,0.000000000,0.000000000,0.017142454,0.008818317,0.053680823,0.015193022,0.002260048,-0.000015318,0.006192656,0.000726282,0.001466625,-0.143951582,0.323619105,1.156838566,-0.001227634,-0.002836644,0.010091543,0.999943297,0.000000000,0.000000000,0.000000000,0.000000000,0.000000000,0.000000000,1.156658886,0.000000000,4.175366402
1772424689.907300234,0.016920000,0.008796000,0.053669000,0.002615060,-0.003499030,-0.014681160,-0.999882680,-0.005127000,0.007074000,0.029346000,-0.000189530,0.000031779,0.000272475,0.004462105,-0.009944599,0.000222155,0.011923557,-0.002514360,1.001035419,0.000002010,-0.002384868,0.001950421,0.000000000,0.000000000,0.000000000,0.000000000,0.017140696,0.008813810,0.053686573,0.015344879,0.002295709,0.000152953,0.006013916,-0.000037148,0.000127922,-0.144190196,0.324656771,1.155129223,-0.001229668,-0.002845702,0.010076610,0.999943379,0.000000000,0.000000000,0.000000000,0.000000000,0.000000000,0.000000000,1.154928294,0.000000000,4.175366402
1772424689.917300224,0.016924000,0.008794000,0.053681000,0.002540880,-0.003420510,-0.014702350,-0.999882840,-0.004981000,0.006915000,0.029389000,-0.000163967,-0.000053671,0.000317055,0.002583155,-0.000641019,-0.001718562,0.011922949,-0.003336188,1.000732848,0.000831480,-0.002694175,0.002820100,0.000000000,0.000000000,0.000000000,0.000000000,0.017195558,0.008824045,0.053685868,0.015620516,0.002321678,0.000229085,0.005605920,-0.001603461,0.000629563,-0.143930999,0.325140298,1.154371724,-0.001227382,-0.002849890,0.010070002,0.999943458,0.000000000,0.000000000,0.000000000,0.000000000,0.000000000,0.000000000,1.154254516,0.000000000,4.175366402
1772424689.927299500,0.016923000,0.008786000,0.053696000,0.002504990,-0.003434850,-0.014773610,-0.999881830,-0.004908000,0.006943000,0.029532000,-0.000146853,-0.000063442,0.000213151,0.002156220,0.001574251,-0.000617133,0.011657338,-0.003291937,1.000814090,0.000693257,-0.000204397,0.001031183,0.000000000,0.000000000,0.000000000,0.000000000,0.017076468,0.008813009,0.053680294,0.015412034,0.002227863,0.000248427,0.006537022,-0.001019364,0.001139344,-0.143503440,0.325300750,1.153912663,-0.001223648,-0.002851248,0.010066005,0.999943507,0.000000000,0.000000000,0.000000000,0.000000000,0.000000000,0.000000000,1.153853308,0.000000000,4.175366402
1772424689.937299967,0.016925000,0.008782000,0.053698000,0.002497070,-0.003492090,-0.014665620,-0.999883240,-0.004891000,0.007057000,0.029315000,-0.000192269,-0.000037063,0.000016550,0.000931582,-0.002599800,0.002869880,0.011664705,-0.002449189,1.001473869,-0.000515471,0.006390898,-0.004273859,0.000000000,0.000000000,0.000000000,0.000000000,0.017204890,0.008830880,0.053682518,0.015900749,0.002124747,0.000308493,0.006272934,-0.000481066,0.001088238,-0.143102207,0.324798547,1.153256791,-0.001220207,-0.002846823,0.010060297,0.999943551,0.000000000,0.000000000,0.000000000,0.000000000,0.000000000,0.000000000,1.152943950,0.000000000,4.175366402
1772424689.947300434,0.016910000,0.008800000,0.053680000,0.002536240,-0.003619210,-0.014683110,-0.999882430,-0.004966000,0.007312000,0.029349000,-0.000076418,-0.000014200,-0.000137821,0.002121458,-0.012578075,0.003558738,0.009817431,-0.002192805,1.001464020,0.000804661,-0.000327290,0.000698349,0.000000000,0.000000000,0.000000000,0.000000000,0.017124752,0.008820877,0.053681221,0.015795417,0.002032490,0.000387232,0.004903979,0.000364114,0.000851337,-0.143027009,0.322546422,1.151426452,-0.001219794,-0.002827145,0.010044353,0.999943761,0.000000000,0.000000000,0.000000000,0.000000000,0.000000000,0.000000000,1.151396307,0.000000000,4.175366402
1772424689.957300663,0.016914000,0.008794000,0.053677000,0.002553400,-0.003336670,-0.014785380,-0.999881860,-0.005008000,0.006748000,0.029555000,0.000073912,-0.000075738,-0.000100777,0.001681406,-0.025174328,0.000876482,0.010783777,-0.002689961,1.000708812,-0.001387923,0.001095130,0.001238222,0.000000000,0.000000000,0.000000000,0.000000000,0.017159887,0.008825247,0.053682962,0.015939755,0.002015230,0.000484130,0.004593056,0.000836682,0.001012967,-0.142250262,0.322723811,1.151184491,-0.001213007,-0.002828622,0.010042257,0.999943834,0.000000000,0.000000000,0.000000000,0.000000000,0.000000000,0.000000000,1.151092668,0.000000000,4.175366402
1772424689.967300892,0.016917000,0.008789000,0.053679000,0.002502160,-0.003225780,-0.014787560,-0.999882320,-0.004908000,0.006525000,0.029560000,0.000239394,-0.000157964,0.000206469,0.004790056,-0.029524939,-0.000205367,0.010334015,-0.001733265,1.001359592,-0.001211857,0.002861687,-0.001255693,0.000000000,0.000000000,0.000000000,0.000000000,0.017440990,0.008858957,0.053701164,0.016786095,0.002110146,0.000804599,0.005426000,0.000310313,0.000981072,-0.142846271,0.322290989,1.150301551,-0.001218267,-0.002824888,0.010034543,0.999943884,0.000000000,0.000000000,0.000000000,0.000000000,0.000000000,0.000000000,1.150157059,0.000000000,4.175366402
1772424689.977300882,0.016924000,0.008783000,0.053694000,0.002450160,-0.003071980,-0.014733570,-0.999883730,-0.004809000,0.006215000,0.029453000,0.000281896,-0.000159149,0.000308664,0.004554666,-0.015500215,-0.003128569,0.010440350,-0.001381259,1.001307164,0.000098632,0.003021142,-0.001111170,0.000000000,0.000000000,0.000000000,0.000000000,0.017562191,0.008868883,0.053738387,0.014979262,0.002225615,0.001348382,0.002990948,0.000339289,-0.000663600,-0.141021683,0.330719785,1.154898973,-0.001201482,-0.002898326,0.010074616,0.999942891,0.000000000,0.000000000,0.000000000,0.000000000,0.000000000,0.000000000,1.158117830,0.000000000,4.175366402
1772424689.987301111,0.016930000,0.008786000,0.053693000,0.002416500,-0.002989880,-0.014697170,-0.999884600,-0.004745000,0.006050000,0.029381000,0.000129954,0.000027778,0.000088267,0.000125720,0.004524013,-0.007656468,0.011243506,-0.001770715,1.000446194,0.001838405,0.001874265,0.001643968,0.000000000,0.000000000,0.000000000,0.000000000,0.016965010,0.008794863,0.053691210,0.012171987,0.001933242,0.000901507,0.004077186,0.000317824,-0.000839543,-0.138680472,0.340972739,1.160628517,-0.001179999,-0.002987647,0.010124562,0.999941553,0.000000000,0.000000000,0.000000000,0.000000000,0.000000000,0.000000000,1.166210744,0.000000000,4.175366402
1772424689.997301817,0.016922000,0.008785000,0.053695000,0.002466600,-0.002983360,-0.014666320,-0.999884950,-0.004845000,0.006038000,0.029319000,-0.000093221,0.000311850,-0.000387957,-0.005044234,0.027580719,-0.009630877,0.011812747,-0.001688884,1.000058562,0.001762561,-0.000756398,0.002946477,0.000000000,0.000000000,0.000000000,0.000000000,0.017039063,0.008811511,0.053687864,0.012693189,0.002009241,0.000840142,0.006117414,0.001051698,0.001145929,-0.136339149,0.351226182,1.166358335,-0.001158516,-0.003076973,0.010174510,0.999941612,0.000000000,0.000000000,0.000000000,0.000000000,0.000000000,0.000000000,1.167662830,0.000000000,4.175366402
1772424690.007301807,0.016923000,0.008791000,0.053687000,0.002449500,-0.003346350,-0.014647060,-0.999884130,-0.004801000,0.006764000,0.029279000,0.000027894,0.000115501,-0.000548971,-0.007082645,0.031455263,-0.007739212,0.010114174,-0.002181824,0.999649005,-0.000162217,0.001629071,0.000783544,0.000000000,0.000000000,0.000000000,0.000000000,0.017093422,0.008818239,0.053690201,0.013090436,0.002061206,0.000860058,0.003556950,0.000241349,-0.000401520,-0.136079837,0.353015167,1.167685966,-0.001156061,-0.003092575,0.010186082,0.999941647,0.000000000,0.000000000,0.000000000,0.000000000,0.000000000,0.000000000,1.167689550,0.000000000,4.175366402
1772424690.017301083,0.016921000,0.008797000,0.053670000,0.002578180,-0.003642200,-0.014564630,-0.999883970,-0.005050000,0.007359000,0.029112000,0.000131643,-0.000104060,-0.000424049,-0.005633203,0.033420697,-0.004528577,0.008718731,-0.003009258,0.998687417,-0.000073638,0.000763355,-0.000656586,0.000000000,0.000000000,0.000000000,0.000000000,0.017091102,0.008813618,0.053686894,0.013252950,0.002049876,0.000786593,0.002414355,-0.000227830,-0.000504565,-0.136860407,0.350681461,1.165559388,-0.001163137,-0.003072259,0.010167530,0.999941793,0.000000000,0.000000000,0.000000000,0.000000000,0.000000000,0.000000000,1.165267210,0.000000000,4.175366402
1772424690.027301073,0.016920000,0.008794000,0.053672000,0.002610120,-0.003597610,-0.014588240,-0.999883710,-0.005115000,0.007271000,0.029159000,0.000242832,-0.000376399,0.000097300,-0.001244579,0.027187534,-0.002272354,0.009888797,-0.002772874,0.999995885,0.001401881,-0.001521810,-0.001120847,0.000000000,0.000000000,0.000000000,0.000000000,0.017127216,0.008815893,0.053692341,0.013301805,0.001976414,0.000695853,0.004139922,-0.000420149,-0.000613430,-0.137196988,0.350560001,1.164179862,-0.001166122,-0.003071215,0.010155485,0.999942003,0.000000000,0.000000000,0.000000000,0.000000000,0.000000000,0.000000000,1.164057807,0.000000000,4.175366402
1772424690.037301302,0.016933000,0.008782000,0.053677000,0.002544460,-0.003740760,-0.014537080,-0.999884100,-0.004980000,0.007555000,0.029057000,0.000345241,-0.000417289,0.000361733,0.004054798,0.013661223,0.001096751,0.010594950,-0.002893912,1.001388668,0.001606446,0.000061330,-0.000913414,0.000000000,0.000000000,0.000000000,0.000000000,0.017097068,0.008805408,0.053695523,0.013298221,0.001866983,0.000659797,0.004725954,-0.001045007,0.002166032,-0.137466844,0.350452970,1.163053553,-0.001168516,-0.003070293,0.010145650,0.999942113,0.000000000,0.000000000,0.000000000,0.000000000,0.000000000,0.000000000,1.162925850,0.000000000,4.175366402
1772424690.047301292,0.016938000,0.008772000,0.053688000,0.002496220,-0.003624620,-0.014584410,-0.999883960,-0.004886000,0.007321000,0.029152000,-0.000110412,-0.000222844,0.000280420,0.005967099,0.013338180,0.003888265,0.011102721,-0.002108191,1.001694442,0.001696480,-0.000261212,-0.000286030,0.000000000,0.000000000,0.000000000,0.000000000,0.017162039,0.008814513,0.053698421,0.013580202,0.001810365,0.000802940,0.006124047,0.001003778,0.001328294,-0.137440216,0.350244165,1.161649901,-0.001168340,-0.003068454,0.010133404,0.999942216,0.000000000,0.000000000,0.000000000,0.000000000,0.000000000,0.000000000,1.161345493,0.000000000,4.175366402
1772424690.057301521,0.016928000,0.008781000,0.053690000,0.002500160,-0.003894500,-0.014623400,-0.999882360,-0.004886000,0.007861000,0.029229000,-0.000237626,0.000009984,0.000076282,0.005941254,0.009638100,0.003684381,0.010721455,-0.000584998,1.001290179,0.000593819,-0.003600179,0.001807839,0.000000000,0.000000000,0.000000000,0.000000000,0.017113789,0.008808110,0.053695084,0.013694209,0.001862447,0.000939033,0.004899267,0.002613529,0.001954508,-0.136544514,0.351458042,1.160089914,-0.001160458,-0.003078952,0.010119803,0.999942320,0.000000000,0.000000000,0.000000000,0.000000000,0.000000000,0.000000000,1.159949798,0.000000000,4.175366402
1772424690.067301273,0.016928000,0.008778000,0.053694000,0.002455100,-0.003816150,-0.014599030,-0.999883130,-0.004798000,0.007703000,0.029181000,-0.000019250,0.000127797,0.000081041,0.002381123,-0.007155724,0.000219890,0.009924872,-0.002348899,1.000391738,0.000492721,-0.001577236,-0.002272132,0.000000000,0.000000000,0.000000000,0.000000000,0.017129689,0.008807728,0.053699869,0.013856050,0.002033783,0.001068126,0.003400169,0.000172865,0.000673514,-0.137294902,0.351834849,1.159281539,-0.001166995,-0.003082298,0.010112726,0.999942432,0.000000000,0.000000000,0.000000000,0.000000000,0.000000000,0.000000000,1.159193835,0.000000000,4.175366402
1772424690.077301264,0.016928000,0.008786000,0.053678000,0.002451060,-0.003730940,-0.014629700,-0.999883020,-0.004793000,0.007533000,0.029243000,0.000425292,-0.000000952,0.000323699,-0.000166533,-0.042186583,-0.005831974,0.010595058,-0.003206143,1.000179410,-0.001517225,0.002280752,0.001092519,0.000000000,0.000000000,0.000000000,0.000000000,0.017183911,0.008813614,0.053708121,0.014005101,0.001979488,0.001124767,0.004630891,-0.000571135,0.000571993,-0.137587980,0.351626882,1.157965631,-0.001169606,-0.003080495,0.010101237,0.999942549,0.000000000,0.000000000,0.000000000,0.000000000,0.000000000,0.000000000,1.157014196,0.000000000,4.175366402
1772424690.087301016,0.016915000,0.008787000,0.053676000,0.002499180,-0.003828000,-0.014581060,-0.999883240,-0.004886000,0.007728000,0.029145000,0.000914978,-0.000345241,0.000542852,-0.002019705,-0.075397473,-0.012174978,0.011875342,-0.001999406,0.999197992,-0.000136236,-0.001514429,-0.000363606,0.000000000,0.000000000,0.000000000,0.000000000,0.017114641,0.008786150,0.053719063,0.013949452,0.001801003,0.001130090,0.005733764,0.000167121,-0.000338376,-0.137776899,0.351378949,1.156568695,-0.001171314,-0.003078334,0.010089044,0.999942666,0.000000000,0.000000000,0.000000000,0.000000000,0.000000000,0.000000000,1.156560542,0.000000000,4.175366402
1772424690.097301006,0.016954000,0.008772000,0.053700000,0.002482670,-0.002978270,-0.014491430,-0.999887480,-0.004879000,0.006028000,0.028969000,0.001287045,-0.000767192,0.000660995,-0.003042508,-0.095732884,-0.016280106,0.009780490,-0.001425933,0.999948277,-0.001221180,-0.000204138,0.003284124,0.000000000,0.000000000,0.000000000,0.000000000,0.017225136,0.008800278,0.053727685,0.014413510,0.001823017,0.001079206,0.003133126,0.000890612,0.000342137,-0.138351795,0.350772669,1.155430537,-0.001176414,-0.003073083,0.010079103,0.999942783,0.000000000,0.000000000,0.000000000,0.000000000,0.000000000,0.000000000,1.155326326,0.000000000,4.175366402
1772424690.107301950,0.016969000,0.008765000,0.053718000,0.002460830,-0.002441670,-0.014420270,-0.999890010,-0.004851000,0.004954000,0.028830000,0.001089142,-0.000733451,0.000357324,-0.004483760,-0.085795557,-0.014475541,0.009251222,-0.001016932,0.999931929,0.001643991,-0.001821532,0.000642872,0.000000000,0.000000000,0.000000000,0.000000000,0.017123363,0.008773161,0.053710005,0.014019699,0.001820795,0.000959288,0.004692460,0.001834242,0.000388139,-0.139118673,0.350051906,1.154447017,-0.001183196,-0.003066851,0.010070508,0.999942909,0.000000000,0.000000000,0.000000000,0.000000000,0.000000000,0.000000000,1.154280519,0.000000000,4.175366402
1772424690.117301941,0.016971000,0.008759000,0.053710000,0.002492130,-0.001947710,-0.014300070,-0.999892750,-0.004928000,0.003966000,0.028591000,0.000808315,-0.000712588,-0.000044056,-0.005041462,-0.057298951,-0.009178648,0.011144498,-0.001067883,0.999928118,0.004503954,-0.001116657,0.000811355,0.000000000,0.000000000,0.000000000,0.000000000,0.017189938,0.008782836,0.053713185,0.014298322,0.002018572,0.000980357,0.006245270,0.001939765,0.000933208,-0.138827421,0.350469313,1.152817763,-0.001180662,-0.003070451,0.010056294,0.999942993,0.000000000,0.000000000,0.000000000,0.000000000,0.000000000,0.000000000,1.152655775,0.000000000,4.175366402
1772424690.127302885,0.016970000,0.008753000,0.053701000,0.002547050,-0.001838760,-0.014317320,-0.999892570,-0.005041000,0.003750000,0.028626000,0.000360315,-0.000333936,-0.000381391,-0.005085735,-0.026715210,0.000547676,0.010699847,-0.002194466,1.000690854,0.002038517,0.001474949,-0.000465757,0.000000000,0.000000000,0.000000000,0.000000000,0.017166977,0.008781763,0.053709851,0.014409189,0.002133957,0.000998746,0.004453809,0.000516874,0.000694618,-0.138595168,0.350950611,1.152347059,-0.001178605,-0.003074626,0.010052187,0.999943049,0.000000000,0.000000000,0.000000000,0.000000000,0.000000000,0.000000000,1.152330568,0.000000000,4.175366402
1772424690.137303114,0.016978000,0.008748000,0.053694000,0.002537900,-0.001964630,-0.014293550,-0.999892690,-0.005019000,0.004001000,0.028578000,-0.000253128,0.000091939,-0.000346679,-0.005444447,0.000457148,0.007072138,0.010869939,-0.002896050,1.001582398,-0.000831691,0.004666477,0.000063087,0.000000000,0.000000000,0.000000000,0.000000000,0.017188257,0.008790642,0.053717641,0.014497662,0.002135767,0.001073994,0.004360337,-0.001195859,0.001602168,-0.138371103,0.350801212,1.151451917,-0.001176687,-0.003073293,0.010044384,0.999943143,0.000000000,0.000000000,0.000000000,0.000000000,0.000000000,0.000000000,1.151354905,0.000000000,4.175366402
1772424690.147303104,0.016966000,0.008760000,0.053686000,0.002581140,-0.002089250,-0.014425780,-0.999890430,-0.005101000,0.004253000,0.028842000,-0.000259596,0.000309519,0.000178050,-0.001154691,0.004509805,0.007724523,0.011164869,-0.001109267,1.000399929,-0.001785189,0.000096751,-0.000538188,0.000000000,0.000000000,0.000000000,0.000000000,0.017179264,0.008796344,0.053726299,0.014488972,0.002061669,0.001193205,0.005562202,0.001206389,-0.000141306,-0.139377782,0.348380809,1.150905014,-0.001185698,-0.003052255,0.010039612,0.999943239,0.000000000,0.000000000,0.000000000,0.000000000,0.000000000,0.000000000,1.150851125,0.000000000,4.175366402
1772424690.157303810,0.016976000,0.008752000,0.053701000,0.002585720,-0.002086810,-0.014449270,-0.999890080,-0.005111000,0.004248000,0.028889000,-0.000238559,0.000494192,0.000596388,0.003043234,0.000752629,0.005017806,0.010782944,-0.002086462,1.000348373,-0.001079260,0.003338952,-0.000141495,0.000000000,0.000000000,0.000000000,0.000000000,0.017248530,0.008806811,0.053733666,0.014780659,0.002148267,0.001194563,0.004691663,0.000621360,0.000585309,-0.139229694,0.348451621,1.150449379,-0.001184412,-0.003052855,0.010035639,0.999943362,0.000000000,0.000000000,0.000000000,0.000000000,0.000000000,0.000000000,1.150260313,0.000000000,4.175366402
1772424690.167304516,0.016968000,0.008767000,0.053715000,0.002546330,-0.001750970,-0.014487780,-0.999890270,-0.005041000,0.003575000,0.028968000,-0.000214180,0.000398660,0.000442153,0.006570337,-0.006105268,0.000680090,0.010713387,-0.003480747,1.001335451,-0.000860247,0.003967508,0.000016676,0.000000000,0.000000000,0.000000000,0.000000000,0.017251841,0.008807366,0.053729749,0.014806133,0.002125962,0.001195263,0.004566813,-0.000877963,0.001283720,-0.139135901,0.347658078,1.148912007,-0.001183704,-0.003045906,0.010022235,0.999943500,0.000000000,0.000000000,0.000000000,0.000000000,0.000000000,0.000000000,1.148729302,0.000000000,4.175366402
1772424690.177304745,0.016959000,0.008769000,0.053714000,0.002523480,-0.001838440,-0.014412680,-0.999891260,-0.004993000,0.003749000,0.028817000,-0.000086267,0.000126768,0.000077933,0.008107511,-0.009453471,0.000338703,0.011412818,-0.003720102,0.998896923,0.000262433,-0.002705269,0.000520324,0.000000000,0.000000000,0.000000000,0.000000000,0.017116518,0.008775938,0.053712851,0.014403762,0.001864503,0.001181603,0.005319643,-0.001126786,-0.001170942,-0.139062277,0.346989447,1.147663864,-0.001183153,-0.003040052,0.010011352,0.999943599,0.000000000,0.000000000,0.000000000,0.000000000,0.000000000,0.000000000,1.147417137,0.000000000,4.175366402
