t,px,py,pz,qx,qy,qz,qw,roll,pitch,yaw,vx,vy,vz,wx_vicon,wy_vicon,wz_vicon,imu_acc_x,imu_acc_y,imu_acc_z,imu_gyro_x,imu_gyro_y,imu_gyro_z,motor_motor_m1,motor_motor_m2,motor_motor_m3,motor_motor_m4,est_stateEstimate_x,est_stateEstimate_y,est_stateEstimate_z,est_stateEstimate_vx,est_stateEstimate_vy,est_stateEstimate_vz,est_stateEstimate_ax,est_stateEstimate_ay,est_stateEstimate_az,att_stateEstimate_roll,att_stateEstimate_pitch,att_stateEstimate_yaw,att_stateEstimate_qx,att_stateEstimate_qy,att_stateEstimate_qz,att_stateEstimate_qw,sp_ctrltarget_x,sp_ctrltarget_y,sp_ctrltarget_z,sp_ctrltarget_yaw,pid_controller_roll,pid_controller_pitch,pid_controller_yaw,pid_controller_cmd_thrust,pwr_pm_vbat
1772729810.803679228,0.013979000,0.006085000,0.054318000,-0.006950350,0.015636540,0.010887110,0.999794310,-0.013564000,0.031423000,0.021565000,-0.012910055,-0.012905743,0.025886136,-0.695352779,0.945998024,-0.260434851,0.007757199,-0.006837662,1.002039330,0.001212960,-0.001995895,-0.001836704,0.000000000,0.000000000,0.000000000,0.000000000,0.014662378,0.006178733,0.054474874,0.037940088,0.008605686,0.001010123,0.012429540,0.000872986,0.002291575,-0.468497064,-0.227985752,0.843361897,-0.004102917,0.001959392,0.007367705,0.999961503,0.000000000,0.000000000,0.000000000,0.000000000,0.000000000,0.000000000,0.860582650,0.000000000,4.106744766
1772729810.813679218,0.013922000,0.006020000,0.054444000,-0.007973770,0.017008090,0.010548410,0.999767910,-0.015595000,0.034183000,0.020834000,-0.002536269,-0.004107483,0.006741945,-0.206941723,0.271639540,-0.077795464,0.007963754,-0.006916378,1.002131933,0.001044546,-0.002012707,-0.002683934,0.000000000,0.000000000,0.000000000,0.000000000,0.014660192,0.006169046,0.054481127,0.038014409,0.008487799,0.001195145,0.012310971,0.001180716,0.001864456,-0.468365929,-0.228366624,0.843586990,-0.004101801,0.001962716,0.007369680,0.999961642,0.000000000,0.000000000,0.000000000,0.000000000,0.000000000,0.000000000,0.860582650,0.000000000,4.106744766
1772729810.823679447,0.013914000,0.006004000,0.054465000,-0.008766680,0.017997110,0.010229370,0.999747270,-0.017173000,0.036172000,0.020153000,0.002634132,0.000748233,-0.003201421,0.059739716,-0.095478743,0.023317422,0.008083071,-0.007487895,0.999953441,-0.001011207,-0.001052089,-0.001396449,0.000000000,0.000000000,0.000000000,0.000000000,0.014663465,0.006165908,0.054475829,0.038070553,0.008387245,0.001257342,0.011913992,0.001111097,0.000103426,-0.467389102,-0.225851665,0.842131023,-0.004093090,0.001940885,0.007356869,0.999961769,0.000000000,0.000000000,0.000000000,0.000000000,0.000000000,0.000000000,0.860582650,0.000000000,4.106744766
1772729810.833679914,0.013925000,0.005988000,0.054468000,-0.009339240,0.018636960,0.010045330,0.999732230,-0.018313000,0.037460000,0.019752000,0.003910940,0.002578188,-0.006203405,0.155898981,-0.226138359,0.061218954,0.010345903,-0.005163782,1.001248235,-0.004023588,-0.003697205,0.001171520,0.000000000,0.000000000,0.000000000,0.000000000,0.014670157,0.006164245,0.054473125,0.038171845,0.008319356,0.001247584,0.013983341,0.002435809,0.001009459,-0.466906282,-0.225247862,0.841497195,-0.004088828,0.001935669,0.007351309,0.999961793,0.000000000,0.000000000,0.000000000,0.000000000,0.000000000,0.000000000,0.860582650,0.000000000,4.106744766
1772729810.843679905,0.014001000,0.006042000,0.054354000,-0.008017490,0.016734530,0.010508220,0.999772600,-0.015689000,0.033636000,0.020757000,0.002603946,0.002299167,-0.004523450,0.132719954,-0.191126228,0.054292096,0.009416820,-0.005563554,1.001413251,0.001537564,-0.001566083,-0.001068693,0.000000000,0.000000000,0.000000000,0.000000000,0.014683663,0.006169335,0.054461358,0.038393020,0.008362852,0.001232397,0.013497166,0.002494505,0.001160798,-0.466967138,-0.223673127,0.841028916,-0.004089250,0.001921940,0.007347168,0.999961958,0.000000000,0.000000000,0.000000000,0.000000000,0.000000000,0.000000000,0.860582650,0.000000000,4.106744766
1772729810.853679895,0.014002000,0.006061000,0.054333000,-0.007058370,0.015602610,0.010947050,0.999793430,-0.013779000,0.031358000,0.021682000,0.000022941,0.000827953,-0.000420999,0.041356317,-0.061254375,0.020875823,0.007383482,-0.006138062,1.002012119,0.002641321,0.002231122,-0.000743764,0.000000000,0.000000000,0.000000000,0.000000000,0.014703787,0.006192360,0.054419683,0.038568772,0.008478486,0.001100040,0.011418713,0.002232952,0.002440655,-0.466587519,-0.222468883,0.839526961,-0.004085835,0.001911510,0.007334012,0.999962130,0.000000000,0.000000000,0.000000000,0.000000000,0.000000000,0.000000000,0.860582650,0.000000000,4.106744766
1772729810.863680363,0.014004000,0.006077000,0.054321000,-0.006422550,0.014742850,0.011162510,0.999808380,-0.012519000,0.029628000,0.022143000,-0.001193533,-0.000137316,0.001574477,-0.022905451,0.032724743,-0.006211542,0.006922997,-0.006101304,0.999943823,0.001841331,0.003000225,0.001059914,0.000000000,0.000000000,0.000000000,0.000000000,0.014710621,0.006215149,0.054386554,0.038533943,0.008542100,0.001066124,0.010797172,0.002024147,-0.000117309,-0.465697781,-0.221902737,0.837451623,-0.004078000,0.001906700,0.007315867,0.999962211,0.000000000,0.000000000,0.000000000,0.000000000,0.000000000,0.000000000,0.860582650,0.000000000,4.106744766
1772729810.873680830,0.013920000,0.006023000,0.054447000,-0.007790660,0.016476250,0.010685110,0.999776810,-0.015235000,0.033118000,0.021122000,-0.000866046,-0.000207731,0.001114065,-0.047207382,0.073288806,-0.021042507,0.006990836,-0.006562203,0.998972999,-0.000022842,0.003002426,0.001925869,0.000000000,0.000000000,0.000000000,0.000000000,0.014694665,0.006207607,0.054409497,0.038373105,0.008470457,0.001097187,0.010858774,0.001379292,-0.000565606,-0.464296450,-0.222131392,0.836342484,-0.004065768,0.001908824,0.007306173,0.999962211,0.000000000,0.000000000,0.000000000,0.000000000,0.000000000,0.000000000,0.860582650,0.000000000,4.106744766
1772729810.883680820,0.013920000,0.006013000,0.054476000,-0.008880670,0.018078020,0.010274710,0.999744340,-0.017398000,0.036337000,0.020238000,-0.000647320,-0.000509635,0.001290910,-0.066938617,0.104079252,-0.035433139,0.007131819,-0.007779751,1.001112987,-0.002669083,0.003163765,0.000611977,0.000000000,0.000000000,0.000000000,0.000000000,0.014675680,0.006190272,0.054443772,0.038225368,0.008305889,0.001184379,0.011072840,0.001316130,0.000121079,-0.464376412,-0.223363678,0.836462010,-0.004066546,0.001919568,0.007307261,0.999962238,0.000000000,0.000000000,0.000000000,0.000000000,0.000000000,0.000000000,0.860582650,0.000000000,4.106744766
1772729810.893680334,0.013936000,0.006025000,0.054443000,-0.009217670,0.018444880,0.010093310,0.999736440,-0.018072000,0.037075000,0.019856000,0.000809325,0.000418571,-0.001095339,-0.003771051,0.019496363,-0.015322642,0.007101813,-0.004904150,1.000471677,-0.001723517,0.000954723,0.000373507,0.000000000,0.000000000,0.000000000,0.000000000,0.014665747,0.006170149,0.054469158,0.038128062,0.008159331,0.001242582,0.010885500,0.003221667,0.000481388,-0.465344288,-0.224636673,0.835678476,-0.004075060,0.001930643,0.007300485,0.999962269,0.000000000,0.000000000,0.000000000,0.000000000,0.000000000,0.000000000,0.860582650,0.000000000,4.106744766
1772729810.903679848,0.013994000,0.006057000,0.054341000,-0.007834450,0.016803090,0.010467190,0.999773330,-0.015323000,0.033769000,0.020680000,0.001333529,0.000691201,-0.001928168,0.053495616,-0.056257151,0.010315739,0.007435424,-0.003862986,1.001966253,0.000089965,-0.002014108,-0.003310432,0.000000000,0.000000000,0.000000000,0.000000000,0.014720835,0.006184717,0.054436460,0.038217838,0.008350639,0.001120677,0.011177074,0.003833291,0.001297208,-0.465301815,-0.224186328,0.834542016,-0.004074641,0.001926756,0.007290552,0.999962374,0.000000000,0.000000000,0.000000000,0.000000000,0.000000000,0.000000000,0.860582650,0.000000000,4.106744766
1772729810.913679123,0.014008000,0.006075000,0.054325000,-0.007010330,0.015830130,0.010738580,0.999792450,-0.013685000,0.031810000,0.021263000,0.000959325,0.000397203,-0.001299865,0.071479778,-0.085951846,0.023652814,0.007712985,-0.005037706,1.002177434,-0.001064001,-0.001305504,-0.005008556,0.000000000,0.000000000,0.000000000,0.000000000,0.014738197,0.006208551,0.054391445,0.038136790,0.008501757,0.000941994,0.011870081,0.002618042,0.001228143,-0.464399270,-0.222854344,0.832992490,-0.004066655,0.001915245,0.007276968,0.999962506,0.000000000,0.000000000,0.000000000,0.000000000,0.000000000,0.000000000,0.860582650,0.000000000,4.107543965
1772729810.923679113,0.013938000,0.006028000,0.054448000,-0.008059120,0.017194840,0.010315910,0.999766460,-0.015770000,0.034555000,0.020363000,-0.000601788,-0.000771698,0.001265755,0.008910920,-0.011191475,0.007820189,0.007515333,-0.005705594,1.001406512,-0.000685683,0.000489105,-0.004396592,0.000000000,0.000000000,0.000000000,0.000000000,0.014730507,0.006223667,0.054364058,0.037925489,0.008549736,0.000817149,0.012852298,0.004317393,-0.000538931,-0.463210791,-0.222179637,0.831176361,-0.004056211,0.001909497,0.007261076,0.999962633,0.000000000,0.000000000,0.000000000,0.000000000,0.000000000,0.000000000,0.860582650,0.000000000,4.108381189
1772729810.933679104,0.013984000,0.006055000,0.054354000,-0.007181370,0.016046200,0.010752110,0.999787650,-0.014022000,0.032246000,0.021282000,-0.001348816,-0.001412453,0.002891397,-0.069683308,0.091866477,-0.018587911,0.007192079,-0.006239507,1.000376020,0.000097633,0.002570726,-0.003174050,0.000000000,0.000000000,0.000000000,0.000000000,0.014704744,0.006214594,0.054387487,0.037530208,0.008419179,0.000879239,0.010279065,0.002567120,0.000250654,-0.459615829,-0.205475870,0.836891520,-0.004023872,0.001763762,0.007310306,0.999962628,0.000000000,0.000000000,0.000000000,0.000000000,0.000000000,0.000000000,0.860582650,0.000000000,4.109218414
1772729810.943679094,0.013948000,0.006008000,0.054450000,-0.008334890,0.017519030,0.010419120,0.999757500,-0.016312000,0.035211000,0.020555000,-0.001695476,-0.001280829,0.002907443,-0.122503848,0.160538111,-0.037866032,0.007145040,-0.006259180,0.999486738,-0.001513244,0.001665726,0.001384675,0.000000000,0.000000000,0.000000000,0.000000000,0.014678982,0.006205520,0.054410915,0.037134927,0.008288622,0.000941329,0.010975979,0.002098052,-0.000744640,-0.458886376,-0.205221156,0.835622985,-0.004017471,0.001761630,0.007299216,0.999962752,0.000000000,0.000000000,0.000000000,0.000000000,0.000000000,0.000000000,0.860582650,0.000000000,4.110055638
1772729810.953678370,0.013933000,0.006006000,0.054462000,-0.008950840,0.018270640,0.010197440,0.999741010,-0.017537000,0.036723000,0.020077000,-0.001189512,-0.000627681,0.001414959,-0.116596370,0.158846362,-0.040308899,0.006354570,-0.005237935,0.997683731,-0.000291795,0.001359660,0.004090171,0.000000000,0.000000000,0.000000000,0.000000000,0.014673667,0.006204240,0.054408967,0.036921494,0.008233458,0.000787656,0.010084996,0.002543582,-0.002339111,-0.458953767,-0.205885820,0.834445149,-0.004018083,0.001767467,0.007288962,0.999962766,0.000000000,0.000000000,0.000000000,0.000000000,0.000000000,0.000000000,0.860582650,0.000000000,4.110892802
1772729810.963678360,0.013927000,0.006005000,0.054469000,-0.009642040,0.019167590,0.009912220,0.999720650,-0.018914000,0.038525000,0.019465000,-0.001030557,-0.000462763,0.001261986,-0.114201301,0.162115344,-0.044652728,0.007208230,-0.005862495,0.998744112,-0.001307336,-0.001747398,0.002416185,0.000000000,0.000000000,0.000000000,0.000000000,0.014675457,0.006199443,0.054408936,0.036867857,0.008209971,0.000581683,0.010615747,0.002898875,-0.001436250,-0.458789483,-0.207054793,0.834684847,-0.004016728,0.001777670,0.007291092,0.999962782,0.000000000,0.000000000,0.000000000,0.000000000,0.000000000,0.000000000,0.860582650,0.000000000,4.111730027
1772729810.973678350,0.013924000,0.006012000,0.054468000,-0.009857250,0.019595280,0.009781840,0.999711550,-0.019342000,0.039382000,0.019188000,-0.000408489,0.000084363,-0.000007556,-0.072456829,0.104274043,-0.034029405,0.008242677,-0.006617001,1.000719323,-0.002809833,-0.000203795,0.002093956,0.000000000,0.000000000,0.000000000,0.000000000,0.014660635,0.006180536,0.054442936,0.036787301,0.008132105,0.000579337,0.011073929,0.000878363,0.000446873,-0.458963715,-0.207302948,0.834252979,-0.004018257,0.001779839,0.007287335,0.999962807,0.000000000,0.000000000,0.000000000,0.000000000,0.000000000,0.000000000,0.860582650,0.000000000,4.111746866
1772729810.983678818,0.013905000,0.006015000,0.054463000,-0.010150830,0.020005800,0.009735200,0.999700930,-0.019923000,0.040208000,0.019075000,0.000925545,0.000679352,-0.001989027,0.008607804,-0.011284342,0.001828475,0.007956979,-0.006420241,1.000820148,-0.000750375,0.000764311,0.000775382,0.000000000,0.000000000,0.000000000,0.000000000,0.014648160,0.006169038,0.054465889,0.036871527,0.008059266,0.000692009,0.011795860,0.001377555,0.000961545,-0.459008080,-0.207096098,0.834200347,-0.004018630,0.001778033,0.007286869,0.999962807,0.000000000,0.000000000,0.000000000,0.000000000,0.000000000,0.000000000,0.860582650,0.000000000,4.111321247
1772729810.993678331,0.013922000,0.006005000,0.054459000,-0.010227500,0.020128680,0.009634040,0.999698660,-0.020079000,0.040453000,0.018867000,0.001265774,0.000286830,-0.001498525,0.047255187,-0.071799257,0.019320433,0.007411669,-0.005790176,0.999843623,0.001102064,0.001366349,0.000222419,0.000000000,0.000000000,0.000000000,0.000000000,0.014643012,0.006168590,0.054473823,0.036950999,0.008039023,0.000745929,0.011912789,0.001378538,0.000446280,-0.459248363,-0.207272472,0.833917209,-0.004020734,0.001779567,0.007284408,0.999962837,0.000000000,0.000000000,0.000000000,0.000000000,0.000000000,0.000000000,0.860582650,0.000000000,4.110895669
1772729811.003678799,0.013934000,0.005998000,0.054466000,-0.010269270,0.020085040,0.009624750,0.999699200,-0.020164000,0.040367000,0.018848000,0.000875292,0.000011577,-0.000729954,0.060345590,-0.090613267,0.026005499,0.007630529,-0.005500369,0.999351582,0.000117557,0.002119999,0.001076644,0.000000000,0.000000000,0.000000000,0.000000000,0.014632726,0.006169018,0.054475814,0.037132657,0.008001577,0.000770710,0.012936221,0.001281499,0.001263005,-0.458119569,-0.206539738,0.833232266,-0.004010827,0.001773269,0.007278389,0.999962959,0.000000000,0.000000000,0.000000000,0.000000000,0.000000000,0.000000000,0.860582650,0.000000000,4.110470050
1772729811.013678312,0.013990000,0.006054000,0.054340000,-0.008509980,0.017606820,0.010298080,0.999755730,-0.016664000,0.035388000,0.020306000,0.000291123,-0.000149592,0.000152778,0.043704503,-0.064613042,0.017382140,0.007849368,-0.005210589,0.998859588,-0.000866857,0.002873576,0.001930787,0.000000000,0.000000000,0.000000000,0.000000000,0.014638912,0.006164255,0.054475532,0.037373855,0.007948945,0.000859510,0.012188175,0.001416734,0.001595066,-0.457744642,-0.206305811,0.832704858,-0.004007532,0.001771270,0.007273772,0.999962946,0.000000000,0.000000000,0.000000000,0.000000000,0.000000000,0.000000000,0.860582650,0.000000000,4.110044472
1772729811.023678303,0.013949000,0.006003000,0.054453000,-0.009074160,0.018362230,0.010228120,0.999737900,-0.017781000,0.036909000,0.020133000,-0.000546018,-0.000597689,0.001460977,-0.002950202,0.005762663,-0.003204009,0.008068218,-0.004920796,0.998367571,-0.001851318,0.003627189,0.002784971,0.000000000,0.000000000,0.000000000,0.000000000,0.014645335,0.006160567,0.054478088,0.037482089,0.007928072,0.000910174,0.011850100,0.002541253,-0.000130592,-0.458106996,-0.206605446,0.832603993,-0.004010711,0.001773865,0.007272907,0.999962985,0.000000000,0.000000000,0.000000000,0.000000000,0.000000000,0.000000000,0.860582650,0.000000000,4.109618873
1772729811.033678293,0.013937000,0.006000000,0.054468000,-0.009292040,0.018719260,0.009963800,0.999731950,-0.018220000,0.037623000,0.019589000,-0.000534325,-0.000091978,0.000561986,-0.013863484,0.020191991,-0.007100696,0.008287067,-0.004631002,0.997875554,-0.002835778,0.004380803,0.003639154,0.000000000,0.000000000,0.000000000,0.000000000,0.014657887,0.006166113,0.054461235,0.037583776,0.007979074,0.000795161,0.011644761,0.003580744,-0.001853122,-0.458252890,-0.206170271,0.832298741,-0.004011952,0.001770069,0.007270231,0.999962931,0.000000000,0.000000000,0.000000000,0.000000000,0.000000000,0.000000000,0.860582650,0.000000000,4.109193275
1772729811.043678284,0.013913000,0.006003000,0.054473000,-0.009666300,0.019377500,0.009868490,0.999716800,-0.018960000,0.038945000,0.019373000,-0.000138326,0.000314025,-0.000304643,-0.007070288,0.003263516,-0.007356175,0.008260196,-0.004778082,0.998027250,-0.003081413,0.003911364,0.004010483,0.000000000,0.000000000,0.000000000,0.000000000,0.014675332,0.006179034,0.054428880,0.037680235,0.008087483,0.000547817,0.012366703,0.003557947,-0.002937510,-0.458451446,-0.205833205,0.832034507,-0.004013659,0.001767124,0.007267917,0.999962875,0.000000000,0.000000000,0.000000000,0.000000000,0.000000000,0.000000000,0.860582650,0.000000000,4.108767676
1772729811.053678513,0.013933000,0.006009000,0.054457000,-0.009768340,0.019378710,0.009752590,0.999716930,-0.019169000,0.038947000,0.019137000,0.000038364,0.000562063,-0.000611325,0.006761916,-0.020323792,-0.003654653,0.008081791,-0.005194580,0.998575920,-0.002871427,0.002687671,0.004084050,0.000000000,0.000000000,0.000000000,0.000000000,0.014683791,0.006182420,0.054418490,0.037779361,0.008164696,0.000356047,0.012931895,0.003421309,-0.003568161,-0.459309882,-0.206725475,0.832284223,-0.004021211,0.001774847,0.007270140,0.999962896,0.000000000,0.000000000,0.000000000,0.000000000,0.000000000,0.000000000,0.860582650,0.000000000,4.108342067
1772729811.063678741,0.013940000,0.006003000,0.054452000,-0.009780190,0.019269060,0.009795810,0.999718510,-0.019193000,0.038729000,0.019225000,0.000319231,0.000483683,-0.000841784,0.028091815,-0.048490453,0.008388296,0.007903385,-0.005611078,0.999124591,-0.002661441,0.001463978,0.004157617,0.000000000,0.000000000,0.000000000,0.000000000,0.014682610,0.006175577,0.054431666,0.037881344,0.008208435,0.000223905,0.012606307,0.002637814,-0.001620451,-0.459839037,-0.207131202,0.832015449,-0.004025850,0.001778364,0.007267817,0.999962931,0.000000000,0.000000000,0.000000000,0.000000000,0.000000000,0.000000000,0.860582650,0.000000000,4.107916459
1772729811.073678732,0.013984000,0.006065000,0.054341000,-0.008177200,0.016965270,0.010404910,0.999768500,-0.016008000,0.034099000,0.020541000,0.000530265,0.000288404,-0.000838423,0.043665131,-0.069446740,0.020195079,0.007724984,-0.006027566,0.999673248,-0.002451460,0.000240314,0.004231182,0.000000000,0.000000000,0.000000000,0.000000000,0.014679952,0.006170252,0.054443970,0.037973367,0.008218994,0.000183262,0.012272744,0.002012589,-0.000101252,-0.460075417,-0.207104338,0.831285695,-0.004027899,0.001778140,0.007261451,0.999962966,0.000000000,0.000000000,0.000000000,0.000000000,0.000000000,0.000000000,0.860582650,0.000000000,4.107490860
1772729811.083678722,0.013937000,0.006023000,0.054442000,-0.008750480,0.017716730,0.010127450,0.999753460,-0.017150000,0.035609000,0.019954000,0.000265735,0.000179177,-0.000636753,0.051261883,-0.070909510,0.024097914,0.007546583,-0.006444054,1.000221905,-0.002241480,-0.000983350,0.004304747,0.000000000,0.000000000,0.000000000,0.000000000,0.014676335,0.006166140,0.054455089,0.038051245,0.008193697,0.000200095,0.011908536,0.001994780,-0.000226617,-0.460044844,-0.207638550,0.830486851,-0.004027654,0.001782832,0.007254498,0.999962986,0.000000000,0.000000000,0.000000000,0.000000000,0.000000000,0.000000000,0.860582650,0.000000000,4.107065261
1772729811.093678474,0.013919000,0.006004000,0.054477000,-0.009181260,0.018573380,0.010004860,0.999735280,-0.018000000,0.037329000,0.019678000,-0.000101768,-0.000149845,0.000072378,0.031115608,-0.033038828,0.020839524,0.006965002,-0.009290801,1.001191200,-0.001602018,-0.001056518,0.002570575,0.000000000,0.000000000,0.000000000,0.000000000,0.014671555,0.006165434,0.054459437,0.038045804,0.008001781,0.000268746,0.010606541,-0.001628742,0.001057167,-0.459769853,-0.207648570,0.830233917,-0.004025251,0.001782945,0.007252287,0.999963009,0.000000000,0.000000000,0.000000000,0.000000000,0.000000000,0.000000000,0.860582650,0.000000000,4.106744766
1772729811.103678226,0.013942000,0.005997000,0.054452000,-0.009187290,0.018580550,0.010134510,0.999733790,-0.018007000,0.037346000,0.019937000,-0.000025699,-0.000417774,0.000597029,0.000852579,0.008478024,0.010139433,0.006659547,-0.008939748,1.001177564,0.001764685,-0.000311093,-0.000807658,0.000000000,0.000000000,0.000000000,0.000000000,0.014666775,0.006164729,0.054463786,0.038040363,0.007809865,0.000337397,0.009969490,-0.000573095,0.001048649,-0.459002409,-0.206554569,0.830211266,-0.004018485,0.001773448,0.007252040,0.999963192,0.000000000,0.000000000,0.000000000,0.000000000,0.000000000,0.000000000,0.860582650,0.000000000,4.106744766
1772729811.113678217,0.013987000,0.006061000,0.054333000,-0.007783200,0.016524980,0.010643240,0.999776510,-0.015220000,0.033214000,0.021038000,-0.000089277,-0.000346310,0.000884403,-0.024411293,0.043079338,-0.002245885,0.007126445,-0.007371773,1.001615307,0.001431563,0.000658680,-0.001686251,0.000000000,0.000000000,0.000000000,0.000000000,0.014670089,0.006159506,0.054462269,0.038023255,0.007633317,0.000412427,0.010732378,-0.000029722,0.002132672,-0.457359065,-0.205719570,0.828962416,-0.004004073,0.001766309,0.007241088,0.999963343,0.000000000,0.000000000,0.000000000,0.000000000,0.000000000,0.000000000,0.860582650,0.000000000,4.106744766
1772729811.123677969,0.013932000,0.006014000,0.054451000,-0.008582620,0.017820450,0.010398270,0.999750290,-0.016802000,0.035818000,0.020500000,-0.000235587,-0.000200544,0.001000778,-0.044662738,0.061357881,-0.016020478,0.007849499,-0.006050292,1.002289720,0.000273163,-0.000741693,-0.001502843,0.000000000,0.000000000,0.000000000,0.000000000,0.014679333,0.006169825,0.054440995,0.038059683,0.007555296,0.000550712,0.011166291,0.002025032,0.001827299,-0.456171274,-0.206526979,0.827462599,-0.003993735,0.001773482,0.007228010,0.999963318,0.000000000,0.000000000,0.000000000,0.000000000,0.000000000,0.000000000,0.860582650,0.000000000,4.106744766
1772729811.133677959,0.013945000,0.006002000,0.054470000,-0.009201680,0.018584810,0.010193120,0.999732980,-0.018033000,0.037356000,0.020054000,-0.000322106,-0.000086966,0.000782421,-0.049548646,0.064620901,-0.024295051,0.008441371,-0.004471206,1.001145063,-0.000005607,-0.000842109,-0.000817267,0.000000000,0.000000000,0.000000000,0.000000000,0.014680997,0.006168671,0.054442516,0.038143982,0.007622507,0.000740350,0.011719710,0.003437677,0.000897134,-0.455307195,-0.206854229,0.827893047,-0.003986222,0.001776378,0.007231763,0.999963448,0.000000000,0.000000000,0.000000000,0.000000000,0.000000000,0.000000000,0.860582650,0.000000000,4.106744766
1772729811.143677950,0.013938000,0.006009000,0.054468000,-0.009488260,0.018935580,0.010011160,0.999725560,-0.018607000,0.038060000,0.019673000,-0.000566026,-0.000202001,0.000970611,-0.055810133,0.076515757,-0.029687102,0.008733450,-0.004649215,1.000136980,-0.001543920,0.000736883,0.001192100,0.000000000,0.000000000,0.000000000,0.000000000,0.014676598,0.006156497,0.054465452,0.038271945,0.007816580,0.000922406,0.012447986,0.003947039,-0.001991629,-0.455492053,-0.206426977,0.826040858,-0.003987779,0.001772702,0.007215589,0.999963491,0.000000000,0.000000000,0.000000000,0.000000000,0.000000000,0.000000000,0.860582650,0.000000000,4.106744766
1772729811.153678894,0.013925000,0.006016000,0.054472000,-0.009720050,0.019340740,0.009810310,0.999717570,-0.019071000,0.038871000,0.019255000,0.000365268,0.000626671,-0.001385899,0.000088132,0.001812837,-0.005499563,0.008677613,-0.004746216,1.001569011,-0.000327117,-0.000005832,0.001189081,0.000000000,0.000000000,0.000000000,0.000000000,0.014682636,0.006162574,0.054463426,0.038431380,0.008016963,0.000943012,0.012405065,0.003508532,0.001672365,-0.454832212,-0.207191019,0.824714491,-0.003982049,0.001779457,0.007204031,0.999963629,0.000000000,0.000000000,0.000000000,0.000000000,0.000000000,0.000000000,0.860582650,0.000000000,4.106744766
1772729811.163678646,0.013933000,0.006003000,0.054462000,-0.009901670,0.019356210,0.009769680,0.999715880,-0.019435000,0.038905000,0.019166000,0.001308607,0.001447612,-0.003166922,0.077796767,-0.108027117,0.025955240,0.007567990,-0.005567232,1.001362079,0.000210061,0.004927821,-0.000823844,0.000000000,0.000000000,0.000000000,0.000000000,0.014688672,0.006168650,0.054461401,0.038590797,0.008217322,0.000963616,0.011328323,0.002499992,0.001915052,-0.453837531,-0.206189347,0.823690822,-0.003973290,0.001770814,0.007195048,0.999963706,0.000000000,0.000000000,0.000000000,0.000000000,0.000000000,0.000000000,0.860582650,0.000000000,4.106744766
1772729811.173678637,0.013983000,0.006063000,0.054342000,-0.008254720,0.017348930,0.010409520,0.999761230,-0.016155000,0.034869000,0.020542000,0.000879313,0.000716240,-0.001584073,0.088352719,-0.114994155,0.033466639,0.007720399,-0.005579632,1.000176945,-0.000080125,0.002010571,-0.001683625,0.000000000,0.000000000,0.000000000,0.000000000,0.014686211,0.006171910,0.054470142,0.038645182,0.008305045,0.001003562,0.011346374,0.002319054,0.000491774,-0.453610175,-0.207284518,0.822557690,-0.003971358,0.001780424,0.007185194,0.999963752,0.000000000,0.000000000,0.000000000,0.000000000,0.000000000,0.000000000,0.860582650,0.000000000,4.106812689
1772729811.183678865,0.013941000,0.006026000,0.054443000,-0.008904910,0.018233110,0.010154500,0.999742540,-0.017448000,0.036646000,0.019994000,-0.000048485,-0.000465715,0.000836248,0.037124750,-0.041080845,0.018045295,0.007752437,-0.005451112,1.000154731,-0.001169931,-0.000851590,0.000696129,0.000000000,0.000000000,0.000000000,0.000000000,0.014680968,0.006174247,0.054482407,0.038665185,0.008355896,0.001049840,0.011283940,0.002778454,-0.000072258,-0.453771640,-0.208618708,0.821692700,-0.003972836,0.001792087,0.007177695,0.999963750,0.000000000,0.000000000,0.000000000,0.000000000,0.000000000,0.000000000,0.860582650,0.000000000,4.107313826
1772729811.193679094,0.013990000,0.006066000,0.054338000,-0.007562510,0.016523500,0.010696310,0.999777660,-0.014777000,0.033208000,0.021151000,-0.000583450,-0.000876108,0.001761288,-0.011042035,0.026396911,-0.000389572,0.007354130,-0.006582347,1.000549132,-0.001852683,-0.000090118,-0.000009887,0.000000000,0.000000000,0.000000000,0.000000000,0.014680807,0.006171004,0.054482991,0.038691276,0.008408832,0.001018211,0.010810190,0.001345830,0.000605531,-0.453816441,-0.209478810,0.821677468,-0.003973281,0.001799590,0.007177593,0.999963707,0.000000000,0.000000000,0.000000000,0.000000000,0.000000000,0.000000000,0.860582650,0.000000000,4.107814962
1772729811.203679562,0.013957000,0.006012000,0.054460000,-0.008359620,0.017502780,0.010352200,0.999758270,-0.016364000,0.035177000,0.020421000,-0.000262141,-0.000295610,0.000554527,-0.013595548,0.023653018,-0.003503984,0.008022038,-0.006638158,0.999876025,0.000353669,-0.000338731,-0.001627964,0.000000000,0.000000000,0.000000000,0.000000000,0.014704365,0.006195977,0.054424745,0.038739180,0.008337533,0.000776833,0.011383838,0.001061452,-0.000303720,-0.453818163,-0.208866842,0.821777289,-0.003973259,0.001794246,0.007178442,0.999963827,0.000000000,0.000000000,0.000000000,0.000000000,0.000000000,0.000000000,0.860582650,0.000000000,4.108316110
1772729811.213679552,0.013929000,0.005999000,0.054481000,-0.009040940,0.018594490,0.010133300,0.999734880,-0.017714000,0.037371000,0.019940000,-0.000028710,0.000145435,-0.000695513,0.006148065,-0.011804263,0.002210706,0.007541280,-0.005290346,0.999455428,-0.000107785,-0.001001593,0.001910474,0.000000000,0.000000000,0.000000000,0.000000000,0.014699070,0.006193191,0.054437817,0.038795042,0.008274635,0.000721986,0.011251611,0.001931975,0.000375858,-0.453036109,-0.208621838,0.820960155,-0.003966407,0.001792186,0.007171291,0.999963864,0.000000000,0.000000000,0.000000000,0.000000000,0.000000000,0.000000000,0.860582650,0.000000000,4.108817235
1772729811.223679543,0.013916000,0.006000000,0.054476000,-0.009553950,0.019218690,0.009988820,0.999719750,-0.018734000,0.038627000,0.019621000,0.000273349,0.000807130,-0.001871836,0.043469902,-0.067152713,0.012707590,0.006773277,-0.005522066,0.999222145,0.003451676,-0.003541833,-0.000964876,0.000000000,0.000000000,0.000000000,0.000000000,0.014707262,0.006191939,0.054434821,0.038758940,0.008299932,0.000606956,0.010221988,0.002611166,-0.001306242,-0.453242621,-0.208093658,0.820492941,-0.003968169,0.001787580,0.007167199,0.999963902,0.000000000,0.000000000,0.000000000,0.000000000,0.000000000,0.000000000,0.860582650,0.000000000,4.109318359
1772729811.233679533,0.013986000,0.006061000,0.054343000,-0.008041770,0.017094560,0.010482440,0.999766580,-0.015731000,0.034356000,0.020699000,0.000008178,0.000497456,-0.000842483,0.031368673,-0.053368499,0.006556507,0.007718245,-0.005215203,0.998977072,0.003114473,-0.003170154,-0.002421885,0.000000000,0.000000000,0.000000000,0.000000000,0.014707714,0.006186277,0.054441866,0.038745035,0.008324612,0.000534170,0.012059929,0.003023345,-0.000583462,-0.452297586,-0.207360064,0.818984606,-0.003959853,0.001781289,0.007153996,0.999964122,0.000000000,0.000000000,0.000000000,0.000000000,0.000000000,0.000000000,0.860582650,0.000000000,4.109819484
1772729811.243680000,0.013993000,0.006077000,0.054314000,-0.007035150,0.015604270,0.010825270,0.999794890,-0.013737000,0.031360000,0.021439000,-0.000181838,0.000030264,0.000218124,0.005063973,-0.012059056,-0.005255908,0.008915872,-0.004684617,0.998793033,0.001204589,-0.001539506,-0.002587405,0.000000000,0.000000000,0.000000000,0.000000000,0.014696963,0.006177955,0.054456613,0.038787540,0.008363169,0.000502235,0.012476791,0.003100113,-0.001342822,-0.451129625,-0.205871897,0.817902528,-0.003949551,0.001768413,0.007144485,0.999964238,0.000000000,0.000000000,0.000000000,0.000000000,0.000000000,0.000000000,0.860582650,0.000000000,4.110320632
1772729811.253679514,0.013932000,0.006026000,0.054430000,-0.007887730,0.016894370,0.010437980,0.999771680,-0.015429000,0.033952000,0.020618000,-0.000126302,-0.000579663,0.001381897,-0.028938147,0.036542538,-0.018882962,0.007239841,-0.005705956,0.999454385,0.003781885,-0.000574701,-0.000946922,0.000000000,0.000000000,0.000000000,0.000000000,0.014702396,0.006186196,0.054436873,0.038831601,0.008432180,0.000341920,0.010941529,0.002829042,-0.000232441,-0.450382682,-0.205262873,0.817074139,-0.003942983,0.001763174,0.007137223,0.999964344,0.000000000,0.000000000,0.000000000,0.000000000,0.000000000,0.000000000,0.860582650,0.000000000,4.110821733
1772729811.263679504,0.013933000,0.006012000,0.054463000,-0.008749520,0.017905100,0.010081070,0.999750580,-0.017146000,0.035985000,0.019858000,-0.000304779,-0.000663482,0.001684695,-0.055724646,0.078399266,-0.028958695,0.006200704,-0.006801497,0.999659581,0.003478866,0.000564095,0.000175491,0.000000000,0.000000000,0.000000000,0.000000000,0.014707829,0.006194438,0.054417132,0.038875664,0.008501195,0.000181597,0.009686865,0.001277079,-0.000403553,-0.449610086,-0.205149409,0.815846461,-0.003936215,0.001762274,0.007126494,0.999964450,0.000000000,0.000000000,0.000000000,0.000000000,0.000000000,0.000000000,0.860582650,0.000000000,4.111322857
1772729811.273679256,0.013942000,0.006010000,0.054465000,-0.009279950,0.018734780,0.009943910,0.999731970,-0.018196000,0.037653000,0.019550000,-0.000424243,-0.000470805,0.001346932,-0.063391835,0.089355119,-0.026959922,0.005924613,-0.007739387,0.999523657,0.001457201,0.001660568,0.001069543,0.000000000,0.000000000,0.000000000,0.000000000,0.014716238,0.006206000,0.054390670,0.038843568,0.008479484,0.000007169,0.009346186,0.000025700,-0.000832313,-0.448025064,-0.204744252,0.814701737,-0.003922340,0.001758876,0.007116468,0.999964545,0.000000000,0.000000000,0.000000000,0.000000000,0.000000000,0.000000000,0.860582650,0.000000000,4.111823970
1772729811.283679485,0.013931000,0.006007000,0.054472000,-0.009609040,0.019241980,0.009719210,0.999721440,-0.018854000,0.038670000,0.019079000,0.000175816,0.000249787,-0.000443046,-0.024982249,0.033651578,-0.010697899,0.007778708,-0.007512444,0.999122154,0.000825244,0.001486910,0.003049941,0.000000000,0.000000000,0.000000000,0.000000000,0.014727106,0.006220302,0.054358657,0.038748584,0.008382855,-0.000178918,0.011261913,0.000712063,-0.000850106,-0.447172933,-0.205132342,0.813641818,-0.003914912,0.001762352,0.007107219,0.999964595,0.000000000,0.000000000,0.000000000,0.000000000,0.000000000,0.000000000,0.860582650,0.000000000,4.112023354
1772729811.293679953,0.013994000,0.006061000,0.054348000,-0.008148590,0.017109620,0.010301280,0.999767350,-0.015951000,0.034386000,0.020332000,-0.000236539,0.000250117,-0.000339530,-0.017411347,0.023057745,-0.008033300,0.007742682,-0.006438585,0.998859248,0.001384166,-0.000878643,0.001754513,0.000000000,0.000000000,0.000000000,0.000000000,0.014705264,0.006204622,0.054390930,0.038710307,0.008193324,-0.000127427,0.011126857,0.001378387,-0.001070229,-0.446673888,-0.205672761,0.813017458,-0.003910581,0.001767120,0.007101781,0.999964633,0.000000000,0.000000000,0.000000000,0.000000000,0.000000000,0.000000000,0.860582650,0.000000000,4.112023354
1772729811.303680658,0.013936000,0.006035000,0.054437000,-0.008807930,0.018013260,0.010004090,0.999748900,-0.017263000,0.036202000,0.019700000,-0.000454954,0.000326515,-0.000390074,-0.014034590,0.017560197,-0.007094091,0.007461114,-0.006224617,0.998934257,0.000685522,-0.001000011,0.000746462,0.000000000,0.000000000,0.000000000,0.000000000,0.014693578,0.006188717,0.054423281,0.038650896,0.008100450,-0.000090124,0.010640960,0.001952179,-0.001377215,-0.446041955,-0.205681965,0.812826262,-0.003905064,0.001767246,0.007100102,0.999964774,0.000000000,0.000000000,0.000000000,0.000000000,0.000000000,0.000000000,0.860582650,0.000000000,4.112023354
1772729811.313680887,0.013921000,0.006014000,0.054462000,-0.009296140,0.018699810,0.009942240,0.999732490,-0.018229000,0.037583000,0.019547000,0.000029545,0.000255381,-0.000657790,-0.003759112,-0.003162104,-0.000832013,0.007472558,-0.006246961,1.000391721,-0.001242268,0.001387155,0.000203433,0.000000000,0.000000000,0.000000000,0.000000000,0.014690662,0.006177983,0.054442924,0.038638857,0.008045198,-0.000101291,0.010488931,0.002432959,0.000246434,-0.444382812,-0.204194106,0.811078543,-0.003890467,0.001754425,0.007084775,0.999964833,0.000000000,0.000000000,0.000000000,0.000000000,0.000000000,0.000000000,0.860582650,0.000000000,4.112023354
1772729811.323680878,0.013926000,0.006014000,0.054451000,-0.009655110,0.019154360,0.009698580,0.999722870,-0.018948000,0.038495000,0.019037000,0.000191686,-0.000054876,-0.000427914,0.002499420,-0.016521528,0.006341252,0.007815434,-0.008294451,1.000553370,-0.002338804,0.001950121,0.001001153,0.000000000,0.000000000,0.000000000,0.000000000,0.014688477,0.006176070,0.054444908,0.038686001,0.007961296,-0.000108427,0.011217034,0.001611734,-0.000439815,-0.444862534,-0.204470227,0.810359547,-0.003894659,0.001756829,0.007078518,0.999964833,0.000000000,0.000000000,0.000000000,0.000000000,0.000000000,0.000000000,0.860582650,0.000000000,4.112023354
1772729811.333681107,0.013927000,0.006024000,0.054451000,-0.009899860,0.019496090,0.009626720,0.999714570,-0.019435000,0.039182000,0.018878000,0.000083450,-0.000230828,-0.000002933,0.006878544,-0.024624540,0.010724678,0.007559145,-0.008271243,0.999038480,-0.001558152,0.000847670,0.001615315,0.000000000,0.000000000,0.000000000,0.000000000,0.014685905,0.006176735,0.054441927,0.038749128,0.007865412,-0.000110223,0.011453863,0.003395586,-0.000816524,-0.444945519,-0.205653769,0.809872995,-0.003895449,0.001767169,0.007074313,0.999964884,0.000000000,0.000000000,0.000000000,0.000000000,0.000000000,0.000000000,0.860582650,0.000000000,4.112023354
1772729811.343680859,0.013986000,0.006070000,0.054332000,-0.008324020,0.017141600,0.010309980,0.999765260,-0.016301000,0.034454000,0.020343000,0.000236247,-0.000101204,-0.000151088,0.024552709,-0.041572143,0.019762145,0.006934974,-0.007055984,0.997909492,-0.000453109,-0.000406483,0.001302206,0.000000000,0.000000000,0.000000000,0.000000000,0.014877192,0.006213462,0.054443093,0.039386118,0.007923996,-0.000009781,0.010495173,0.003351417,-0.001941259,-0.444870206,-0.203305575,0.809041409,-0.003894634,0.001746710,0.007066976,0.999964894,0.000000000,0.000000000,0.000000000,0.000000000,0.000000000,0.000000000,0.860582650,0.000000000,4.112023354
1772729811.353680849,0.013955000,0.006017000,0.054421000,-0.008549670,0.017429460,0.010311120,0.999758370,-0.016747000,0.035034000,0.020333000,-0.000810995,-0.000944542,0.001884520,-0.022101943,0.038115425,0.004882228,0.006310788,-0.005840696,0.996780477,0.000651960,-0.001660667,0.000989088,0.000000000,0.000000000,0.000000000,0.000000000,0.014950099,0.006228556,0.054433283,0.039439084,0.008033068,-0.000053370,0.009536461,0.003307247,-0.003066022,-0.446018046,-0.193762691,0.816488860,-0.003904171,0.001663111,0.007131660,0.999964803,0.000000000,0.000000000,0.000000000,0.000000000,0.000000000,0.000000000,0.860582650,0.000000000,4.112023354
1772729811.363680601,0.013916000,0.006004000,0.054471000,-0.009206190,0.018303550,0.010118950,0.999738880,-0.018050000,0.036792000,0.019910000,-0.000832984,-0.001009189,0.001944951,-0.047418322,0.085954113,-0.006305243,0.006667639,-0.005826553,0.996718873,0.000094869,-0.000262889,-0.000910431,0.000000000,0.000000000,0.000000000,0.000000000,0.014706303,0.006185107,0.054408640,0.038331613,0.008028000,-0.000341856,0.009889824,0.002216665,-0.003503822,-0.445802479,-0.192432307,0.815864734,-0.003902199,0.001651536,0.007126165,0.999964714,0.000000000,0.000000000,0.000000000,0.000000000,0.000000000,0.000000000,0.860582650,0.000000000,4.111608024
1772729811.373680115,0.013915000,0.006007000,0.054480000,-0.009619300,0.019116340,0.010001180,0.999720970,-0.018866000,0.038424000,0.019645000,0.000184518,0.000181352,-0.000497689,-0.011691304,0.038337726,0.001854125,0.006772362,-0.006391989,0.999251671,-0.000755157,0.000511393,0.001576843,0.000000000,0.000000000,0.000000000,0.000000000,0.014651628,0.006169609,0.054425263,0.038119251,0.008004030,-0.000522109,0.010023647,0.001425916,-0.001134703,-0.445789987,-0.191485127,0.814887735,-0.003902017,0.001643305,0.007117607,0.999964720,0.000000000,0.000000000,0.000000000,0.000000000,0.000000000,0.000000000,0.860582650,0.000000000,4.111167016
1772729811.383680344,0.013920000,0.005999000,0.054476000,-0.009819980,0.019704920,0.009921240,0.999708380,-0.019260000,0.039604000,0.019466000,0.001136909,0.001152216,-0.002322865,0.043876962,-0.047883544,0.018527341,0.006443906,-0.006042952,1.001810186,-0.001077911,-0.001764512,0.002023038,0.000000000,0.000000000,0.000000000,0.000000000,0.014653118,0.006165757,0.054446918,0.038125905,0.007962338,-0.000437579,0.009847320,0.002046221,0.001525358,-0.446436851,-0.191795515,0.814240755,-0.003907672,0.001645995,0.007111981,0.999964769,0.000000000,0.000000000,0.000000000,0.000000000,0.000000000,0.000000000,0.860582650,0.000000000,4.110725977
1772729811.393680334,0.013938000,0.006007000,0.054448000,-0.009800510,0.019570610,0.010015870,0.999710270,-0.019219000,0.039336000,0.019659000,0.001719912,0.001598719,-0.003374440,0.102935993,-0.143776824,0.035735764,0.007237886,-0.005249957,1.002241390,-0.002207170,-0.002493317,-0.003513258,0.000000000,0.000000000,0.000000000,0.000000000,0.014655186,0.006161297,0.054459282,0.038102986,0.007981121,-0.000216091,0.010395720,0.002879575,0.002565149,-0.446214305,-0.190584520,0.813955419,-0.003905651,0.001635451,0.007109448,0.999964947,0.000000000,0.000000000,0.000000000,0.000000000,0.000000000,0.000000000,0.860582650,0.000000000,4.110284949
1772729811.403680325,0.013992000,0.006070000,0.054330000,-0.008072300,0.017099220,0.010486600,0.999766220,-0.015792000,0.034367000,0.020706000,0.000917289,0.000700117,-0.001409733,0.092628697,-0.140447577,0.029525914,0.008392445,-0.005153388,1.003298519,-0.003367863,-0.000247942,-0.001343050,0.000000000,0.000000000,0.000000000,0.000000000,0.014661588,0.006160425,0.054458879,0.038151989,0.008047594,0.000003724,0.011406589,0.002681097,0.002893034,-0.446102778,-0.189797293,0.812021454,-0.003904601,0.001628655,0.007092543,0.999964952,0.000000000,0.000000000,0.000000000,0.000000000,0.000000000,0.000000000,0.860582650,0.000000000,4.109843921
1772729811.413679123,0.013998000,0.006083000,0.054304000,-0.006980390,0.015453250,0.010981210,0.999795920,-0.013626000,0.031058000,0.021754000,-0.000310354,-0.000291861,0.000937472,0.027528339,-0.061100196,0.002173342,0.009489725,-0.006667437,1.001497208,0.000917508,-0.003906111,-0.002201288,0.000000000,0.000000000,0.000000000,0.000000000,0.014675486,0.006169812,0.054439333,0.038279008,0.008103518,0.000112000,0.012354624,0.001184807,0.002196082,-0.446261836,-0.189850093,0.811393530,-0.003905983,0.001629127,0.007087067,0.999965013,0.000000000,0.000000000,0.000000000,0.000000000,0.000000000,0.000000000,0.860582650,0.000000000,4.109402945
1772729811.423678637,0.013950000,0.006019000,0.054439000,-0.008017840,0.016810020,0.010502540,0.999771390,-0.015689000,0.033787000,0.020744000,-0.001076186,-0.001147262,0.002483608,-0.046215561,0.044449789,-0.025985661,0.008889454,-0.006527115,1.000920136,-0.000306305,-0.001721133,-0.000939927,0.000000000,0.000000000,0.000000000,0.000000000,0.014698930,0.006193025,0.054395410,0.038464095,0.008122402,0.000040213,0.012333228,0.001245837,0.001355593,-0.445942606,-0.189624877,0.810876998,-0.003903177,0.001627199,0.007082547,0.999965072,0.000000000,0.000000000,0.000000000,0.000000000,0.000000000,0.000000000,0.860582650,0.000000000,4.108961937
1772729811.433678389,0.013923000,0.006004000,0.054479000,-0.008930450,0.018150340,0.010079540,0.999744570,-0.017503000,0.036480000,0.019844000,-0.001378420,-0.001401322,0.002835706,-0.102798150,0.133435046,-0.044863271,0.008148407,-0.006450938,1.001000951,-0.001596405,0.001375540,-0.000144290,0.000000000,0.000000000,0.000000000,0.000000000,0.014716393,0.006212006,0.054358416,0.038570634,0.008116002,-0.000043255,0.011793077,0.001302527,0.001495220,-0.445141575,-0.188925841,0.810084180,-0.003896132,0.001621175,0.007075594,0.999965072,0.000000000,0.000000000,0.000000000,0.000000000,0.000000000,0.000000000,0.860582650,0.000000000,4.108520919
1772729811.443677664,0.013930000,0.006007000,0.054472000,-0.009454150,0.018701460,0.009951340,0.999730890,-0.018545000,0.037590000,0.019559000,-0.000948563,-0.001041804,0.002086560,-0.120416108,0.164510167,-0.049770029,0.008163565,-0.007630649,1.002189934,-0.000485948,0.002876795,-0.001217509,0.000000000,0.000000000,0.000000000,0.000000000,0.014717062,0.006209595,0.054365613,0.038585679,0.008029545,0.000099420,0.011600163,0.000851747,0.001834330,-0.446245555,-0.189444226,0.809084901,-0.003905784,0.001625665,0.007066907,0.999965119,0.000000000,0.000000000,0.000000000,0.000000000,0.000000000,0.000000000,0.860582650,0.000000000,4.108079923
1772729811.453676701,0.013935000,0.006003000,0.054458000,-0.009882220,0.019133600,0.009718640,0.999720860,-0.019403000,0.038458000,0.019069000,0.000063695,-0.000135839,0.000055148,-0.074178488,0.105734142,-0.028430077,0.008923997,-0.008723762,1.001223614,-0.001571114,-0.000179392,0.001456759,0.000000000,0.000000000,0.000000000,0.000000000,0.014706693,0.006193753,0.054400867,0.038561410,0.007878052,0.000381314,0.012487343,-0.000420589,0.001525024,-0.446142248,-0.190294813,0.808222540,-0.003904922,0.001633123,0.007059409,0.999965158,0.000000000,0.000000000,0.000000000,0.000000000,0.000000000,0.000000000,0.860582650,0.000000000,4.107638936
1772729811.463677168,0.013940000,0.006009000,0.054441000,-0.009724310,0.019088050,0.009831130,0.999722180,-0.019083000,0.038366000,0.019301000,0.000385684,0.000303963,-0.000813035,-0.025756073,0.042675228,-0.005277532,0.008623340,-0.007933313,1.000517117,-0.001110504,-0.001566467,0.001969994,0.000000000,0.000000000,0.000000000,0.000000000,0.014691256,0.006177611,0.054437627,0.038614381,0.007624834,0.000613495,0.011940101,0.000027148,0.000420313,-0.446033911,-0.190956820,0.807497840,-0.003904007,0.001638931,0.007053106,0.999965197,0.000000000,0.000000000,0.000000000,0.000000000,0.000000000,0.000000000,0.860582650,0.000000000,4.107197887
1772729811.473676682,0.013936000,0.006023000,0.054448000,-0.009869490,0.019331010,0.009791670,0.999716470,-0.019371000,0.038854000,0.019212000,-0.000274573,-0.000252739,0.000843979,-0.035574573,0.058510918,-0.008020762,0.008125396,-0.006085496,1.000470973,0.001133124,-0.000617132,0.001454460,0.000000000,0.000000000,0.000000000,0.000000000,0.014684562,0.006167291,0.054458725,0.038650483,0.007486251,0.000702894,0.011467427,0.001414708,0.000303858,-0.446347784,-0.190572396,0.807255542,-0.003906719,0.001635566,0.007050984,0.999965297,0.000000000,0.000000000,0.000000000,0.000000000,0.000000000,0.000000000,0.860582650,0.000000000,4.106756879
1772729811.483676672,0.013937000,0.006001000,0.054477000,-0.010096530,0.019711210,0.009668730,0.999707980,-0.019823000,0.039617000,0.018950000,0.000066531,0.000057284,-0.000100991,-0.005715212,0.018597373,0.003204258,0.008710982,-0.004938761,1.001217025,0.004383238,0.002128807,0.002062500,0.000000000,0.000000000,0.000000000,0.000000000,0.014682863,0.006160876,0.054467156,0.038690328,0.007467490,0.000755246,0.011514938,0.002591874,0.001155002,-0.446191380,-0.189541155,0.806097772,-0.003905275,0.001626616,0.007040843,0.999965375,0.000000000,0.000000000,0.000000000,0.000000000,0.000000000,0.000000000,0.860582650,0.000000000,4.106744766
1772729811.493677139,0.013932000,0.005994000,0.054472000,-0.010158410,0.019828180,0.009832210,0.999703440,-0.019938000,0.039855000,0.019272000,0.000494911,0.000513035,-0.001260918,0.034105595,-0.040311419,0.018553431,0.008172505,-0.006714791,1.001000632,0.002858927,0.001171401,0.000773616,0.000000000,0.000000000,0.000000000,0.000000000,0.014683309,0.006156314,0.054469019,0.038735820,0.007516631,0.000805124,0.011606167,0.001498014,0.001627718,-0.445491031,-0.189237581,0.805216726,-0.003899132,0.001624040,0.007033135,0.999965455,0.000000000,0.000000000,0.000000000,0.000000000,0.000000000,0.000000000,0.860582650,0.000000000,4.106744766
1772729811.503676891,0.013925000,0.006008000,0.054470000,-0.010216240,0.019908630,0.009687010,0.999702670,-0.020058000,0.040014000,0.018978000,0.000685393,0.000477584,-0.001575176,0.059068560,-0.080193958,0.024573304,0.007251107,-0.008072028,1.000176675,0.001572019,0.000274237,-0.000914675,0.000000000,0.000000000,0.000000000,0.000000000,0.014685889,0.006155391,0.054464179,0.038780850,0.007449125,0.000832126,0.010975008,0.000061188,0.000708521,-0.444223120,-0.189565714,0.804545855,-0.003888078,0.001627004,0.007027274,0.999965552,0.000000000,0.000000000,0.000000000,0.000000000,0.000000000,0.000000000,0.860582650,0.000000000,4.106744766
1772729811.513676882,0.013936000,0.006012000,0.054460000,-0.010123070,0.019718790,0.009787780,0.999706400,-0.019871000,0.039635000,0.019187000,0.000229837,-0.000050952,-0.000326457,0.046950674,-0.065504665,0.016921233,0.006764427,-0.008478750,0.999742269,0.000466499,0.000589003,-0.001511801,0.000000000,0.000000000,0.000000000,0.000000000,0.014686336,0.006158300,0.054462703,0.038751626,0.007295491,0.000787152,0.010684954,-0.000762063,0.000043748,-0.442776505,-0.189426042,0.803530193,-0.003875432,0.001625908,0.007018385,0.999965645,0.000000000,0.000000000,0.000000000,0.000000000,0.000000000,0.000000000,0.860582650,0.000000000,4.106744766
1772729811.523675919,0.013993000,0.006049000,0.054331000,-0.008254500,0.017285130,0.010456590,0.999761850,-0.016154000,0.034742000,0.020637000,0.000383858,0.000362704,-0.000313889,0.048726102,-0.060083551,0.014360053,0.007916857,-0.007170524,1.001446591,-0.001368304,0.002858103,0.000451329,0.000000000,0.000000000,0.000000000,0.000000000,0.014686177,0.006154732,0.054470993,0.038737745,0.007104942,0.000811261,0.011063927,0.000271950,0.000741032,-0.441940148,-0.188985415,0.802146285,-0.003868087,0.001622161,0.007006282,0.999965668,0.000000000,0.000000000,0.000000000,0.000000000,0.000000000,0.000000000,0.860582650,0.000000000,4.106744766
1772729811.533675909,0.013946000,0.006021000,0.054434000,-0.008791570,0.018073290,0.010227280,0.999745700,-0.017221000,0.036325000,0.020146000,0.000301341,0.000516026,-0.000305905,0.046291699,-0.054233770,0.012412380,0.006775098,-0.005641357,1.001126601,-0.002261107,0.000120691,-0.003386756,0.000000000,0.000000000,0.000000000,0.000000000,0.014684834,0.006144259,0.054481407,0.038722187,0.007035601,0.000908845,0.010451327,0.002101215,0.001324203,-0.441133049,-0.189821026,0.802308570,-0.003861097,0.001629497,0.007007715,0.999965764,0.000000000,0.000000000,0.000000000,0.000000000,0.000000000,0.000000000,0.860582650,0.000000000,4.106744766
1772729811.543675900,0.013938000,0.005996000,0.054483000,-0.009313200,0.018723100,0.010002050,0.999731300,-0.018261000,0.037631000,0.019665000,0.000187083,0.000343590,-0.000296018,0.038576079,-0.051946367,0.013205497,0.007033283,-0.006184502,1.002102111,-0.002842319,0.000154938,0.000627863,0.000000000,0.000000000,0.000000000,0.000000000,0.014680877,0.006141623,0.054485272,0.038658722,0.007085701,0.001020428,0.010280611,0.002403806,0.001870797,-0.440958958,-0.189829711,0.800297968,-0.003859550,0.001629651,0.006990167,0.999965787,0.000000000,0.000000000,0.000000000,0.000000000,0.000000000,0.000000000,0.860582650,0.000000000,4.106744766
1772729811.553676367,0.013931000,0.006003000,0.054488000,-0.009619830,0.019178180,0.009858750,0.999721190,-0.018871000,0.038545000,0.019359000,-0.000515774,-0.000185956,0.000706294,0.004986779,-0.005402548,-0.002052659,0.007438655,-0.006085935,1.000415515,-0.001611923,0.002467160,-0.000821131,0.000000000,0.000000000,0.000000000,0.000000000,0.014678689,0.006144255,0.054485838,0.038617648,0.007123862,0.001099368,0.010818336,0.001527403,0.001362081,-0.441533665,-0.190138848,0.799710905,-0.003864575,0.001632333,0.006985063,0.999965843,0.000000000,0.000000000,0.000000000,0.000000000,0.000000000,0.000000000,0.860582650,0.000000000,4.106744766
1772729811.563676119,0.013988000,0.006075000,0.054346000,-0.007974090,0.017219760,0.010480850,0.999765000,-0.015593000,0.034605000,0.020696000,-0.000067716,0.000262452,-0.000629158,0.016821970,-0.021794491,0.003415749,0.006438943,-0.006713089,1.000911014,-0.001413020,-0.000402444,0.000031285,0.000000000,0.000000000,0.000000000,0.000000000,0.014680036,0.006146661,0.054484119,0.038613068,0.007128366,0.001104098,0.009660239,0.001026240,0.001014819,-0.441761033,-0.190376673,0.799218472,-0.003866567,0.001634411,0.006980777,0.999965925,0.000000000,0.000000000,0.000000000,0.000000000,0.000000000,0.000000000,0.860582650,0.000000000,4.106744766
1772729811.573676109,0.013950000,0.006038000,0.054398000,-0.008261340,0.017225190,0.010394210,0.999763470,-0.016171000,0.034621000,0.020513000,0.000557868,0.000502856,-0.001961890,0.049167339,-0.069051488,0.013751981,0.005511196,-0.007149567,1.001786117,-0.001363156,-0.004188550,0.001228557,0.000000000,0.000000000,0.000000000,0.000000000,0.014700362,0.006155725,0.054466562,0.038554336,0.007158717,0.001113087,0.009387320,0.001247810,0.000858553,-0.441335434,-0.190401133,0.798313637,-0.003862842,0.001634681,0.006972875,0.999966004,0.000000000,0.000000000,0.000000000,0.000000000,0.000000000,0.000000000,0.860582650,0.000000000,4.106744766
1772729811.583675146,0.013952000,0.006007000,0.054434000,-0.008499740,0.017506370,0.010263850,0.999757940,-0.016647000,0.035186000,0.020239000,0.000253011,0.000083858,-0.000796893,0.035773002,-0.047587217,0.009043468,0.007095907,-0.005430221,1.001506477,-0.000597633,-0.005316068,0.000897564,0.000000000,0.000000000,0.000000000,0.000000000,0.014729685,0.006167945,0.054441495,0.038469931,0.007201321,0.001124095,0.010775023,0.002717152,0.001028237,-0.441020026,-0.188688636,0.796828320,-0.003859964,0.001619806,0.006959853,0.999965907,0.000000000,0.000000000,0.000000000,0.000000000,0.000000000,0.000000000,0.860582650,0.000000000,4.106744766
1772729811.593675137,0.013928000,0.006006000,0.054456000,-0.008896590,0.018444730,0.010037740,0.999739910,-0.017431000,0.037067000,0.019757000,-0.000031974,-0.000604002,0.000692017,-0.000706102,0.003345196,-0.002345296,0.008680768,-0.003710712,1.001226809,0.000167963,-0.006443693,0.000566540,0.000000000,0.000000000,0.000000000,0.000000000,0.014725561,0.006166157,0.054449624,0.038428270,0.007282659,0.001267171,0.011949360,0.003886472,0.001223707,-0.440976976,-0.189476922,0.797490686,-0.003859645,0.001626666,0.006965658,0.999965968,0.000000000,0.000000000,0.000000000,0.000000000,0.000000000,0.000000000,0.860582650,0.000000000,4.106744766
1772729811.603674889,0.013989000,0.006066000,0.054332000,-0.007667850,0.016608000,0.010522300,0.999777300,-0.014992000,0.033376000,0.020798000,-0.000204138,-0.000901730,0.001516785,-0.037767336,0.052243111,-0.010188459,0.008913797,-0.004603486,1.002630792,0.002000894,-0.001592419,0.000228168,0.000000000,0.000000000,0.000000000,0.000000000,0.014709403,0.006159329,0.054469696,0.038401990,0.007377931,0.001457760,0.011754537,0.003130848,0.001584421,-0.441016885,-0.189811266,0.797609666,-0.003860016,0.001629577,0.006966708,0.999966029,0.000000000,0.000000000,0.000000000,0.000000000,0.000000000,0.000000000,0.860582650,0.000000000,4.106744766
1772729811.613675117,0.013954000,0.006010000,0.054437000,-0.008497740,0.017598950,0.010200270,0.999756980,-0.016643000,0.035370000,0.020110000,-0.000324048,-0.000743707,0.001454663,-0.060350810,0.079477914,-0.013608207,0.008606827,-0.005434860,1.003017958,0.000864284,0.001488867,0.001053697,0.000000000,0.000000000,0.000000000,0.000000000,0.014693244,0.006152501,0.054489769,0.038375709,0.007473207,0.001648358,0.011559703,0.002375188,0.001945152,-0.441168899,-0.189002436,0.796414076,-0.003861277,0.001622550,0.006956250,0.999966082,0.000000000,0.000000000,0.000000000,0.000000000,0.000000000,0.000000000,0.860582650,0.000000000,4.106744766
1772729811.623675823,0.013955000,0.006014000,0.054436000,-0.008654210,0.017992040,0.010282710,0.999747800,-0.016946000,0.036161000,0.020263000,-0.000337102,-0.000419775,0.000739880,-0.064741474,0.070868574,-0.011927090,0.008160484,-0.005909280,1.002621131,-0.002087194,0.002829570,0.002539878,0.000000000,0.000000000,0.000000000,0.000000000,0.014689939,0.006156449,0.054485058,0.038362987,0.007538474,0.001668255,0.011364861,0.001619493,0.002305901,-0.440777080,-0.188999687,0.796404049,-0.003857857,0.001622550,0.006956157,0.999966043,0.000000000,0.000000000,0.000000000,0.000000000,0.000000000,0.000000000,0.860582650,0.000000000,4.106744766
1772729811.633675814,0.013940000,0.005990000,0.054468000,-0.009393270,0.018777730,0.010068980,0.999728850,-0.018417000,0.037743000,0.019795000,-0.000230400,-0.000205925,0.000249573,-0.050969288,0.049247035,-0.009913996,0.007777554,-0.006068696,1.001941127,-0.003881639,0.003639666,0.003623730,0.000000000,0.000000000,0.000000000,0.000000000,0.014692879,0.006165633,0.054468307,0.038356853,0.007589155,0.001605214,0.011221113,0.001870629,0.001777009,-0.440385288,-0.188996937,0.796394022,-0.003854438,0.001622550,0.006956064,0.999966004,0.000000000,0.000000000,0.000000000,0.000000000,0.000000000,0.000000000,0.860582650,0.000000000,4.106744766
1772729811.643676043,0.013937000,0.005990000,0.054469000,-0.009805640,0.019155870,0.009989130,0.999718520,-0.019238000,0.038506000,0.019613000,-0.000235237,0.000298524,-0.000364860,-0.024642807,0.021592878,-0.005021026,0.007659888,-0.004909870,1.000075807,-0.000834490,0.002229439,0.003024187,0.000000000,0.000000000,0.000000000,0.000000000,0.014695820,0.006174816,0.054451555,0.038350719,0.007639837,0.001542172,0.011104771,0.002662021,0.000770727,-0.440322916,-0.189306269,0.796522326,-0.003853914,0.001625249,0.006957193,0.999965966,0.000000000,0.000000000,0.000000000,0.000000000,0.000000000,0.000000000,0.860582650,0.000000000,4.106744766
1772729811.653676033,0.013929000,0.006005000,0.054457000,-0.009986180,0.019368050,0.009846740,0.999714060,-0.019601000,0.038932000,0.019317000,0.000154798,0.001005187,-0.001427468,0.019282424,-0.035898491,0.009303035,0.007869868,-0.005244156,0.998816978,0.000192237,0.000789577,0.002324752,0.000000000,0.000000000,0.000000000,0.000000000,0.014698760,0.006184000,0.054434804,0.038344585,0.007690518,0.001479131,0.011346849,0.002295259,-0.000642786,-0.441452333,-0.190760835,0.797179398,-0.003863868,0.001637851,0.006962992,0.999965966,0.000000000,0.000000000,0.000000000,0.000000000,0.000000000,0.000000000,0.860582650,0.000000000,4.106744766
1772729811.663676500,0.013983000,0.006062000,0.054339000,-0.008519320,0.017414110,0.010407330,0.999757900,-0.016683000,0.035004000,0.020527000,-0.000122475,0.000439550,-0.000332032,0.016011576,-0.021694179,0.000636611,0.008072152,-0.006822816,0.998756317,-0.000146153,-0.000284166,0.000798133,0.000000000,0.000000000,0.000000000,0.000000000,0.014692887,0.006177680,0.054442082,0.038301935,0.007621553,0.001413991,0.011263972,0.001411962,-0.001082588,-0.440829715,-0.190680463,0.797318846,-0.003858431,0.001637183,0.006964197,0.999965966,0.000000000,0.000000000,0.000000000,0.000000000,0.000000000,0.000000000,0.860582650,0.000000000,4.106744766
1772729811.673676252,0.013939000,0.006015000,0.054440000,-0.009046370,0.018194180,0.010148430,0.999742040,-0.017732000,0.036571000,0.019977000,-0.000332498,-0.000080400,0.000650370,0.000859726,0.017630193,-0.006294231,0.007045020,-0.007339499,1.000856530,0.001685593,0.000166654,-0.002051612,0.000000000,0.000000000,0.000000000,0.000000000,0.014683160,0.006164581,0.054459871,0.038243317,0.007500261,0.001347940,0.010374778,0.000507099,0.000469796,-0.440037343,-0.190286311,0.797265366,-0.003851492,0.001633793,0.006963705,0.999966084,0.000000000,0.000000000,0.000000000,0.000000000,0.000000000,0.000000000,0.860582650,0.000000000,4.106744766
1772729811.683675528,0.013932000,0.006012000,0.054454000,-0.009357620,0.018632520,0.010093940,0.999731650,-0.018348000,0.037453000,0.019849000,-0.000848699,-0.001150720,0.002454256,-0.053512079,0.093761417,-0.025531799,0.006516159,-0.007554014,1.002093121,0.001958984,0.000602685,-0.001525360,0.000000000,0.000000000,0.000000000,0.000000000,0.014680746,0.006159579,0.054465827,0.038161097,0.007464335,0.001369266,0.009974523,0.000268914,0.001740100,-0.439953317,-0.190207180,0.795988261,-0.003850736,0.001633151,0.006952557,0.999966150,0.000000000,0.000000000,0.000000000,0.000000000,0.000000000,0.000000000,0.860582650,0.000000000,4.106744766
1772729811.693675518,0.013922000,0.006006000,0.054470000,-0.009743740,0.019270850,0.009923980,0.999717560,-0.019115000,0.038734000,0.019483000,-0.000476438,-0.000627934,0.001385141,-0.054251671,0.086619993,-0.022830227,0.006616463,-0.005773101,1.002263167,0.000179929,0.002798541,-0.000144039,0.000000000,0.000000000,0.000000000,0.000000000,0.014680710,0.006157209,0.054467935,0.038071195,0.007456167,0.001419011,0.010367595,0.002346011,0.002707405,-0.439967142,-0.190334536,0.794842487,-0.003850848,0.001634300,0.006942563,0.999966212,0.000000000,0.000000000,0.000000000,0.000000000,0.000000000,0.000000000,0.860582650,0.000000000,4.106744766
1772729811.703675508,0.013934000,0.005999000,0.054466000,-0.009985310,0.019740350,0.009665990,0.999708550,-0.019600000,0.039673000,0.018948000,-0.000246057,-0.000306974,0.000505498,-0.040442257,0.060599527,-0.014087284,0.006936217,-0.004799883,1.001759241,-0.000682841,0.003931214,-0.000178340,0.000000000,0.000000000,0.000000000,0.000000000,0.014680673,0.006154840,0.054470043,0.037981293,0.007448000,0.001468756,0.009555341,0.002693863,0.001835568,-0.440020072,-0.190791513,0.793764888,-0.003851322,0.001638321,0.006933176,0.999966262,0.000000000,0.000000000,0.000000000,0.000000000,0.000000000,0.000000000,0.860582650,0.000000000,4.106744766
1772729811.713675261,0.013924000,0.005995000,0.054485000,-0.010139010,0.019997140,0.009765570,0.999700930,-0.019899000,0.040191000,0.019136000,0.001001710,0.001041337,-0.002522594,0.045008063,-0.066686713,0.024193309,0.007526178,-0.004821234,1.000425441,-0.000417335,0.003754722,-0.001955751,0.000000000,0.000000000,0.000000000,0.000000000,0.014680637,0.006152471,0.054472151,0.037891394,0.007439833,0.001518500,0.009302778,0.002471344,0.000571168,-0.440034033,-0.192766865,0.792737266,-0.003851548,0.001655592,0.006924275,0.999966208,0.000000000,0.000000000,0.000000000,0.000000000,0.000000000,0.000000000,0.860582650,0.000000000,4.106744766
