t,px,py,pz,qx,qy,qz,qw,roll,pitch,yaw,vx,vy,vz,wx_vicon,wy_vicon,wz_vicon,imu_acc_x,imu_acc_y,imu_acc_z,imu_gyro_x,imu_gyro_y,imu_gyro_z,motor_motor_m1,motor_motor_m2,motor_motor_m3,motor_motor_m4,est_stateEstimate_x,est_stateEstimate_y,est_stateEstimate_z,est_stateEstimate_vx,est_stateEstimate_vy,est_stateEstimate_vz,est_stateEstimate_ax,est_stateEstimate_ay,est_stateEstimate_az,att_stateEstimate_roll,att_stateEstimate_pitch,att_stateEstimate_yaw,att_stateEstimate_qx,att_stateEstimate_qy,att_stateEstimate_qz,att_stateEstimate_qw,sp_ctrltarget_x,sp_ctrltarget_y,sp_ctrltarget_z,sp_ctrltarget_yaw,pid_controller_roll,pid_controller_pitch,pid_controller_yaw,pid_controller_cmd_thrust,pwr_pm_vbat
1772424822.658546209,0.017847000,0.007010000,0.053743000,0.001845220,-0.005082000,0.002095470,-0.999983190,-0.003712000,0.010156000,-0.004210000,-0.001882034,0.000731081,-0.000461481,0.005622496,-0.017552588,-0.007880029,0.008860255,-0.001980471,0.998981374,-0.002482606,-0.001012480,-0.003035922,0.000000000,0.000000000,0.000000000,0.000000000,0.018241330,0.007034212,0.053757991,0.019825748,0.001463740,0.000048707,0.006010414,0.000147242,-0.001383028,-0.094169784,0.208350245,-0.141077849,-0.000824022,-0.001817186,-0.001232627,0.999996245,0.000000000,0.000000000,0.000000000,0.000000000,0.000000000,0.000000000,-0.141164894,0.000000000,4.099688885
1772424822.668545485,0.017827000,0.007015000,0.053744000,0.001851390,-0.005063440,0.002053190,-0.999983360,-0.003724000,0.010119000,-0.004125000,-0.000494853,0.000210334,0.000366725,0.002115361,-0.010061731,-0.004161821,0.010844667,-0.003028560,0.998918275,-0.001124018,0.002813072,-0.000130668,0.000000000,0.000000000,0.000000000,0.000000000,0.018242350,0.007033448,0.053759422,0.019786229,0.001478324,0.000025126,0.007088577,-0.000645761,-0.000613660,-0.094571899,0.207788267,-0.140780766,-0.000827520,-0.001812280,-0.001230037,0.999996299,0.000000000,0.000000000,0.000000000,0.000000000,0.000000000,0.000000000,-0.140955627,0.000000000,4.099338989
1772424822.678545475,0.017827000,0.007019000,0.053749000,0.001824300,-0.005069930,0.002084640,-0.999983310,-0.003670000,0.010132000,-0.004188000,0.000278924,-0.000082906,0.000640735,0.000202327,-0.003167024,-0.001859269,0.010009646,-0.001369711,1.000252919,-0.000150354,-0.003894896,0.001543209,0.000000000,0.000000000,0.000000000,0.000000000,0.018242051,0.007034903,0.053759732,0.019856794,0.001378229,-0.000037851,0.006761644,-0.000274268,-0.000323498,-0.094668526,0.207348648,-0.139908756,-0.000828345,-0.001808449,-0.001222425,0.999996253,0.000000000,0.000000000,0.000000000,0.000000000,0.000000000,0.000000000,-0.140417079,0.000000000,4.098989069
1772424822.688545942,0.017841000,0.007007000,0.053751000,0.001824920,-0.004978010,0.002193760,-0.999983540,-0.003672000,0.009948000,-0.004406000,0.000579857,-0.000198990,0.000523485,-0.000649134,0.002599059,-0.000650271,0.009752545,-0.001810936,0.999070412,-0.002004905,0.004365529,-0.001026014,0.000000000,0.000000000,0.000000000,0.000000000,0.018238868,0.007036327,0.053756379,0.019893619,0.001323555,-0.000066586,0.005705893,-0.000077218,-0.000500233,-0.094727583,0.209919709,-0.139433187,-0.000828880,-0.001830888,-0.001218294,0.999996245,0.000000000,0.000000000,0.000000000,0.000000000,0.000000000,0.000000000,-0.139427672,0.000000000,4.098639131
1772424822.698545933,0.017851000,0.007014000,0.053762000,0.001817660,-0.004895930,0.002134870,-0.999984080,-0.003656000,0.009784000,-0.004288000,0.000548505,-0.000188267,0.000177914,-0.000968897,0.006704315,-0.000211988,0.009506891,-0.001221158,0.999186224,0.003066301,0.001017055,-0.002052667,0.000000000,0.000000000,0.000000000,0.000000000,0.018140108,0.007031156,0.053748281,0.018880593,0.001015689,-0.000428342,0.005150531,0.000200749,-0.000575539,-0.095081304,0.216489180,-0.141274989,-0.000832068,-0.001888200,-0.001234420,0.999996030,0.000000000,0.000000000,0.000000000,0.000000000,0.000000000,0.000000000,-0.141492113,0.000000000,4.098289210
1772424822.708546638,0.017845000,0.007014000,0.053760000,0.001849390,-0.005079280,0.002124700,-0.999983130,-0.003721000,0.010151000,-0.004268000,0.000325428,-0.000101088,-0.000233042,-0.001288080,0.008616317,-0.000221792,0.010442047,-0.001243477,1.000141423,0.000778918,0.000816516,0.000346994,0.000000000,0.000000000,0.000000000,0.000000000,0.018097639,0.007027145,0.053752463,0.018663267,0.001009616,-0.000407572,0.006337927,0.000633176,0.000425809,-0.095428696,0.220570860,-0.142553034,-0.000835164,-0.001923807,-0.001245609,0.999996006,0.000000000,0.000000000,0.000000000,0.000000000,0.000000000,0.000000000,-0.142534122,0.000000000,4.097939265
1772424822.718547106,0.017844000,0.007007000,0.053750000,0.001874230,-0.005248410,0.002059750,-0.999982350,-0.003770000,0.010489000,-0.004139000,0.000089413,-0.000030245,-0.000295533,-0.004012649,0.006503414,0.001158089,0.010313953,-0.001496543,0.999146486,-0.001293567,0.002109284,-0.000799225,0.000000000,0.000000000,0.000000000,0.000000000,0.018165444,0.007028056,0.053746741,0.019147224,0.001071381,-0.000388093,0.006306594,0.000004722,-0.000967066,-0.095762350,0.219276713,-0.142612806,-0.000838063,-0.001912509,-0.001246126,0.999996030,0.000000000,0.000000000,0.000000000,0.000000000,0.000000000,0.000000000,-0.142909269,0.000000000,4.097589327
1772424822.728546858,0.017842000,0.007011000,0.053750000,0.001847510,-0.005121820,0.002125540,-0.999982920,-0.003717000,0.010236000,-0.004270000,0.000179235,-0.000001224,-0.000223291,-0.007008180,0.000008194,0.000284263,0.009515599,-0.000628236,0.999453186,-0.000141189,-0.000986846,-0.000393063,0.000000000,0.000000000,0.000000000,0.000000000,0.018195084,0.007030464,0.053742751,0.019420273,0.001090915,-0.000426836,0.005274112,0.000794145,-0.001059745,-0.096333578,0.216753162,-0.142741174,-0.000843022,-0.001890480,-0.001247238,0.999996066,0.000000000,0.000000000,0.000000000,0.000000000,0.000000000,0.000000000,-0.142670468,0.000000000,4.097239415
1772424822.738546610,0.017846000,0.007011000,0.053742000,0.001879790,-0.005110080,0.002155240,-0.999982850,-0.003782000,0.010212000,-0.004330000,0.000095882,0.000088889,0.000029254,-0.008115803,-0.006781355,-0.001728514,0.011282408,0.000516207,1.000117254,-0.000378152,0.001041156,-0.002368261,0.000000000,0.000000000,0.000000000,0.000000000,0.018213658,0.007032562,0.053738596,0.019530960,0.001166311,-0.000522326,0.007267439,0.002272405,0.000521637,-0.095782287,0.216068112,-0.142288497,-0.000838196,-0.001884511,-0.001243273,0.999996066,0.000000000,0.000000000,0.000000000,0.000000000,0.000000000,0.000000000,-0.142562299,0.000000000,4.096889502
1772424822.748546600,0.017858000,0.007013000,0.053747000,0.001951520,-0.005055660,0.002135760,-0.999983040,-0.003925000,0.010103000,-0.004291000,0.000026709,0.000191686,0.000294814,-0.007521023,-0.011476952,0.000547125,0.009939237,-0.000735965,0.998468314,0.002794020,0.000818978,-0.002049691,0.000000000,0.000000000,0.000000000,0.000000000,0.018227454,0.007037955,0.053742580,0.019750320,0.001439681,-0.000538174,0.006848084,0.001655213,-0.000706889,-0.095514985,0.214263285,-0.142828155,-0.000835853,-0.001868760,-0.001247965,0.999996112,0.000000000,0.000000000,0.000000000,0.000000000,0.000000000,0.000000000,-0.142462365,0.000000000,4.096539581
1772424822.758546352,0.017850000,0.007011000,0.053760000,0.002026400,-0.004995010,0.002093250,-0.999983280,-0.004074000,0.009982000,-0.004207000,-0.000228400,0.000241045,0.000207576,-0.005241203,-0.008468834,0.005088457,0.009952583,-0.001794352,0.998842128,-0.003173034,0.000412594,-0.000210544,0.000000000,0.000000000,0.000000000,0.000000000,0.018231045,0.007040407,0.053745177,0.019851955,0.001553214,-0.000554318,0.006561097,-0.000281230,-0.001075306,-0.094129710,0.213122008,-0.142725870,-0.000823750,-0.001858816,-0.001247042,0.999996174,0.000000000,0.000000000,0.000000000,0.000000000,0.000000000,0.000000000,-0.142712563,0.000000000,4.096189669
1772424822.768547058,0.017853000,0.007015000,0.053755000,0.002033660,-0.004969870,0.002093880,-0.999983390,-0.004088000,0.009931000,-0.004208000,-0.000266822,0.000087976,-0.000082479,-0.000942107,0.003580488,0.009396676,0.009095166,-0.001326471,0.998985919,-0.001841276,-0.002716116,-0.001777556,0.000000000,0.000000000,0.000000000,0.000000000,0.018225354,0.007043421,0.053740556,0.019836455,0.001505431,-0.000704882,0.005230928,-0.000223788,-0.000953893,-0.094511957,0.212303723,-0.142763297,-0.000827078,-0.001851671,-0.001247369,0.999996185,0.000000000,0.000000000,0.000000000,0.000000000,0.000000000,0.000000000,-0.142595563,0.000000000,4.096187592
1772424822.778547525,0.017830000,0.007024000,0.053758000,0.001974590,-0.005059540,0.002053180,-0.999983140,-0.003970000,0.010111000,-0.004126000,-0.000134596,0.000004915,-0.000275972,0.004624704,0.009738362,0.009318958,0.008781440,-0.001824693,0.999874711,-0.003786533,-0.006342409,-0.001107592,0.000000000,0.000000000,0.000000000,0.000000000,0.018224310,0.007043974,0.053739708,0.019833611,0.001496663,-0.000732511,0.005386730,-0.000463215,-0.000220151,-0.094685886,0.213274402,-0.142398316,-0.000828600,-0.001860142,-0.001244194,0.999996177,0.000000000,0.000000000,0.000000000,0.000000000,0.000000000,0.000000000,-0.142551571,0.000000000,4.096187592
1772424822.788547516,0.017844000,0.007012000,0.053747000,0.001964910,-0.005034790,0.001981650,-0.999983430,-0.003950000,0.010062000,-0.003983000,0.000107770,-0.000252953,-0.000406527,0.006575427,0.016634235,0.005990627,0.009714362,-0.000907948,1.001061727,-0.003811587,-0.001250959,-0.002698009,0.000000000,0.000000000,0.000000000,0.000000000,0.018230323,0.007039117,0.053730223,0.019777721,0.001396067,-0.000688600,0.006295736,0.000660903,0.000954753,-0.095573600,0.214797543,-0.142807407,-0.000836370,-0.001873421,-0.001247789,0.999996126,0.000000000,0.000000000,0.000000000,0.000000000,0.000000000,0.000000000,-0.143486437,0.000000000,4.096187592
1772424822.798548460,0.017843000,0.007016000,0.053739000,0.001918450,-0.005132330,0.001920910,-0.999983140,-0.003857000,0.010257000,-0.003862000,0.000341803,-0.000337607,-0.000142308,0.006565098,0.015218827,0.001692452,0.009344554,-0.000715985,1.000174602,-0.002729028,-0.000681470,0.000226169,0.000000000,0.000000000,0.000000000,0.000000000,0.018230333,0.007038686,0.053730987,0.019775564,0.001398698,-0.000678404,0.006147705,0.000419095,0.000281775,-0.096757487,0.214479926,-0.143067470,-0.000846702,-0.001870635,-0.001250075,0.999996126,0.000000000,0.000000000,0.000000000,0.000000000,0.000000000,0.000000000,-0.143526495,0.000000000,4.096187592
1772424822.808548689,0.017855000,0.007007000,0.053743000,0.001891880,-0.005366590,0.001961330,-0.999981890,-0.003805000,0.010726000,-0.003943000,0.000111169,-0.000211034,0.000303574,0.004926654,0.003472943,-0.001815552,0.009388460,-0.001514869,0.999039093,-0.000403173,-0.003496255,0.001615065,0.000000000,0.000000000,0.000000000,0.000000000,0.018230455,0.007033780,0.053739700,0.019750964,0.001428698,-0.000562132,0.005976766,0.000103030,-0.000073262,-0.097163119,0.214119860,-0.142579176,-0.000850230,-0.001867492,-0.001245818,0.999996126,0.000000000,0.000000000,0.000000000,0.000000000,0.000000000,0.000000000,-0.142771187,0.000000000,4.096187592
1772424822.818548203,0.017854000,0.007008000,0.053750000,0.001881420,-0.005247410,0.001991350,-0.999982480,-0.003784000,0.010487000,-0.004003000,-0.000052389,0.000038559,0.000391104,0.003336466,-0.003815732,-0.005577347,0.009543164,-0.001663765,0.999265838,-0.000445489,-0.002610965,0.001655672,0.000000000,0.000000000,0.000000000,0.000000000,0.018230455,0.007033780,0.053739700,0.019750964,0.001428698,-0.000562132,0.005847665,-0.000015372,-0.000076446,-0.097060539,0.214257801,-0.142445601,-0.000849334,-0.001868698,-0.001244652,0.999996126,0.000000000,0.000000000,0.000000000,0.000000000,0.000000000,0.000000000,-0.141978594,0.000000000,4.096187592
1772424822.828548908,0.017847000,0.007002000,0.053755000,0.001897070,-0.005265780,0.002051810,-0.999982230,-0.003816000,0.010524000,-0.004124000,-0.000450719,0.000342211,0.000259169,-0.000125433,-0.005073678,-0.004997463,0.009697887,-0.001812679,0.999492610,-0.000487810,-0.001725569,0.001696284,0.000000000,0.000000000,0.000000000,0.000000000,0.018230455,0.007033780,0.053739700,0.019750964,0.001428698,-0.000562132,0.005718550,-0.000133789,-0.000079630,-0.096957947,0.214395758,-0.142312010,-0.000848438,-0.001869904,-0.001243485,0.999996126,0.000000000,0.000000000,0.000000000,0.000000000,0.000000000,0.000000000,-0.141921371,0.000000000,4.096187592
1772424822.838548899,0.017840000,0.007017000,0.053763000,0.001845800,-0.005073490,0.002047860,-0.999983330,-0.003713000,0.010139000,-0.004115000,-0.000428711,0.000273912,-0.000011908,-0.002207638,-0.006271553,-0.002786175,0.009852599,-0.001961582,0.999719366,-0.000530128,-0.000840237,0.001736893,0.000000000,0.000000000,0.000000000,0.000000000,0.018230455,0.007033780,0.053739700,0.019750964,0.001428698,-0.000562132,0.005589443,-0.000252197,-0.000082814,-0.096855363,0.214533706,-0.142178429,-0.000847542,-0.001871110,-0.001242319,0.999996126,0.000000000,0.000000000,0.000000000,0.000000000,0.000000000,0.000000000,-0.141921371,0.000000000,4.096187592
1772424822.848548889,0.017830000,0.007022000,0.053757000,0.001870570,-0.004994740,0.002032770,-0.999983710,-0.003762000,0.009982000,-0.004084000,-0.000312180,0.000117677,-0.000225719,-0.002334970,-0.005867436,0.001020306,0.010007311,-0.002110485,0.999946122,-0.000572446,0.000045095,0.001777502,0.000000000,0.000000000,0.000000000,0.000000000,0.018230455,0.007033780,0.053739700,0.019750964,0.001428698,-0.000562132,0.005848473,-0.000406462,-0.000163072,-0.096752778,0.214671654,-0.142044847,-0.000846646,-0.001872316,-0.001241153,0.999996126,0.000000000,0.000000000,0.000000000,0.000000000,0.000000000,0.000000000,-0.141921371,0.000000000,4.096187592
1772424822.858548641,0.017842000,0.007017000,0.053743000,0.001910350,-0.005248110,0.002052460,-0.999982300,-0.003842000,0.010488000,-0.004125000,0.000032518,-0.000097902,-0.000251671,-0.002194140,-0.005745110,0.000196611,0.010162020,-0.002259385,1.000172872,-0.000614763,0.000930406,0.001818110,0.000000000,0.000000000,0.000000000,0.000000000,0.018230455,0.007033780,0.053739700,0.019750964,0.001428698,-0.000562132,0.007220453,-0.000663538,-0.000464332,-0.096631404,0.214752871,-0.141862672,-0.000845585,-0.001873027,-0.001239562,0.999996126,0.000000000,0.000000000,0.000000000,0.000000000,0.000000000,0.000000000,-0.141921371,0.000000000,4.096187592
1772424822.868549109,0.017836000,0.007016000,0.053743000,0.001969820,-0.005214380,0.002006540,-0.999982450,-0.003961000,0.010421000,-0.004034000,0.000317250,-0.000281527,-0.000090754,-0.000319109,-0.000734565,-0.001483359,0.011781242,-0.001979051,0.998464396,-0.000375830,0.005391960,0.002075665,0.000000000,0.000000000,0.000000000,0.000000000,0.018227806,0.007036887,0.053743557,0.019769508,0.001389048,-0.000528999,0.008387821,-0.000511040,-0.000914736,-0.096280312,0.214140695,-0.141086458,-0.000842502,-0.001867694,-0.001232778,0.999996167,0.000000000,0.000000000,0.000000000,0.000000000,0.000000000,0.000000000,-0.141526550,0.000000000,4.096187592
1772424822.878549099,0.017842000,0.007005000,0.053753000,0.001880250,-0.005081890,0.002058500,-0.999983200,-0.003782000,0.010156000,-0.004136000,0.000506216,-0.000400564,0.000112626,0.000136812,0.004331162,-0.003321696,0.010967919,0.000012721,0.998404290,-0.000150146,-0.000308354,-0.000372270,0.000000000,0.000000000,0.000000000,0.000000000,0.018221676,0.007042031,0.053746499,0.019914123,0.001335602,-0.000583474,0.008004021,0.001022041,-0.001219715,-0.096462907,0.211712754,-0.140355871,-0.000844058,-0.001846510,-0.001226387,0.999996185,0.000000000,0.000000000,0.000000000,0.000000000,0.000000000,0.000000000,-0.140688799,0.000000000,4.096187592
1772424822.888548851,0.017846000,0.007005000,0.053753000,0.001896320,-0.004987330,0.002043240,-0.999983680,-0.003813000,0.009967000,-0.004106000,0.000399204,-0.000128264,0.000206916,-0.000414642,0.005925244,-0.003921743,0.008421921,-0.001546399,1.000340834,0.000257879,0.001224493,0.003587799,0.000000000,0.000000000,0.000000000,0.000000000,0.018223072,0.007044019,0.053736078,0.020032698,0.001432788,-0.000692680,0.005532320,0.000383081,0.000032726,-0.096325822,0.211567086,-0.141572935,-0.000842879,-0.001845231,-0.001237005,0.999996185,0.000000000,0.000000000,0.000000000,0.000000000,0.000000000,0.000000000,-0.140457492,0.000000000,4.096187592
1772424822.898547888,0.017850000,0.007012000,0.053753000,0.001905470,-0.005056090,0.002138380,-0.999983120,-0.003833000,0.010104000,-0.004296000,-0.000069386,0.000138365,0.000189588,0.000613482,0.008619736,-0.003339388,0.008902325,-0.002483465,0.999173202,-0.003134115,0.002774985,0.000336655,0.000000000,0.000000000,0.000000000,0.000000000,0.018224102,0.007044106,0.053733326,0.020042995,0.001462216,-0.000708560,0.005393006,0.000052606,-0.000352082,-0.095813728,0.210564246,-0.140474788,-0.000838382,-0.001836494,-0.001227406,0.999996185,0.000000000,0.000000000,0.000000000,0.000000000,0.000000000,0.000000000,-0.140512764,0.000000000,4.096187592
1772424822.908548355,0.017853000,0.007007000,0.053755000,0.001880630,-0.005408610,0.002100980,-0.999981400,-0.003784000,0.010809000,-0.004222000,-0.000260101,0.000353322,-0.000144095,-0.000414561,0.006028827,-0.002325393,0.010154562,-0.000044142,1.000601492,0.002991533,-0.000763018,0.001576783,0.000000000,0.000000000,0.000000000,0.000000000,0.018227306,0.007038527,0.053736449,0.020064186,0.001487531,-0.000655933,0.006995074,0.001189672,0.000196520,-0.096546422,0.210281985,-0.140182565,-0.000844768,-0.001834025,-0.001224866,0.999996230,0.000000000,0.000000000,0.000000000,0.000000000,0.000000000,0.000000000,-0.140088969,0.000000000,4.096187592
1772424822.918547869,0.017850000,0.007012000,0.053751000,0.001956430,-0.005243320,0.002096570,-0.999982140,-0.003935000,0.010478000,-0.004214000,-0.000445028,0.000455750,-0.000281682,-0.002368799,-0.004492768,0.000309451,0.011067594,-0.001200615,1.000346720,0.001890419,-0.002140200,-0.000906401,0.000000000,0.000000000,0.000000000,0.000000000,0.018229259,0.007035125,0.053738352,0.020077106,0.001502964,-0.000623849,0.007002735,0.000932084,0.000635171,-0.094121261,0.210391080,-0.139670899,-0.000823598,-0.001835006,-0.001220363,0.999996245,0.000000000,0.000000000,0.000000000,0.000000000,0.000000000,0.000000000,-0.139663145,0.000000000,4.096187592
1772424822.928548336,0.017834000,0.007020000,0.053747000,0.001953680,-0.005249120,0.002115020,-0.999982080,-0.003930000,0.010490000,-0.004251000,-0.000369542,0.000271737,-0.000222494,-0.000820172,-0.012116101,-0.001237187,0.009833519,-0.001341906,1.001745057,-0.000914402,0.001502462,-0.004195563,0.000000000,0.000000000,0.000000000,0.000000000,0.018232572,0.007037342,0.053739438,0.020166658,0.001520574,-0.000569211,0.006183437,0.000182685,0.001675909,-0.092946621,0.210941191,-0.139805088,-0.000813355,-0.001839818,-0.001221519,0.999996245,0.000000000,0.000000000,0.000000000,0.000000000,0.000000000,0.000000000,-0.139723195,0.000000000,4.096187592
1772424822.938548803,0.017826000,0.007020000,0.053752000,0.001848090,-0.005106680,0.002106580,-0.999983030,-0.003718000,0.010206000,-0.004232000,-0.000007401,-0.000089666,-0.000055381,0.000844527,-0.011053881,-0.000094560,0.009109607,0.001115326,0.999358207,-0.002282882,0.001695556,0.001042195,0.000000000,0.000000000,0.000000000,0.000000000,0.018237491,0.007038083,0.053742445,0.020225575,0.001525359,-0.000399565,0.005867920,0.001995698,0.000190667,-0.092609040,0.210342020,-0.140581527,-0.000810415,-0.001834588,-0.001228285,0.999996245,0.000000000,0.000000000,0.000000000,0.000000000,0.000000000,0.000000000,-0.140255558,0.000000000,4.096187592
1772424822.948549032,0.017843000,0.007022000,0.053739000,0.001945950,-0.004865170,0.002110790,-0.999984040,-0.003913000,0.009722000,-0.004241000,0.000377137,-0.000431100,0.000212219,0.002050504,0.001698175,-0.001136162,0.009693734,-0.001046609,1.000545485,-0.001174010,-0.000429237,0.001799737,0.000000000,0.000000000,0.000000000,0.000000000,0.018239274,0.007040266,0.053744141,0.020188032,0.001694473,-0.000350753,0.006241997,0.000793777,0.000168666,-0.092709375,0.209743328,-0.140098575,-0.000811277,-0.001829366,-0.001224068,0.999996245,0.000000000,0.000000000,0.000000000,0.000000000,0.000000000,0.000000000,-0.140361571,0.000000000,4.096187592
1772424822.958549500,0.017845000,0.007014000,0.053750000,0.001940820,-0.005056550,0.002118690,-0.999983090,-0.003903000,0.010105000,-0.004257000,0.000732732,-0.000626244,0.000356819,0.000956976,0.011522075,-0.001194680,0.010776074,-0.002359972,1.001743266,-0.000061600,0.001204691,-0.002462067,0.000000000,0.000000000,0.000000000,0.000000000,0.018231967,0.007046995,0.053742504,0.020164901,0.001772454,-0.000315192,0.006843064,-0.000072992,0.001985658,-0.092329549,0.210213684,-0.139606602,-0.000807959,-0.001833478,-0.001219772,0.999996245,0.000000000,0.000000000,0.000000000,0.000000000,0.000000000,0.000000000,-0.139713489,0.000000000,4.096187592
1772424822.968549490,0.017851000,0.007003000,0.053754000,0.001889150,-0.005285370,0.002174220,-0.999981880,-0.003801000,0.010563000,-0.004369000,0.000609208,-0.000503769,0.000235393,-0.000998148,0.010507097,-0.001223241,0.008636546,-0.001339448,1.003034387,0.001808800,0.001565772,0.000806448,0.000000000,0.000000000,0.000000000,0.000000000,0.018228068,0.007052620,0.053742699,0.020175645,0.001687342,0.000169513,0.004884418,0.000251366,0.003079871,-0.091795755,0.208861904,-0.139776681,-0.000803290,-0.001821686,-0.001221238,0.999996250,0.000000000,0.000000000,0.000000000,0.000000000,0.000000000,0.000000000,-0.139688547,0.000000000,4.096187592
1772424822.978549719,0.017861000,0.006993000,0.053761000,0.001865410,-0.005368400,0.002074520,-0.999981700,-0.003753000,0.010729000,-0.004169000,0.000004254,-0.000094153,-0.000075291,0.001450884,0.013770625,-0.000297866,0.007779384,-0.000976302,1.001200623,-0.001993565,-0.000444272,-0.000760938,0.000000000,0.000000000,0.000000000,0.000000000,0.018227903,0.007052904,0.053742729,0.020176439,0.001681724,0.000198972,0.004886930,0.000636024,0.000897424,-0.091693921,0.206984489,-0.139908188,-0.000802383,-0.001805302,-0.001222371,0.999996305,0.000000000,0.000000000,0.000000000,0.000000000,0.000000000,0.000000000,-0.139725327,0.000000000,4.096187592
1772424822.988549471,0.017855000,0.007000000,0.053759000,0.001908790,-0.005331440,0.002136720,-0.999981680,-0.003841000,0.010655000,-0.004294000,-0.000453419,0.000269522,-0.000202448,0.005939926,0.002506285,0.002406731,0.009330485,-0.000980118,0.999212500,-0.002232583,-0.000397457,0.000571637,0.000000000,0.000000000,0.000000000,0.000000000,0.018233311,0.007043242,0.053754607,0.019996220,0.001687493,0.000327639,0.006127700,0.000744730,-0.000660690,-0.092898908,0.206711380,-0.140057450,-0.000812898,-0.001802905,-0.001223691,0.999996305,0.000000000,0.000000000,0.000000000,0.000000000,0.000000000,0.000000000,-0.139698071,0.000000000,4.096187592
1772424822.998549461,0.017854000,0.007011000,0.053748000,0.001930720,-0.005068450,0.002146890,-0.999982990,-0.003883000,0.010129000,-0.004314000,-0.000570105,0.000519931,-0.000361655,0.004618585,-0.003077653,0.005296753,0.010287716,-0.001367830,0.999054574,0.000887557,-0.000348241,-0.002841799,0.000000000,0.000000000,0.000000000,0.000000000,0.018233705,0.007042538,0.053755473,0.019983081,0.001687914,0.000337020,0.006518112,-0.000366665,-0.001093577,-0.093654520,0.207236634,-0.140317846,-0.000819502,-0.001807479,-0.001225978,0.999996303,0.000000000,0.000000000,0.000000000,0.000000000,0.000000000,0.000000000,-0.139691249,0.000000000,4.096320760
1772424823.008549452,0.017835000,0.007014000,0.053742000,0.001832510,-0.005248430,0.002092770,-0.999982360,-0.003687000,0.010489000,-0.004205000,-0.000363889,0.000418512,-0.000033353,0.002853453,-0.007846754,0.006235377,0.010635179,-0.003253513,0.998752819,-0.001332453,-0.000660472,0.004413060,0.000000000,0.000000000,0.000000000,0.000000000,0.018241560,0.007032246,0.053762044,0.020140157,0.001467706,0.000152168,0.006711814,-0.000893606,-0.000990927,-0.093567113,0.207976962,-0.141100294,-0.000818759,-0.001813935,-0.001232810,0.999996248,0.000000000,0.000000000,0.000000000,0.000000000,0.000000000,0.000000000,-0.139754760,0.000000000,4.096840004
1772424823.018548727,0.017832000,0.007019000,0.053743000,0.001763270,-0.005362840,0.002039940,-0.999981980,-0.003549000,0.010718000,-0.004099000,0.000053069,0.000077098,0.000292114,0.002123687,-0.004944498,0.005772734,0.010715366,-0.001774336,1.000239906,-0.001784341,-0.002273779,0.000117790,0.000000000,0.000000000,0.000000000,0.000000000,0.018242069,0.007031579,0.053762469,0.020150334,0.001453440,0.000140193,0.006863524,-0.000609829,0.000041752,-0.094101761,0.208104882,-0.139770329,-0.000823405,-0.001815055,-0.001221214,0.999996294,0.000000000,0.000000000,0.000000000,0.000000000,0.000000000,0.000000000,-0.139770508,0.000000000,4.097359211
1772424823.028548717,0.017844000,0.007013000,0.053758000,0.001798630,-0.005064020,0.001999610,-0.999983560,-0.003618000,0.010121000,-0.004018000,0.000520863,-0.000296698,0.000639103,0.001161288,-0.012414780,0.004924971,0.009603726,-0.001924164,1.000771018,0.001146117,-0.001938857,-0.002432848,0.000000000,0.000000000,0.000000000,0.000000000,0.018236829,0.007035987,0.053754090,0.020219466,0.001365086,0.000148482,0.007059133,-0.000777908,0.000018063,-0.094756172,0.208862455,-0.139666166,-0.000829122,-0.001821660,-0.001220320,0.999996257,0.000000000,0.000000000,0.000000000,0.000000000,0.000000000,0.000000000,-0.139888209,0.000000000,4.097878454
1772424823.038547993,0.017848000,0.007010000,0.053760000,0.001869530,-0.005272480,0.001996180,-0.999982360,-0.003760000,0.010538000,-0.004012000,0.000454585,-0.000381003,0.000594464,-0.001661330,-0.019443456,0.000423938,0.011832579,-0.001670338,0.997242323,-0.000861119,0.002637711,0.000968154,0.000000000,0.000000000,0.000000000,0.000000000,0.018234247,0.007038160,0.053749960,0.020253539,0.001321539,0.000152568,0.007868351,-0.000061185,-0.001111493,-0.094191424,0.209274271,-0.139905450,-0.000824202,-0.001825258,-0.001222402,0.999996245,0.000000000,0.000000000,0.000000000,0.000000000,0.000000000,0.000000000,-0.139982179,0.000000000,4.098397661
1772424823.048547506,0.017863000,0.007004000,0.053771000,0.001867050,-0.004857060,0.002032700,-0.999984400,-0.003754000,0.009707000,-0.004084000,0.000230692,-0.000276243,0.000170979,-0.002056073,-0.023839843,-0.005808523,0.011628444,-0.000147322,1.000596788,0.002441200,0.000292995,-0.001253562,0.000000000,0.000000000,0.000000000,0.000000000,0.018234636,0.007039516,0.053751479,0.020463373,0.001385434,0.000104155,0.007727387,0.001372083,0.000697647,-0.094017369,0.207870358,-0.139015000,-0.000822654,-0.001813015,-0.001214619,0.999996286,0.000000000,0.000000000,0.000000000,0.000000000,0.000000000,0.000000000,-0.139810201,0.000000000,4.098916880
1772424823.058547258,0.017856000,0.007003000,0.053764000,0.001822770,-0.004981570,0.002040600,-0.999983850,-0.003666000,0.009956000,-0.004100000,-0.000237199,-0.000106682,-0.000297630,-0.000614673,-0.013860286,-0.009114796,0.009917006,-0.002182863,1.001948013,-0.001356006,-0.000284990,-0.001104674,0.000000000,0.000000000,0.000000000,0.000000000,0.018234922,0.007040516,0.053752597,0.020617891,0.001432484,0.000068504,0.006108266,-0.000520322,0.001929953,-0.092904831,0.207191281,-0.139514910,-0.000812946,-0.001807097,-0.001218959,0.999996305,0.000000000,0.000000000,0.000000000,0.000000000,0.000000000,0.000000000,-0.139592677,0.000000000,4.099436111
1772424823.068546772,0.017850000,0.007004000,0.053764000,0.001821320,-0.004648910,0.002106970,-0.999985320,-0.003662000,0.009290000,-0.004231000,-0.000456275,0.000121348,-0.000537044,0.000306632,-0.005380249,-0.009245016,0.009640595,-0.001902907,1.001481566,-0.001622108,-0.000132222,0.000293990,0.000000000,0.000000000,0.000000000,0.000000000,0.018242702,0.007037076,0.053760267,0.020630309,0.001351841,0.000247545,0.005958795,-0.000515000,0.001205431,-0.093285440,0.205889440,-0.140132387,-0.000816263,-0.001795728,-0.001224345,0.999996305,0.000000000,0.000000000,0.000000000,0.000000000,0.000000000,0.000000000,-0.139939513,0.000000000,4.099955330
1772424823.078546286,0.017833000,0.007008000,0.053750000,0.001850660,-0.004864710,0.002136950,-0.999984170,-0.003722000,0.009722000,-0.004292000,-0.000421504,0.000299476,-0.000471892,-0.000609134,0.000211504,-0.006703951,0.010218307,-0.001586156,0.999676607,0.001304650,-0.001467266,-0.003258359,0.000000000,0.000000000,0.000000000,0.000000000,0.018251192,0.007033324,0.053768635,0.020643858,0.001263853,0.000442891,0.006747032,0.000488753,0.000408128,-0.093501198,0.204710058,-0.140543574,-0.000818140,-0.001785430,-0.001227928,0.999996346,0.000000000,0.000000000,0.000000000,0.000000000,0.000000000,0.000000000,-0.140557155,0.000000000,4.100474549
1772424823.088546038,0.017842000,0.007009000,0.053746000,0.001832080,-0.004893030,0.002226160,-0.999983870,-0.003686000,0.009778000,-0.004470000,-0.000271038,0.000298000,-0.000167599,-0.003323509,0.000674112,-0.003721003,0.009888056,-0.000867292,1.001079564,-0.000443274,0.007826134,0.001566804,0.000000000,0.000000000,0.000000000,0.000000000,0.018252517,0.007030946,0.053769922,0.020683019,0.001242746,0.000419953,0.006073857,0.000124531,0.000848565,-0.092077912,0.205806663,-0.142609947,-0.000805764,-0.001795001,-0.001245946,0.999996315,0.000000000,0.000000000,0.000000000,0.000000000,0.000000000,0.000000000,-0.141752718,0.000000000,4.100993780
1772424823.098546743,0.017841000,0.007012000,0.053749000,0.001894190,-0.004899770,0.002179790,-0.999983830,-0.003810000,0.009791000,-0.004378000,0.000011189,0.000162957,0.000144095,-0.003993329,-0.007798692,-0.001967647,0.007802037,-0.000561320,1.000270649,-0.001433179,0.001923155,0.001604754,0.000000000,0.000000000,0.000000000,0.000000000,0.018162578,0.007023900,0.053769323,0.019979903,0.001199444,0.000468308,0.004920821,0.001383857,0.001308754,-0.091945110,0.211038895,-0.142598292,-0.000804661,-0.001840662,-0.001245878,0.999996252,0.000000000,0.000000000,0.000000000,0.000000000,0.000000000,0.000000000,-0.142720253,0.000000000,4.101404979
1772424823.108547211,0.017843000,0.007015000,0.053754000,0.001884310,-0.004792840,0.002161270,-0.999984400,-0.003789000,0.009578000,-0.004341000,-0.000073368,0.000091278,0.000125680,-0.001836527,0.001223458,0.002625615,0.008639626,-0.000261134,0.998942417,-0.000393224,-0.001364640,0.001264468,0.000000000,0.000000000,0.000000000,0.000000000,0.017968159,0.007017934,0.053753876,0.017913515,0.001112241,0.000688618,0.005324191,0.001019843,0.000377231,-0.091678287,0.215881055,-0.141764857,-0.000802371,-0.001882927,-0.001238635,0.999996025,0.000000000,0.000000000,0.000000000,0.000000000,0.000000000,0.000000000,-0.141175823,0.000000000,4.100727129
1772424823.118547440,0.017839000,0.007017000,0.053756000,0.001881500,-0.004844270,0.002150910,-0.999984180,-0.003784000,0.009680000,-0.004320000,-0.000053846,-0.000073271,0.000048737,-0.000752893,0.008861510,0.006384699,0.009856945,-0.000594617,0.998365943,0.000025304,-0.000278789,0.000517044,0.000000000,0.000000000,0.000000000,0.000000000,0.018027744,0.007024315,0.053759807,0.018335884,0.001251849,0.000785068,0.006593010,0.000902124,-0.001203670,-0.091411469,0.220723099,-0.140931442,-0.000800081,-0.001925190,-0.001231391,0.999996066,0.000000000,0.000000000,0.000000000,0.000000000,0.000000000,0.000000000,-0.140694271,0.000000000,4.100049295
1772424823.128547668,0.017839000,0.007008000,0.053762000,0.001916310,-0.004617010,0.002155250,-0.999985180,-0.003853000,0.009226000,-0.004328000,-0.000052584,-0.000209790,-0.000037743,0.002129277,0.022293667,0.009512806,0.010131493,-0.000620695,0.998681138,-0.000846749,0.002640516,0.000312985,0.000000000,0.000000000,0.000000000,0.000000000,0.018155722,0.007033671,0.053769335,0.019086499,0.001395741,0.000556924,0.005382968,0.000853136,-0.001607788,-0.091373873,0.221649002,-0.140743550,-0.000799760,-0.001933272,-0.001229757,0.999996066,0.000000000,0.000000000,0.000000000,0.000000000,0.000000000,0.000000000,-0.140788510,0.000000000,4.099371460
1772424823.138547182,0.017837000,0.007010000,0.053748000,0.001883930,-0.005011780,0.002127240,-0.999983400,-0.003789000,0.010016000,-0.004274000,0.000336286,-0.000384655,0.000002253,0.002441521,0.030527622,0.008327450,0.009482163,-0.000490456,1.000037662,0.000723583,0.000685588,0.001962155,0.000000000,0.000000000,0.000000000,0.000000000,0.018160201,0.007034087,0.053768401,0.019120447,0.001412551,0.000539809,0.006202451,0.001046653,0.000692584,-0.091374428,0.220682263,-0.140668589,-0.000799753,-0.001924836,-0.001229097,0.999996066,0.000000000,0.000000000,0.000000000,0.000000000,0.000000000,0.000000000,-0.140781821,0.000000000,4.098693675
1772424823.148547411,0.017834000,0.007011000,0.053745000,0.001853770,-0.005365660,0.001996730,-0.999981890,-0.003729000,0.010724000,-0.004014000,0.000516959,-0.000277992,0.000112859,-0.001964630,0.020993032,0.003648276,0.008960579,-0.001015222,1.000798439,0.002008877,-0.001454821,0.001852128,0.000000000,0.000000000,0.000000000,0.000000000,0.018185358,0.007036551,0.053762924,0.019308216,0.001510776,0.000454594,0.004978023,0.001235259,-0.000095906,-0.090423185,0.220047498,-0.139658165,-0.000791429,-0.001919314,-0.001220259,0.999996082,0.000000000,0.000000000,0.000000000,0.000000000,0.000000000,0.000000000,-0.140566830,0.000000000,4.098015840
1772424823.158547401,0.017853000,0.007001000,0.053754000,0.001886010,-0.005321500,0.001993790,-0.999982070,-0.003793000,0.010635000,-0.004008000,0.000287083,0.000093726,0.000144988,-0.004960747,0.000092330,-0.000864708,0.009611732,-0.001478477,1.000193406,-0.000609706,0.001621776,0.000770280,0.000000000,0.000000000,0.000000000,0.000000000,0.018200470,0.007038089,0.053759725,0.019397966,0.001575600,0.000502645,0.005835610,0.000019204,0.000412729,-0.089641093,0.218999755,-0.138795335,-0.000784578,-0.001910185,-0.001212709,0.999996126,0.000000000,0.000000000,0.000000000,0.000000000,0.000000000,0.000000000,-0.138845220,0.000000000,4.097338022
1772424823.168547630,0.017854000,0.007003000,0.053764000,0.001848490,-0.005187540,0.002012450,-0.999982810,-0.003718000,0.010368000,-0.004044000,-0.000066375,0.000428322,0.000004798,-0.007045786,-0.021841830,-0.004312526,0.010827752,-0.001658547,1.000664352,-0.001188385,-0.000700247,0.003048869,0.000000000,0.000000000,0.000000000,0.000000000,0.018222371,0.007033998,0.053767543,0.019552181,0.001504915,0.000547492,0.005577736,0.000080741,0.000694419,-0.089542746,0.217453639,-0.138156139,-0.000783693,-0.001896698,-0.001207118,0.999996137,0.000000000,0.000000000,0.000000000,0.000000000,0.000000000,0.000000000,-0.137437017,0.000000000,4.096660188
1772424823.178547621,0.017858000,0.007005000,0.053760000,0.001994010,-0.005112970,0.002110120,-0.999982710,-0.004010000,0.010218000,-0.004241000,-0.000476652,0.000543901,-0.000100194,-0.005400518,-0.030651484,-0.004879330,0.009835939,-0.002110795,1.000671335,-0.003251651,-0.005996895,-0.000371781,0.000000000,0.000000000,0.000000000,0.000000000,0.018222371,0.007033998,0.053767543,0.019552181,0.001504915,0.000547492,0.006543437,-0.000313039,0.000239429,-0.089585050,0.217562388,-0.137222986,-0.000784048,-0.001897653,-0.001198977,0.999996185,0.000000000,0.000000000,0.000000000,0.000000000,0.000000000,0.000000000,-0.137394696,0.000000000,4.096351768
1772424823.188547850,0.017839000,0.007023000,0.053754000,0.002030870,-0.004720600,0.002182630,-0.999984410,-0.004082000,0.009432000,-0.004385000,-0.000632460,0.000449146,-0.000232479,0.000845715,-0.014588762,-0.000878506,0.010417009,-0.001843768,0.999444826,0.000620941,0.005903694,-0.004544478,0.000000000,0.000000000,0.000000000,0.000000000,0.018228189,0.007034010,0.053768905,0.019622949,0.001446512,0.000578907,0.007205166,0.000055864,-0.000313418,-0.089983947,0.218662880,-0.136991260,-0.000787537,-0.001907254,-0.001196969,0.999996185,0.000000000,0.000000000,0.000000000,0.000000000,0.000000000,0.000000000,-0.137082055,0.000000000,4.096894035
1772424823.198548079,0.017823000,0.007029000,0.053746000,0.001962390,-0.004765560,0.002067870,-0.999984580,-0.003945000,0.009523000,-0.004155000,-0.000396212,0.000128769,-0.000166958,0.005421311,0.003850328,0.004963350,0.010776438,0.001226544,0.999931667,0.001357013,-0.002483093,-0.001245683,0.000000000,0.000000000,0.000000000,0.000000000,0.018226302,0.007040143,0.053767329,0.019703090,0.001425024,0.000520247,0.006434511,0.001356733,-0.000039275,-0.089201967,0.216688160,-0.137471697,-0.000780700,-0.001890026,-0.001201135,0.999996185,0.000000000,0.000000000,0.000000000,0.000000000,0.000000000,0.000000000,-0.137225181,0.000000000,4.097436301
1772424823.208549023,0.017833000,0.007021000,0.053744000,0.001920090,-0.004884690,0.002043310,-0.999984140,-0.003860000,0.009762000,-0.004106000,0.000261325,-0.000405906,0.000071504,0.008324155,0.019519993,0.004142260,0.008363497,-0.001022464,1.001752030,-0.002883850,0.001489412,-0.003061651,0.000000000,0.000000000,0.000000000,0.000000000,0.018217548,0.007048727,0.053762508,0.019784663,0.001576466,0.000472133,0.005327373,0.001210501,0.001448283,-0.089409176,0.217306692,-0.137636587,-0.000782517,-0.001895420,-0.001202582,0.999996185,0.000000000,0.000000000,0.000000000,0.000000000,0.000000000,0.000000000,-0.137572919,0.000000000,4.097978605
1772424823.218548775,0.017833000,0.007014000,0.053755000,0.001817630,-0.005256130,0.001998990,-0.999982540,-0.003656000,0.010505000,-0.004017000,0.000473136,-0.000604527,0.000227933,0.009241730,0.028727030,0.003234256,0.007704939,-0.001265243,1.001771292,-0.000907542,0.003869303,-0.002589884,0.000000000,0.000000000,0.000000000,0.000000000,0.018214167,0.007051978,0.053758541,0.019734011,0.001671681,0.000545048,0.003294999,0.001046750,0.001353032,-0.090636911,0.215663697,-0.137263052,-0.000793208,-0.001881072,-0.001199331,0.999996185,0.000000000,0.000000000,0.000000000,0.000000000,0.000000000,0.000000000,-0.137455332,0.000000000,4.098520846
1772424823.228549480,0.017850000,0.007003000,0.053761000,0.001805910,-0.005240420,0.001993260,-0.999982650,-0.003633000,0.010474000,-0.004006000,0.000494736,-0.000455944,0.000227895,0.004202741,0.024589470,0.000334762,0.007047655,-0.001996397,1.000343214,-0.002172978,0.002140069,-0.000605769,0.000000000,0.000000000,0.000000000,0.000000000,0.018213338,0.007050222,0.053760836,0.019549692,0.001686058,0.000689981,0.003484000,-0.000351503,0.000550763,-0.090397837,0.213792983,-0.137733589,-0.000791110,-0.001864747,-0.001203420,0.999996233,0.000000000,0.000000000,0.000000000,0.000000000,0.000000000,0.000000000,-0.137493019,0.000000000,4.099063138
1772424823.238548756,0.017856000,0.007002000,0.053758000,0.001874090,-0.005174570,0.002069940,-0.999982710,-0.003770000,0.010341000,-0.004159000,0.000020008,-0.000002933,-0.000008702,-0.000954363,0.010625384,-0.002603732,0.011011839,-0.003684126,0.999961443,0.002007465,-0.004661545,0.001491076,0.000000000,0.000000000,0.000000000,0.000000000,0.018131722,0.007035644,0.053764740,0.018667313,0.001534771,0.000740852,0.006178609,-0.001591703,-0.000777130,-0.089990967,0.218792876,-0.138871038,-0.000787630,-0.001908375,-0.001213374,0.999996131,0.000000000,0.000000000,0.000000000,0.000000000,0.000000000,0.000000000,-0.138635298,0.000000000,4.099605352
1772424823.248548746,0.017850000,0.007003000,0.053754000,0.001829400,-0.005387150,0.002136520,-0.999981530,-0.003682000,0.010766000,-0.004293000,-0.000425913,0.000353982,-0.000390482,-0.005476798,-0.002808980,-0.004408926,0.009331313,-0.003576132,0.997581622,-0.000708914,-0.006301592,0.000146527,0.000000000,0.000000000,0.000000000,0.000000000,0.018164740,0.007031504,0.053768472,0.018877226,0.001317796,0.000709681,0.006221911,-0.001446080,-0.002293868,-0.089525525,0.220380441,-0.137872327,-0.000783569,-0.001922241,-0.001204661,0.999996126,0.000000000,0.000000000,0.000000000,0.000000000,0.000000000,0.000000000,-0.138289998,0.000000000,4.100147605
1772424823.258549213,0.017829000,0.007017000,0.053749000,0.001853990,-0.005307940,0.002007350,-0.999982180,-0.003729000,0.010608000,-0.004035000,-0.000314025,0.000415288,-0.000282421,-0.006295725,-0.016219050,-0.004157560,0.010044623,-0.001058553,0.999761792,-0.001716177,0.000411148,-0.001873456,0.000000000,0.000000000,0.000000000,0.000000000,0.018196574,0.007029345,0.053766119,0.019109805,0.001080843,0.000418464,0.005948203,0.000603479,-0.000266996,-0.089859464,0.221946636,-0.137650799,-0.000786496,-0.001935906,-0.001202745,0.999996126,0.000000000,0.000000000,0.000000000,0.000000000,0.000000000,0.000000000,-0.137519498,0.000000000,4.100689884
1772424823.268549681,0.017836000,0.007020000,0.053751000,0.001892600,-0.005133730,0.002052900,-0.999982920,-0.003806000,0.010260000,-0.004125000,-0.000158178,0.000250233,0.000008159,-0.003752350,-0.023497619,-0.003368128,0.008760298,-0.000002838,1.001814681,-0.000169764,-0.001159243,0.000539420,0.000000000,0.000000000,0.000000000,0.000000000,0.018199916,0.007034718,0.053760549,0.019238484,0.001126594,0.000323383,0.004512929,0.001995717,0.002012168,-0.090114165,0.221941152,-0.138180988,-0.000788727,-0.001935852,-0.001207376,0.999996107,0.000000000,0.000000000,0.000000000,0.000000000,0.000000000,0.000000000,-0.137954972,0.000000000,4.101232163
1772424823.278549910,0.017832000,0.007017000,0.053743000,0.001934870,-0.005132570,0.002124970,-0.999982700,-0.003892000,0.010257000,-0.004270000,0.000146873,-0.000028089,0.000232382,-0.000826555,-0.030784617,-0.001714801,0.008296382,-0.000593989,1.000864794,0.000782039,-0.003395927,0.002362674,0.000000000,0.000000000,0.000000000,0.000000000,0.018203643,0.007039129,0.053758505,0.019189477,0.001297482,0.000490607,0.003396520,0.001127217,0.001219241,-0.089752114,0.223687183,-0.137810990,-0.000785580,-0.001951096,-0.001204153,0.999996066,0.000000000,0.000000000,0.000000000,0.000000000,0.000000000,0.000000000,-0.138297401,0.000000000,4.101134746
1772424823.288550377,0.017843000,0.007015000,0.053748000,0.001958140,-0.004842150,0.002186280,-0.999983970,-0.003938000,0.009676000,-0.004392000,0.000332188,-0.000118221,0.000308334,0.002075872,-0.025953046,-0.003497561,0.010537297,-0.001175989,1.000418445,0.000046345,-0.000260936,0.001929143,0.000000000,0.000000000,0.000000000,0.000000000,0.018205070,0.007041100,0.053756942,0.019067498,0.001402812,0.000591260,0.006681759,0.000368249,0.000869924,-0.089104786,0.224840655,-0.137053823,-0.000779930,-0.001961174,-0.001197542,0.999996066,0.000000000,0.000000000,0.000000000,0.000000000,0.000000000,0.000000000,-0.137342178,0.000000000,4.100551684
1772424823.298550367,0.017854000,0.007011000,0.053770000,0.001860650,-0.004698160,0.002094320,-0.999985040,-0.003741000,0.009389000,-0.004206000,0.000270688,-0.000210393,0.000180090,0.006617124,-0.010526085,-0.002774462,0.010802200,-0.000894190,0.999314844,-0.002236988,-0.001552298,-0.000879298,0.000000000,0.000000000,0.000000000,0.000000000,0.018212616,0.007040735,0.053765552,0.019152089,0.001422052,0.000670829,0.007267715,0.000852962,0.000326238,-0.089300191,0.223895602,-0.136219238,-0.000781611,-0.001952930,-0.001190256,0.999996066,0.000000000,0.000000000,0.000000000,0.000000000,0.000000000,0.000000000,-0.136555097,0.000000000,4.099968649
1772424823.308550358,0.017841000,0.007010000,0.053756000,0.001851620,-0.004702300,0.002137520,-0.999984950,-0.003723000,0.009397000,-0.004293000,-0.000113131,-0.000078943,-0.000003244,0.008592725,0.005982849,0.001437862,0.010022893,-0.000640671,0.998196744,-0.000717869,0.003020661,-0.002163443,0.000000000,0.000000000,0.000000000,0.000000000,0.018215338,0.007039495,0.053770085,0.019317275,0.001457266,0.000664523,0.005769113,0.000555768,-0.001208020,-0.089753711,0.225657977,-0.137092470,-0.000785602,-0.001968299,-0.001197896,0.999996066,0.000000000,0.000000000,0.000000000,0.000000000,0.000000000,0.000000000,-0.136618586,0.000000000,4.099385614
1772424823.318551540,0.017839000,0.007014000,0.053754000,0.001806680,-0.004813070,0.002099570,-0.999984580,-0.003634000,0.009619000,-0.004217000,-0.000210878,0.000005225,-0.000133644,0.006582455,0.013574269,0.003545272,0.009423550,-0.002895890,0.997830817,0.000375464,0.001252163,-0.004023647,0.000000000,0.000000000,0.000000000,0.000000000,0.018176197,0.007038947,0.053763581,0.018997051,0.001377171,0.000298098,0.005466996,-0.001272320,-0.002571698,-0.089934208,0.230171669,-0.137605316,-0.000787233,-0.002007683,-0.001202405,0.999995963,0.000000000,0.000000000,0.000000000,0.000000000,0.000000000,0.000000000,-0.137710617,0.000000000,4.098802510
1772424823.328552008,0.017841000,0.007017000,0.053753000,0.001777800,-0.005003000,0.002159840,-0.999983570,-0.003577000,0.009998000,-0.004338000,-0.000462549,0.000129546,-0.000306449,0.002199696,0.015283009,0.005315456,0.009980170,-0.003006840,0.999129026,0.002951391,-0.001471093,0.000645080,0.000000000,0.000000000,0.000000000,0.000000000,0.018161133,0.007038867,0.053761244,0.018856773,0.001338615,0.000166538,0.005545838,-0.000824750,-0.000356353,-0.089938879,0.229573431,-0.138065700,-0.000787276,-0.002002459,-0.001206419,0.999996001,0.000000000,0.000000000,0.000000000,0.000000000,0.000000000,0.000000000,-0.138161182,0.000000000,4.098219448
1772424823.338551521,0.017838000,0.007008000,0.053748000,0.001769470,-0.004996260,0.002071380,-0.999983810,-0.003560000,0.009985000,-0.004161000,-0.000319406,0.000088073,-0.000155245,-0.000498258,0.010550795,0.006096438,0.010325771,-0.000841980,1.001177525,0.001757020,-0.003769291,-0.000933753,0.000000000,0.000000000,0.000000000,0.000000000,0.018191529,0.007037092,0.053754930,0.019138788,0.001210977,0.000161082,0.006176345,0.000376920,0.000744594,-0.089355206,0.230611867,-0.137947795,-0.000782191,-0.002011528,-0.001205387,0.999995947,0.000000000,0.000000000,0.000000000,0.000000000,0.000000000,0.000000000,-0.138154118,0.000000000,4.097636441
1772424823.348552465,0.017831000,0.007015000,0.053752000,0.001787690,-0.005080950,0.002059180,-0.999983370,-0.003596000,0.010155000,-0.004137000,0.000065132,0.000072397,-0.000003477,-0.002791361,0.002767904,0.006217785,0.011559110,-0.001008098,1.001650690,0.000002290,0.000868917,0.000610270,0.000000000,0.000000000,0.000000000,0.000000000,0.018194822,0.007037205,0.053754605,0.019191685,0.001202041,0.000176017,0.007674423,0.000625657,0.002252724,-0.089081070,0.230462224,-0.137967132,-0.000779798,-0.002010225,-0.001205550,0.999995963,0.000000000,0.000000000,0.000000000,0.000000000,0.000000000,0.000000000,-0.138138444,0.000000000,4.097053351
1772424823.358552694,0.017836000,0.007016000,0.053752000,0.001841170,-0.004885590,0.001998270,-0.999984370,-0.003702000,0.009764000,-0.004015000,0.000159033,0.000090268,-0.000042793,-0.006651240,-0.004164232,0.000609718,0.010739714,-0.000798582,1.001605532,0.000648742,0.000767885,-0.000400232,0.000000000,0.000000000,0.000000000,0.000000000,0.018202078,0.007039212,0.053755369,0.019423534,0.001222094,0.000316064,0.006723810,0.000979655,0.001461661,-0.089494721,0.229975105,-0.137696087,-0.000783397,-0.002005972,-0.001203188,0.999995986,0.000000000,0.000000000,0.000000000,0.000000000,0.000000000,0.000000000,-0.137793169,0.000000000,4.096470303
1772424823.368551970,0.017828000,0.007020000,0.053750000,0.001841470,-0.004947650,0.001986260,-0.999984090,-0.003703000,0.009888000,-0.003991000,0.000372456,0.000089433,-0.000103089,-0.007595037,0.001015412,-0.004647002,0.010617580,-0.001840225,1.000660255,0.001963385,0.000318852,-0.001405758,0.000000000,0.000000000,0.000000000,0.000000000,0.018205769,0.007041023,0.053756952,0.019589171,0.001293240,0.000515686,0.006888496,-0.000643851,0.000768105,-0.089258527,0.229710776,-0.137375022,-0.000781328,-0.002003670,-0.001200381,0.999995968,0.000000000,0.000000000,0.000000000,0.000000000,0.000000000,0.000000000,-0.137596898,0.000000000,4.096187592
1772424823.378552437,0.017847000,0.007011000,0.053753000,0.001835930,-0.005072290,0.002052240,-0.999983340,-0.003693000,0.010137000,-0.004123000,0.000510432,-0.000106313,0.000171659,-0.004298799,-0.000790289,-0.006500427,0.011969522,-0.002473397,0.999610966,0.000428371,-0.001772058,-0.001083834,0.000000000,0.000000000,0.000000000,0.000000000,0.018218369,0.007039598,0.053758921,0.019721142,0.001251000,0.000563025,0.007652882,0.000046974,-0.000808431,-0.088963960,0.230199756,-0.136715162,-0.000778751,-0.002007944,-0.001194620,0.999995979,0.000000000,0.000000000,0.000000000,0.000000000,0.000000000,0.000000000,-0.137062483,0.000000000,4.096187592
1772424823.388552666,0.017853000,0.007019000,0.053743000,0.001945240,-0.004936130,0.002129320,-0.999983660,-0.003912000,0.009864000,-0.004278000,0.000333625,-0.000204449,0.000198504,-0.000860569,-0.006270421,-0.005147331,0.011425750,-0.001983895,0.998545049,0.001050652,-0.000013602,-0.002155373,0.000000000,0.000000000,0.000000000,0.000000000,0.018178763,0.007037750,0.053757526,0.019596249,0.001140992,0.000524635,0.007988264,-0.000182286,-0.001622562,-0.088679886,0.235682599,-0.137681019,-0.000776346,-0.002055787,-0.001203081,0.999995914,0.000000000,0.000000000,0.000000000,0.000000000,0.000000000,0.000000000,-0.136933020,0.000000000,4.096187592
1772424823.398553133,0.017845000,0.007015000,0.053755000,0.001945470,-0.004946070,0.002173450,-0.999983510,-0.003913000,0.009884000,-0.004366000,0.000144367,-0.000137762,0.000137665,0.000285520,-0.008664161,-0.001201948,0.011694167,-0.001135372,0.998477843,-0.000027447,-0.002515702,-0.003193313,0.000000000,0.000000000,0.000000000,0.000000000,0.018099187,0.007029908,0.053757872,0.019178077,0.001029149,0.000357508,0.008413625,0.000438949,-0.001614131,-0.088115163,0.236264109,-0.138234927,-0.000771434,-0.002060864,-0.001207908,0.999995887,0.000000000,0.000000000,0.000000000,0.000000000,0.000000000,0.000000000,-0.137916757,0.000000000,4.096187592
1772424823.408553123,0.017853000,0.007009000,0.053753000,0.001877930,-0.005066060,0.002107520,-0.999983180,-0.003777000,0.010124000,-0.004234000,-0.000082323,-0.000030303,-0.000007576,0.000946221,-0.012755593,0.005053375,0.010476638,-0.002221372,0.998692822,-0.001619584,-0.004330512,-0.003210528,0.000000000,0.000000000,0.000000000,0.000000000,0.018062300,0.007022546,0.053762032,0.019129124,0.000991650,0.000192032,0.005904428,-0.000537875,-0.001100242,-0.087576103,0.235898108,-0.138690285,-0.000766734,-0.002057673,-0.001211870,0.999995838,0.000000000,0.000000000,0.000000000,0.000000000,0.000000000,0.000000000,-0.138278975,0.000000000,4.096187592
1772424823.418553829,0.017847000,0.007005000,0.053770000,0.001822460,-0.004639580,0.002004510,-0.999985570,-0.003664000,0.009272000,-0.004026000,-0.000246445,0.000021484,-0.000047688,0.000740062,-0.006486998,0.009890956,0.009928460,-0.001098950,0.999168361,-0.000929329,-0.001574277,0.000965380,0.000000000,0.000000000,0.000000000,0.000000000,0.018041303,0.007024278,0.053755845,0.019110196,0.000924705,0.000004276,0.006749511,0.000854530,-0.000895499,-0.088101177,0.236638457,-0.139628690,-0.000771341,-0.002064122,-0.001220074,0.999995828,0.000000000,0.000000000,0.000000000,0.000000000,0.000000000,0.000000000,-0.139477586,0.000000000,4.096187592
1772424823.428553581,0.017841000,0.007019000,0.053745000,0.001895220,-0.004785160,0.002059170,-0.999984630,-0.003810000,0.009563000,-0.004137000,-0.000049029,0.000033664,-0.000046834,-0.001025339,0.003815753,0.008614366,0.010380299,0.000611244,0.998786676,-0.000525192,-0.003730372,0.001558996,0.000000000,0.000000000,0.000000000,0.000000000,0.018038341,0.007023363,0.053751263,0.019120083,0.000920206,-0.000054610,0.006532078,0.002076562,-0.001030291,-0.088729750,0.237031831,-0.139397752,-0.000776826,-0.002067550,-0.001218072,0.999995828,0.000000000,0.000000000,0.000000000,0.000000000,0.000000000,0.000000000,-0.139257112,0.000000000,4.096187592
1772424823.438553572,0.017850000,0.007013000,0.053746000,0.001933720,-0.004882820,0.001965120,-0.999984280,-0.003887000,0.009758000,-0.003949000,0.000238520,-0.000015657,0.000007673,-0.004491791,0.009610768,0.003493144,0.010770194,0.001361516,1.001710601,-0.002090573,-0.000486338,0.003780108,0.000000000,0.000000000,0.000000000,0.000000000,0.018114153,0.007027431,0.053749821,0.019564542,0.001065157,-0.000199402,0.006484210,0.002208289,0.000980143,-0.089145519,0.237448237,-0.139082977,-0.000780453,-0.002071181,-0.001215336,0.999995828,0.000000000,0.000000000,0.000000000,0.000000000,0.000000000,0.000000000,-0.139188533,0.000000000,4.096187592
1772424823.448553562,0.017843000,0.007014000,0.053752000,0.001907080,-0.004936400,0.001952650,-0.999984090,-0.003834000,0.009865000,-0.003924000,0.000071892,-0.000056158,0.000222184,-0.004046740,0.017557415,0.000383708,0.010864035,0.000470810,1.002067590,0.002208324,0.002511617,-0.001047624,0.000000000,0.000000000,0.000000000,0.000000000,0.018179492,0.007030807,0.053753440,0.020019461,0.001315854,-0.000092910,0.006927727,0.001676106,0.002018880,-0.088829006,0.237617646,-0.138659915,-0.000777685,-0.002072666,-0.001211639,0.999995828,0.000000000,0.000000000,0.000000000,0.000000000,0.000000000,0.000000000,-0.138842233,0.000000000,4.096187592
1772424823.458553314,0.017852000,0.007009000,0.053761000,0.001954720,-0.005076810,0.001961750,-0.999983280,-0.003929000,0.010146000,-0.003943000,0.000149903,-0.000041123,0.000093201,-0.003552613,0.025485966,-0.002765143,0.008251219,-0.001635048,1.000422426,0.001240893,0.004816356,-0.001942639,0.000000000,0.000000000,0.000000000,0.000000000,0.018210855,0.007034679,0.053756353,0.020295455,0.001489496,0.000101212,0.004796391,0.000277790,0.000466139,-0.087868542,0.236332197,-0.138568115,-0.000769289,-0.002061459,-0.001210812,0.999995828,0.000000000,0.000000000,0.000000000,0.000000000,0.000000000,0.000000000,-0.138656843,0.000000000,4.096187592
1772424823.468553543,0.017854000,0.007012000,0.053759000,0.001953890,-0.005124510,0.002036630,-0.999982890,-0.003929000,0.010241000,-0.004093000,-0.000084751,-0.000068104,0.000062801,0.000403299,0.019519802,-0.002093322,0.007738487,-0.001259830,0.999848185,0.002064013,-0.004747861,-0.002612806,0.000000000,0.000000000,0.000000000,0.000000000,0.018226455,0.007039747,0.053757843,0.020200697,0.001522667,0.000170364,0.004074946,0.000141619,-0.000474101,-0.087647513,0.234524641,-0.138238041,-0.000767335,-0.002045689,-0.001207916,0.999995876,0.000000000,0.000000000,0.000000000,0.000000000,0.000000000,0.000000000,-0.138983879,0.000000000,4.096187592
1772424823.478553534,0.017855000,0.007004000,0.053762000,0.001935700,-0.005182380,0.002026360,-0.999982640,-0.003893000,0.010357000,-0.004073000,-0.000144794,0.000081682,-0.000382712,0.002206015,0.015095922,-0.003641028,0.010804227,0.000966682,0.998788638,-0.001413203,0.000690776,0.003766790,0.000000000,0.000000000,0.000000000,0.000000000,0.018229855,0.007041535,0.053758163,0.020117439,0.001514621,0.000172930,0.006161298,0.002315330,-0.000871682,-0.086267403,0.236019669,-0.139234262,-0.000755325,-0.002058744,-0.001216594,0.999995842,0.000000000,0.000000000,0.000000000,0.000000000,0.000000000,0.000000000,-0.139256626,0.000000000,4.096187592
1772424823.488553524,0.017834000,0.007018000,0.053751000,0.001921520,-0.005327750,0.001982660,-0.999982000,-0.003864000,0.010648000,-0.003986000,-0.000197106,0.000106449,-0.000334655,0.004145560,0.008161459,-0.001404620,0.009955231,0.001158755,0.998896642,-0.004285614,0.003889781,0.004097330,0.000000000,0.000000000,0.000000000,0.000000000,0.018233749,0.007043519,0.053752510,0.020191020,0.001656916,0.000076553,0.006328814,0.002975460,-0.001431424,-0.085808012,0.234999413,-0.138061140,-0.000751284,-0.002049853,-0.001206342,0.999995874,0.000000000,0.000000000,0.000000000,0.000000000,0.000000000,0.000000000,-0.138687618,0.000000000,4.096187592
1772424823.498552799,0.017852000,0.007016000,0.053739000,0.001963990,-0.005418330,0.002080480,-0.999981230,-0.003951000,0.010828000,-0.004182000,-0.000218998,0.000007595,0.000067483,0.006860738,-0.002041117,-0.001044115,0.010232000,0.000346598,0.999695651,0.000921235,-0.001676012,-0.000029018,0.000000000,0.000000000,0.000000000,0.000000000,0.018234330,0.007044381,0.053749364,0.020232341,0.001866555,-0.000040047,0.005382755,0.001686606,0.000166731,-0.087258669,0.233734373,-0.137564618,-0.000763921,-0.002038802,-0.001202027,0.999995887,0.000000000,0.000000000,0.000000000,0.000000000,0.000000000,0.000000000,-0.137842367,0.000000000,4.096187592
1772424823.508553028,0.017839000,0.007008000,0.053751000,0.001811050,-0.005292500,0.001991860,-0.999982370,-0.003643000,0.010578000,-0.004003000,0.000069930,-0.000106566,0.000409422,0.008190759,-0.006124121,-0.002346837,0.010697357,-0.000863585,1.000389458,0.000058317,0.000920266,-0.004857961,0.000000000,0.000000000,0.000000000,0.000000000,0.018174653,0.007040357,0.053750108,0.019778154,0.001981151,-0.000085698,0.006472860,0.000681449,-0.000064855,-0.086660427,0.240849048,-0.137676555,-0.000758777,-0.002100894,-0.001203040,0.999995803,0.000000000,0.000000000,0.000000000,0.000000000,0.000000000,0.000000000,-0.137613680,0.000000000,4.096187592
1772424823.518553495,0.017851000,0.007013000,0.053752000,0.001836190,-0.005172390,0.002074130,-0.999982790,-0.003694000,0.010337000,-0.004167000,0.000147339,-0.000075000,0.000381624,0.006329359,-0.011016075,-0.005053713,0.010233085,-0.000958272,1.000828018,-0.000534669,-0.000701680,0.001132093,0.000000000,0.000000000,0.000000000,0.000000000,0.018100336,0.007035651,0.053755575,0.019252244,0.001987863,-0.000046881,0.005984923,0.000887021,-0.000035355,-0.086534958,0.240016935,-0.138838975,-0.000757695,-0.002093627,-0.001213176,0.999995768,0.000000000,0.000000000,0.000000000,0.000000000,0.000000000,0.000000000,-0.138181635,0.000000000,4.096187592
1772424823.528554201,0.017840000,0.007012000,0.053770000,0.001803230,-0.005179350,0.002065470,-0.999982830,-0.003628000,0.010351000,-0.004150000,0.000202137,-0.000001554,0.000085936,0.003097063,-0.012754762,-0.008967517,0.011385686,-0.001653845,0.998488713,0.001219195,-0.001031222,-0.001100140,0.000000000,0.000000000,0.000000000,0.000000000,0.018107235,0.007036363,0.053762323,0.019286482,0.001997071,0.000020147,0.006920055,-0.000021415,-0.000293698,-0.086207029,0.240378965,-0.137292666,-0.000754809,-0.002096800,-0.001199678,0.999995768,0.000000000,0.000000000,0.000000000,0.000000000,0.000000000,0.000000000,-0.138377743,0.000000000,4.096187592
1772424823.538553953,0.017851000,0.007005000,0.053769000,0.001766600,-0.005105570,0.002129550,-0.999983140,-0.003555000,0.010204000,-0.004277000,-0.000097319,0.000165832,-0.000250233,0.002224045,-0.009588097,-0.006962148,0.011436286,-0.002134625,0.997391206,0.002536648,0.000593046,-0.000696160,0.000000000,0.000000000,0.000000000,0.000000000,0.018167238,0.007041617,0.053763066,0.019684813,0.002013937,-0.000005256,0.008109100,-0.000455827,-0.003106539,-0.085911482,0.240518614,-0.137354573,-0.000752232,-0.002098021,-0.001200214,0.999995791,0.000000000,0.000000000,0.000000000,0.000000000,0.000000000,0.000000000,-0.136901447,0.000000000,4.096187592
1772424823.548553705,0.017853000,0.007014000,0.053751000,0.001767500,-0.005186830,0.002164980,-0.999982640,-0.003558000,0.010366000,-0.004348000,-0.000062393,0.000093804,-0.000531488,0.000128359,-0.003460566,-0.006496957,0.010675606,-0.002128878,0.998930695,0.001336340,0.002799539,0.001589879,0.000000000,0.000000000,0.000000000,0.000000000,0.018190679,0.007046251,0.053756297,0.019976829,0.001953764,-0.000217582,0.006932192,-0.000792323,-0.001245950,-0.084860927,0.242849680,-0.137597988,-0.000743093,-0.002118373,-0.001202334,0.999995799,0.000000000,0.000000000,0.000000000,0.000000000,0.000000000,0.000000000,-0.137726214,0.000000000,4.096187592
1772424823.558553934,0.017841000,0.007018000,0.053740000,0.001848400,-0.005037400,0.002198980,-0.999983190,-0.003719000,0.010067000,-0.004417000,-0.000127098,0.000036752,-0.000287044,-0.000029356,0.000114989,-0.000654839,0.010523211,-0.002248666,1.001387929,-0.001490336,0.004343223,0.000071600,0.000000000,0.000000000,0.000000000,0.000000000,0.018110025,0.007041124,0.053746958,0.019468936,0.001806156,-0.000450558,0.005388230,-0.001618108,0.001006569,-0.083697225,0.245289221,-0.137474592,-0.000732961,-0.002139674,-0.001201251,0.999995714,0.000000000,0.000000000,0.000000000,0.000000000,0.000000000,0.000000000,-0.137465088,0.000000000,4.096187592
