t,px,py,pz,qx,qy,qz,qw,roll,pitch,yaw,vx,vy,vz,wx_vicon,wy_vicon,wz_vicon,imu_acc_x,imu_acc_y,imu_acc_z,imu_gyro_x,imu_gyro_y,imu_gyro_z,motor_motor_m1,motor_motor_m2,motor_motor_m3,motor_motor_m4,est_stateEstimate_x,est_stateEstimate_y,est_stateEstimate_z,est_stateEstimate_vx,est_stateEstimate_vy,est_stateEstimate_vz,est_stateEstimate_ax,est_stateEstimate_ay,est_stateEstimate_az,att_stateEstimate_roll,att_stateEstimate_pitch,att_stateEstimate_yaw,att_stateEstimate_qx,att_stateEstimate_qy,att_stateEstimate_qz,att_stateEstimate_qw,sp_ctrltarget_x,sp_ctrltarget_y,sp_ctrltarget_z,sp_ctrltarget_yaw,pid_controller_roll,pid_controller_pitch,pid_controller_yaw,pid_controller_cmd_thrust,pwr_pm_vbat
1772687567.493438482,0.018055000,0.010845000,0.054397000,-0.013973840,-0.021271180,-0.005198380,-0.999662570,0.028188000,0.042395000,0.010998000,-0.002994447,-0.000348990,0.005237554,-0.302391667,0.423796522,-0.129742219,0.009503513,0.000283388,1.001669237,-0.000476028,0.001989584,0.002170458,0.000000000,0.000000000,0.000000000,0.000000000,0.018901294,0.010462905,0.054425564,0.044494390,-0.019016578,0.000685155,0.013531432,-0.006536309,0.001290370,0.397598487,-0.189610401,0.387344734,0.003464073,0.001666373,0.003374445,0.999985933,0.000000000,0.000000000,0.000000000,0.000000000,0.000000000,0.000000000,0.386830985,0.000000000,4.001173019
1772687567.503438711,0.017991000,0.010818000,0.054495000,-0.012475990,-0.023376720,-0.004526550,-0.999638630,0.025185000,0.046641000,0.009644000,-0.000665308,0.000195649,0.000364355,-0.104085859,0.125271375,-0.041667783,0.008969093,0.000750973,1.001772927,-0.000243080,0.002586376,-0.000152414,0.000000000,0.000000000,0.000000000,0.000000000,0.018915698,0.010465700,0.054418033,0.044550773,-0.019101099,0.000760919,0.011782565,-0.006164059,0.001115601,0.397600684,-0.190353683,0.388070209,0.003464060,0.001672881,0.003380753,0.999985898,0.000000000,0.000000000,0.000000000,0.000000000,0.000000000,0.000000000,0.387636712,0.000000000,4.001173019
1772687567.513438702,0.018046000,0.010847000,0.054410000,-0.012702460,-0.022767840,-0.004760760,-0.999648740,0.025642000,0.045414000,0.010107000,0.000670358,0.000424437,-0.002033432,0.014219988,-0.046639478,0.008696712,0.010135661,0.000252963,1.001186403,-0.000660766,0.001277367,-0.001507927,0.000000000,0.000000000,0.000000000,0.000000000,0.018920486,0.010469561,0.054412217,0.044501069,-0.019178240,0.000829896,0.013159624,-0.005350230,0.001259541,0.396265661,-0.191660824,0.388000335,0.003452372,0.001684246,0.003380123,0.999985909,0.000000000,0.000000000,0.000000000,0.000000000,0.000000000,0.000000000,0.388227473,0.000000000,4.001173019
1772687567.523438692,0.018043000,0.010857000,0.054386000,-0.013079820,-0.022236240,-0.004877190,-0.999655280,0.026397000,0.044344000,0.010343000,0.001219543,0.000421290,-0.002566300,0.069244133,-0.119721918,0.029658062,0.011037483,-0.001123350,1.000035551,-0.000879943,-0.002306542,-0.001259551,0.000000000,0.000000000,0.000000000,0.000000000,0.018919321,0.010475400,0.054406033,0.044489682,-0.019224355,0.000873451,0.014343522,-0.008218881,0.000590716,0.395732820,-0.192101121,0.387900829,0.003447711,0.001688070,0.003379249,0.999985962,0.000000000,0.000000000,0.000000000,0.000000000,0.000000000,0.000000000,0.387882162,0.000000000,4.001173019
1772687567.533438683,0.018051000,0.010849000,0.054379000,-0.013395370,-0.021776680,-0.004972380,-0.999660750,0.027027000,0.043419000,0.010535000,0.001189240,0.000270125,-0.001844738,0.077738943,-0.121716720,0.029562886,0.010190946,-0.000090231,0.999579756,-0.000759252,-0.001775629,0.000132437,0.000000000,0.000000000,0.000000000,0.000000000,0.018912108,0.010479139,0.054402072,0.044577809,-0.019397720,0.000846054,0.013817116,-0.006996984,-0.000130893,0.395089506,-0.191422673,0.387790068,0.003442119,0.001682127,0.003378313,0.999986015,0.000000000,0.000000000,0.000000000,0.000000000,0.000000000,0.000000000,0.387714648,0.000000000,4.001173019
1772687567.543439150,0.018059000,0.010841000,0.054388000,-0.013465690,-0.021516070,-0.004928170,-0.999665670,0.027163000,0.042898000,0.010442000,0.000786442,0.000054856,-0.000479235,0.056455631,-0.080374917,0.016733854,0.009241583,0.002366225,0.999813535,0.000562417,-0.000117519,0.001886490,0.000000000,0.000000000,0.000000000,0.000000000,0.018914211,0.010473461,0.054397391,0.044655868,-0.019595765,0.000746976,0.012738248,-0.004340030,-0.000380794,0.393896768,-0.190262174,0.386913115,0.003431757,0.001671939,0.003370712,0.999986053,0.000000000,0.000000000,0.000000000,0.000000000,0.000000000,0.000000000,0.386323171,0.000000000,4.001173019
1772687567.553439140,0.018049000,0.010850000,0.054384000,-0.013658820,-0.021210730,-0.004985320,-0.999669290,0.027548000,0.042284000,0.010556000,0.000023271,-0.000244581,0.000935607,0.025586852,-0.031711156,-0.000585751,0.009685258,0.002447568,0.998861766,-0.004836010,0.000899952,0.001105830,0.000000000,0.000000000,0.000000000,0.000000000,0.018917205,0.010466519,0.054399697,0.044631122,-0.019515430,0.000691359,0.012979339,-0.003958044,-0.001226212,0.393966067,-0.189277661,0.386035488,0.003432404,0.001663323,0.003363082,0.999986103,0.000000000,0.000000000,0.000000000,0.000000000,0.000000000,0.000000000,0.385896426,0.000000000,4.001173019
1772687567.563439131,0.018061000,0.010845000,0.054401000,-0.013804840,-0.021280100,-0.005010320,-0.999665680,0.027842000,0.042420000,0.010615000,0.000344367,0.000284635,-0.000116220,0.028654055,-0.044580645,0.006740076,0.010903711,0.002401043,0.998134103,0.000640544,0.000234424,0.000069396,0.000000000,0.000000000,0.000000000,0.000000000,0.018919666,0.010468891,0.054401791,0.044643573,-0.019385904,0.000560066,0.014249619,-0.004095771,-0.001547803,0.392629006,-0.189107013,0.386281824,0.003420738,0.001661802,0.003365257,0.999986172,0.000000000,0.000000000,0.000000000,0.000000000,0.000000000,0.000000000,0.386560297,0.000000000,4.001173019
1772687567.573439598,0.018063000,0.010846000,0.054398000,-0.013840030,-0.021140930,-0.004985970,-0.999668270,0.027910000,0.042142000,0.010563000,-0.000520980,0.000035936,0.000431780,0.002343587,-0.013178849,0.001722217,0.011413441,0.001808593,1.001741354,-0.000269618,0.000166855,-0.000438466,0.000000000,0.000000000,0.000000000,0.000000000,0.018925002,0.010465692,0.054403440,0.044790071,-0.019292276,0.000375364,0.014860033,-0.005298879,0.000881330,0.390938059,-0.189148034,0.386395796,0.003405979,0.001662113,0.003366274,0.999986144,0.000000000,0.000000000,0.000000000,0.000000000,0.000000000,0.000000000,0.386258390,0.000000000,4.001173019
1772687567.583439112,0.018061000,0.010852000,0.054397000,-0.013808040,-0.021061220,-0.004935710,-0.999670650,0.027843000,0.041985000,0.010459000,-0.000975234,-0.000440133,0.000723350,-0.027985309,0.024951883,-0.008914133,0.010639015,0.002159389,1.001266114,-0.000665814,0.000050152,-0.002296174,0.000000000,0.000000000,0.000000000,0.000000000,0.018930486,0.010464915,0.054402255,0.044969011,-0.019287317,0.000492128,0.013704688,-0.004606177,0.001797778,0.390312466,-0.189908910,0.386760714,0.003400491,0.001668746,0.003369445,0.999986168,0.000000000,0.000000000,0.000000000,0.000000000,0.000000000,0.000000000,0.387084959,0.000000000,4.001173019
1772687567.593439102,0.018047000,0.010848000,0.054392000,-0.013864890,-0.020844630,-0.004996490,-0.999674100,0.027957000,0.041549000,0.010577000,-0.000872592,-0.000582771,0.000713890,-0.050108266,0.055238854,-0.018665748,0.010395285,0.001757798,1.000219001,0.000741437,-0.000631735,-0.001621869,0.000000000,0.000000000,0.000000000,0.000000000,0.018931332,0.010467889,0.054405459,0.045048615,-0.019211953,0.000622013,0.013807959,-0.004933992,0.000349866,0.389084614,-0.190416394,0.386703016,0.003389762,0.001673137,0.003368945,0.999986231,0.000000000,0.000000000,0.000000000,0.000000000,0.000000000,0.000000000,0.386410303,0.000000000,4.001173019
1772687567.603438616,0.018042000,0.010851000,0.054381000,-0.013779600,-0.020817790,-0.005099150,-0.999675320,0.027790000,0.041493000,0.010778000,-0.000403186,-0.000522281,0.000474864,-0.053633452,0.057884202,-0.021176449,0.011458353,0.001035360,1.000973016,0.001736232,-0.005999455,-0.006280238,0.000000000,0.000000000,0.000000000,0.000000000,0.018927077,0.010471191,0.054403080,0.045115907,-0.019176137,0.000610112,0.014988077,-0.004636091,0.000751978,0.387826277,-0.191143321,0.386303008,0.003378766,0.001679431,0.003365451,0.999986263,0.000000000,0.000000000,0.000000000,0.000000000,0.000000000,0.000000000,0.386149878,0.000000000,4.001173019
1772687567.613438368,0.017996000,0.010805000,0.054477000,-0.012484480,-0.022712800,-0.004561330,-0.999653670,0.025196000,0.045311000,0.009697000,0.000214064,-0.000365055,0.000354954,-0.034004935,0.050212933,-0.014647775,0.010885835,0.001037188,1.001132683,-0.000865414,-0.004371742,-0.004540620,0.000000000,0.000000000,0.000000000,0.000000000,0.018922536,0.010471856,0.054403260,0.045298172,-0.019197468,0.000673951,0.014707195,-0.005529317,0.001377536,0.387711328,-0.189803551,0.384561909,0.003377828,0.001667685,0.003350298,0.999986397,0.000000000,0.000000000,0.000000000,0.000000000,0.000000000,0.000000000,0.383635610,0.000000000,4.001173019
1772687567.623437881,0.018045000,0.010829000,0.054405000,-0.012882730,-0.022217010,-0.004594870,-0.999659610,0.025989000,0.044315000,0.009769000,0.000551768,0.000157673,-0.000128264,-0.002060958,0.024918565,-0.002462499,0.010445843,0.001386235,1.001604418,0.000877532,-0.002013610,-0.000596581,0.000000000,0.000000000,0.000000000,0.000000000,0.018921871,0.010467873,0.054406155,0.045428607,-0.019246013,0.000755198,0.014049924,-0.005899371,0.001118450,0.387641906,-0.187906428,0.382210171,0.003377312,0.001651058,0.003329833,0.999986498,0.000000000,0.000000000,0.000000000,0.000000000,0.000000000,0.000000000,0.381080411,0.000000000,4.001173019
1772687567.633438110,0.018063000,0.010845000,0.054397000,-0.013150870,-0.021921010,-0.004737660,-0.999661980,0.026529000,0.043717000,0.010058000,0.000825234,0.000881644,-0.001320553,0.049142352,-0.032195608,0.019248967,0.010893632,0.001568666,1.001460198,0.004225379,0.000485230,0.002943659,0.000000000,0.000000000,0.000000000,0.000000000,0.018924883,0.010462824,0.054412335,0.045496949,-0.019291313,0.000866098,0.013706479,-0.005497514,0.001368796,0.386748451,-0.186960853,0.380359296,0.003369569,0.001642726,0.003313722,0.999986553,0.000000000,0.000000000,0.000000000,0.000000000,0.000000000,0.000000000,0.379837135,0.000000000,4.001173019
1772687567.643437862,0.018063000,0.010838000,0.054402000,-0.013386880,-0.021530410,-0.004843720,-0.999666830,0.027002000,0.042930000,0.010270000,0.000025389,0.000566220,-0.000857246,0.053987057,-0.039485642,0.025030787,0.010681792,0.001458135,1.000367266,0.001323524,0.002603782,0.003974706,0.000000000,0.000000000,0.000000000,0.000000000,0.018928851,0.010460970,0.054416756,0.045622521,-0.019302653,0.000971591,0.014504774,-0.004896890,0.000837386,0.386484720,-0.186519755,0.378787714,0.003367303,0.001638823,0.003300024,0.999986589,0.000000000,0.000000000,0.000000000,0.000000000,0.000000000,0.000000000,0.378423673,0.000000000,4.001173019
1772687567.653437138,0.018043000,0.010850000,0.054399000,-0.013777160,-0.021654230,-0.005033030,-0.999657920,0.027792000,0.043168000,0.010669000,-0.000673447,0.000125194,-0.000108489,0.022290195,-0.014650239,0.017088499,0.011150911,0.002005898,1.000425058,-0.000189595,-0.001359801,-0.000514142,0.000000000,0.000000000,0.000000000,0.000000000,0.018930397,0.010463128,0.054422463,0.045718056,-0.019282068,0.000963487,0.013064146,-0.004888922,-0.000541976,0.386392838,-0.186966224,0.378307580,0.003366495,0.001642703,0.003295823,0.999986543,0.000000000,0.000000000,0.000000000,0.000000000,0.000000000,0.000000000,0.378462229,0.000000000,4.001173019
1772687567.663437128,0.018038000,0.010860000,0.054382000,-0.013878980,-0.021491100,-0.005098030,-0.999659700,0.027997000,0.042839000,0.010799000,-0.000995397,-0.000640346,0.001142192,-0.030758673,0.043705765,-0.009643308,0.011976439,0.003828738,1.001702112,0.001876794,-0.002420975,-0.000214820,0.000000000,0.000000000,0.000000000,0.000000000,0.018933461,0.010464138,0.054426283,0.045861085,-0.019204632,0.000955887,0.015755011,-0.003083399,0.001663827,0.385558471,-0.188391232,0.378829753,0.003359165,0.001655130,0.003300350,0.999986583,0.000000000,0.000000000,0.000000000,0.000000000,0.000000000,0.000000000,0.378435102,0.000000000,4.001173019
1772687567.673437119,0.018040000,0.010848000,0.054374000,-0.013944260,-0.021272220,-0.005135270,-0.999663280,0.028127000,0.042400000,0.010870000,-0.000166764,-0.000663229,0.000726069,-0.046450610,0.045012280,-0.020835920,0.010651370,0.004882144,1.001424447,-0.001501017,-0.000061519,-0.001630613,0.000000000,0.000000000,0.000000000,0.000000000,0.018920128,0.010457397,0.054461735,0.046064172,-0.018963334,0.001218874,0.014314581,-0.002258019,0.001665083,0.385315726,-0.186413064,0.377834177,0.003357118,0.001637831,0.003291723,0.999986649,0.000000000,0.000000000,0.000000000,0.000000000,0.000000000,0.000000000,0.377838195,0.000000000,4.001173019
1772687567.683437109,0.018002000,0.010801000,0.054474000,-0.012462580,-0.022985100,-0.004583890,-0.999647620,0.025156000,0.045856000,0.009748000,0.000730751,-0.000414103,0.000332343,-0.040193501,0.024012269,-0.021419692,0.009512422,0.003920904,0.999460605,0.000079007,-0.001644116,-0.000389887,0.000000000,0.000000000,0.000000000,0.000000000,0.018925056,0.010461528,0.054454524,0.046190926,-0.018599059,0.001278505,0.012870715,-0.002671226,-0.000029062,0.385200900,-0.185051666,0.377678091,0.003356158,0.001625943,0.003290403,0.999986708,0.000000000,0.000000000,0.000000000,0.000000000,0.000000000,0.000000000,0.377435808,0.000000000,4.001173019
1772687567.693436861,0.018050000,0.010835000,0.054411000,-0.012758000,-0.022326660,-0.004642540,-0.999658540,0.025743000,0.044534000,0.009862000,0.000962821,0.000017483,-0.000130964,-0.013957566,-0.013620029,-0.010908901,0.010754561,0.001723363,0.999779609,-0.000267421,0.002282282,0.001666068,0.000000000,0.000000000,0.000000000,0.000000000,0.018944147,0.010469524,0.054433285,0.046237974,-0.018327764,0.001075878,0.013555620,-0.004495126,-0.000432046,0.384475809,-0.184266002,0.376867235,0.003349864,0.001619042,0.003283360,0.999986708,0.000000000,0.000000000,0.000000000,0.000000000,0.000000000,0.000000000,0.376505624,0.000000000,4.001173019
1772687567.703437090,0.018071000,0.010836000,0.054399000,-0.013168470,-0.021942020,-0.004669890,-0.999661610,0.026562000,0.043760000,0.009924000,0.000720805,0.000627856,-0.000827293,0.025269740,-0.044827229,0.004942738,0.010133673,-0.000192183,1.000310818,0.001220549,-0.001979060,-0.002051703,0.000000000,0.000000000,0.000000000,0.000000000,0.018945909,0.010476735,0.054422140,0.046311536,-0.018303914,0.000944594,0.013663511,-0.006812787,-0.000056424,0.383980576,-0.184275329,0.376559495,0.003345546,0.001619100,0.003280681,0.999986730,0.000000000,0.000000000,0.000000000,0.000000000,0.000000000,0.000000000,0.376744478,0.000000000,4.001173019
1772687567.713437080,0.018064000,0.010840000,0.054396000,-0.013358120,-0.021478200,-0.004849780,-0.999668310,0.026944000,0.042826000,0.010280000,0.000394911,0.000792134,-0.001328983,0.053823484,-0.070475145,0.017598722,0.009644151,0.000820207,0.999541134,0.000760210,-0.003401997,0.000034414,0.000000000,0.000000000,0.000000000,0.000000000,0.018945002,0.010484776,0.054416449,0.046339413,-0.018489417,0.000887040,0.013502161,-0.006287020,-0.000322167,0.384010114,-0.184743510,0.375993214,0.003345799,0.001623170,0.003275726,0.999986768,0.000000000,0.000000000,0.000000000,0.000000000,0.000000000,0.000000000,0.375260492,0.000000000,4.001173019
1772687567.723437548,0.018065000,0.010851000,0.054385000,-0.013634280,-0.021249420,-0.004883000,-0.999669310,0.027495000,0.042364000,0.010352000,-0.000055905,0.000579527,-0.001141260,0.058250717,-0.071825438,0.022445754,0.010421954,-0.000184229,1.000088422,-0.000454188,0.000605150,-0.001235159,0.000000000,0.000000000,0.000000000,0.000000000,0.018946696,0.010481795,0.054416585,0.046326403,-0.018576398,0.000799682,0.013189873,-0.006218438,-0.000293674,0.384478119,-0.183673297,0.374953278,0.003349928,0.001613814,0.003266676,0.999986785,0.000000000,0.000000000,0.000000000,0.000000000,0.000000000,0.000000000,0.374770704,0.000000000,4.001173019
1772687567.733438015,0.018042000,0.010858000,0.054383000,-0.013787480,-0.021063130,-0.004979370,-0.999670670,0.027804000,0.041987000,0.010546000,-0.000576516,-0.000094542,0.000202603,0.022313198,-0.029957245,0.010299185,0.010027167,0.002005183,1.001830399,0.001983994,0.000034989,-0.000385953,0.000000000,0.000000000,0.000000000,0.000000000,0.018945735,0.010483566,0.054410479,0.046340731,-0.018753854,0.000722826,0.013474899,-0.005508129,0.001333011,0.384621343,-0.182627087,0.374306062,0.003351217,0.001604669,0.003261056,0.999986827,0.000000000,0.000000000,0.000000000,0.000000000,0.000000000,0.000000000,0.373942855,0.000000000,4.001173019
1772687567.743437529,0.018053000,0.010848000,0.054377000,-0.013889370,-0.021000510,-0.004939820,-0.999670780,0.028005000,0.041862000,0.010469000,-0.000070649,-0.000192094,0.000120629,0.008555360,-0.020694577,0.006959077,0.010422868,0.002963628,1.001932550,0.002196428,0.001166140,-0.003811334,0.000000000,0.000000000,0.000000000,0.000000000,0.018946677,0.010478773,0.054405004,0.046349611,-0.018772314,0.000840290,0.013935584,-0.004439186,0.002468645,0.384486089,-0.182602740,0.373826720,0.003350044,0.001604439,0.003256875,0.999986827,0.000000000,0.000000000,0.000000000,0.000000000,0.000000000,0.000000000,0.373935786,0.000000000,4.001173019
1772687567.753437519,0.018057000,0.010837000,0.054388000,-0.013871300,-0.020895670,-0.004981780,-0.999673020,0.027970000,0.041652000,0.010549000,0.000399592,-0.000369736,0.000375894,0.003868090,-0.009516023,0.003462544,0.009754798,0.002212354,1.000577300,-0.001036719,0.005900919,0.004088426,0.000000000,0.000000000,0.000000000,0.000000000,0.018951373,0.010471457,0.054403463,0.046412107,-0.018713498,0.001006449,0.013550152,-0.004179421,0.000957628,0.385012101,-0.182484721,0.373167522,0.003354647,0.001603404,0.003251119,0.999986827,0.000000000,0.000000000,0.000000000,0.000000000,0.000000000,0.000000000,0.372378161,0.000000000,4.001173019
1772687567.763437510,0.018058000,0.010850000,0.054391000,-0.013845030,-0.020843320,-0.005024290,-0.999674260,0.027918000,0.041546000,0.010632000,0.000482091,-0.000326088,0.000432285,0.001414135,-0.001177815,0.002351700,0.010485133,0.000438693,0.999520506,0.001507077,0.000673553,-0.004947710,0.000000000,0.000000000,0.000000000,0.000000000,0.018951183,0.010472072,0.054412297,0.046388567,-0.018650266,0.001055853,0.013263889,-0.005408010,-0.000324790,0.385214680,-0.182893454,0.372353889,0.003356415,0.001606953,0.003244004,0.999986845,0.000000000,0.000000000,0.000000000,0.000000000,0.000000000,0.000000000,0.372810072,0.000000000,4.001173019
1772687567.773437977,0.018065000,0.010838000,0.054398000,-0.013838330,-0.020809860,-0.005013890,-0.999675100,0.027904000,0.041479000,0.010610000,0.000308625,-0.000029681,0.000261752,0.003406154,0.006701317,-0.000861074,0.008805372,-0.000106700,0.999086174,-0.000252285,0.002204032,-0.003430444,0.000000000,0.000000000,0.000000000,0.000000000,0.018949967,0.010478858,0.054416239,0.046411417,-0.018734151,0.000966030,0.012397722,-0.006830153,-0.000834263,0.384633542,-0.183447623,0.372341805,0.003351328,0.001611772,0.003243891,0.999986887,0.000000000,0.000000000,0.000000000,0.000000000,0.000000000,0.000000000,0.371626832,0.000000000,4.001173019
1772687567.783438444,0.018069000,0.010837000,0.054391000,-0.013887940,-0.020900110,-0.005046050,-0.999672370,0.028006000,0.041658000,0.010679000,-0.000256372,0.000198951,-0.000019542,0.003088073,0.017931082,-0.001783719,0.010312866,0.001837569,1.000444007,-0.002503449,0.000246780,0.002467983,0.000000000,0.000000000,0.000000000,0.000000000,0.018940957,0.010489477,0.054416836,0.046242433,-0.018886869,0.000813299,0.012998709,-0.005578511,-0.000154029,0.384885733,-0.183291129,0.370794202,0.003353555,0.001610369,0.003230387,0.999986887,0.000000000,0.000000000,0.000000000,0.000000000,0.000000000,0.000000000,0.370390052,0.000000000,4.001173019
1772687567.793438673,0.018065000,0.010843000,0.054401000,-0.013995600,-0.021053960,-0.004984660,-0.999667950,0.028220000,0.041967000,0.010565000,-0.000477098,0.000084985,-0.000116842,-0.000867076,0.023110365,-0.004749427,0.010821344,0.000139322,1.000106898,0.002163544,-0.000545608,0.001663156,0.000000000,0.000000000,0.000000000,0.000000000,0.018937025,0.010487289,0.054409717,0.046264683,-0.018876320,0.000786283,0.014158054,-0.005134578,0.000524581,0.384350319,-0.183710973,0.370383955,0.003348876,0.001614005,0.003226802,0.999986887,0.000000000,0.000000000,0.000000000,0.000000000,0.000000000,0.000000000,0.370679413,0.000000000,4.001173019
1772687567.803438902,0.018054000,0.010846000,0.054389000,-0.013942490,-0.021145760,-0.004953710,-0.999666910,0.028114000,0.042152000,0.010503000,-0.000526049,-0.000144250,-0.000050311,-0.005574752,0.020801038,-0.006106238,0.010012137,0.001262061,0.999416009,0.001597821,-0.000858010,0.001012726,0.000000000,0.000000000,0.000000000,0.000000000,0.018938890,0.010484471,0.054402206,0.046344027,-0.018964556,0.000745157,0.013551296,-0.006037615,-0.000097727,0.382959388,-0.184187556,0.371131152,0.003336714,0.001618147,0.003233328,0.999986889,0.000000000,0.000000000,0.000000000,0.000000000,0.000000000,0.000000000,0.371502602,0.000000000,4.001173019
1772687567.813438892,0.018046000,0.010847000,0.054391000,-0.013868300,-0.021210560,-0.004940470,-0.999666630,0.027966000,0.042283000,0.010476000,-0.000428283,-0.000139355,0.000095804,-0.008435009,0.011139834,-0.003462571,0.009278067,0.000592220,1.001307719,-0.002431929,0.000775305,-0.002591689,0.000000000,0.000000000,0.000000000,0.000000000,0.018944140,0.010475050,0.054402582,0.046374449,-0.019053342,0.000674861,0.012610720,-0.005628700,-0.000036844,0.382614024,-0.184489152,0.371798358,0.003333682,0.001620788,0.003239146,0.999986948,0.000000000,0.000000000,0.000000000,0.000000000,0.000000000,0.000000000,0.371272240,0.000000000,4.001173019
1772687567.823439121,0.018042000,0.010839000,0.054391000,-0.013770700,-0.021395640,-0.004967790,-0.999663900,0.027774000,0.042653000,0.010531000,-0.000223349,-0.000258703,0.000275700,-0.008362137,0.001115760,0.001876619,0.008961020,0.001462744,1.000666858,0.000568495,-0.000560021,-0.001466680,0.000000000,0.000000000,0.000000000,0.000000000,0.018952273,0.010464765,0.054407054,0.046352221,-0.019149212,0.000734351,0.012215945,-0.005477289,0.002087688,0.382391891,-0.184377080,0.370514741,0.003331765,0.001619767,0.003227951,0.999986996,0.000000000,0.000000000,0.000000000,0.000000000,0.000000000,0.000000000,0.369707351,0.000000000,4.001173019
1772687567.833439827,0.018049000,0.010831000,0.054405000,-0.013730540,-0.021215260,-0.004923510,-0.999668520,0.027689000,0.042294000,0.010436000,0.000313073,-0.000091103,-0.000095513,0.012665795,-0.021077696,0.011591507,0.009996476,0.000288804,1.000283492,0.001790237,-0.002734630,-0.001244332,0.000000000,0.000000000,0.000000000,0.000000000,0.018958128,0.010458871,0.054412929,0.046299657,-0.019201625,0.000806743,0.012525600,-0.005165931,0.000166505,0.381643670,-0.184855874,0.368677656,0.003325249,0.001623871,0.003211916,0.999987050,0.000000000,0.000000000,0.000000000,0.000000000,0.000000000,0.000000000,0.368247629,0.000000000,4.001173019
1772687567.843439102,0.018052000,0.010832000,0.054400000,-0.013816520,-0.021219830,-0.004946360,-0.999667120,0.027862000,0.042301000,0.010485000,-0.000018901,-0.000154118,0.000944601,-0.000999312,0.009116604,0.003549302,0.010449569,0.000224221,1.000060232,-0.000150406,0.001467692,-0.002223175,0.000000000,0.000000000,0.000000000,0.000000000,0.018958338,0.010460551,0.054418820,0.046280497,-0.019277507,0.000820332,0.013672251,-0.007206591,-0.000583874,0.381501720,-0.185130944,0.367865542,0.003324014,0.001626243,0.003204823,0.999987066,0.000000000,0.000000000,0.000000000,0.000000000,0.000000000,0.000000000,0.367634944,0.000000000,4.001173019
1772687567.853439569,0.018049000,0.010839000,0.054408000,-0.013828110,-0.021179840,-0.005059060,-0.999667250,0.027890000,0.042218000,0.010710000,-0.000460296,-0.000154992,0.001258626,-0.027328278,0.050676087,-0.010844640,0.010462586,0.001186766,1.000347779,-0.001029445,0.004281917,-0.001926055,0.000000000,0.000000000,0.000000000,0.000000000,0.018954735,0.010468677,0.054417775,0.046323691,-0.019380466,0.000760034,0.013709384,-0.004538741,-0.000175042,0.381497507,-0.183913188,0.367322181,0.003324019,0.001615601,0.003200117,0.999987103,0.000000000,0.000000000,0.000000000,0.000000000,0.000000000,0.000000000,0.367112124,0.000000000,4.001173019
1772687567.863439083,0.018047000,0.010839000,0.054409000,-0.013828950,-0.021333840,-0.005071520,-0.999663900,0.027894000,0.042526000,0.010740000,-0.000396815,-0.000147844,0.001005362,-0.048325549,0.077820802,-0.022200894,0.010822134,0.001751670,0.998976922,0.000701479,0.000315624,-0.000206174,0.000000000,0.000000000,0.000000000,0.000000000,0.018941001,0.010469749,0.054428107,0.046344357,-0.019382171,0.000762384,0.014274255,-0.005059466,0.000196965,0.380772858,-0.184694356,0.366740100,0.003317681,0.001622381,0.003195025,0.999987090,0.000000000,0.000000000,0.000000000,0.000000000,0.000000000,0.000000000,0.366544409,0.000000000,4.001173019
1772687567.873439312,0.018053000,0.010838000,0.054413000,-0.013850630,-0.021497050,-0.004964100,-0.999660640,0.027935000,0.042855000,0.010530000,-0.000161247,-0.000241492,0.000390171,-0.056346375,0.075609942,-0.026556942,0.010384434,0.002845087,0.997473005,0.001133376,-0.000905380,-0.001288434,0.000000000,0.000000000,0.000000000,0.000000000,0.018923763,0.010459207,0.054453439,0.046395829,-0.019369515,0.000770784,0.013552954,-0.004299112,-0.003393536,0.381321275,-0.184589956,0.365996893,0.003322480,0.001621463,0.003188535,0.999987066,0.000000000,0.000000000,0.000000000,0.000000000,0.000000000,0.000000000,0.366392353,0.000000000,4.001173019
1772687567.883438349,0.018006000,0.010815000,0.054492000,-0.012405940,-0.023259000,-0.004466160,-0.999642520,0.025040000,0.046407000,0.009517000,0.000133178,-0.000051826,-0.000303885,-0.043497514,0.041611658,-0.019364382,0.009441139,0.002797888,0.999753225,-0.000521175,0.000210446,-0.002333022,0.000000000,0.000000000,0.000000000,0.000000000,0.018936282,0.010462880,0.054430344,0.046496360,-0.019232784,0.000381192,0.013249107,-0.003834712,-0.001748264,0.381651133,-0.184359148,0.365776926,0.003325369,0.001619452,0.003186617,0.999987102,0.000000000,0.000000000,0.000000000,0.000000000,0.000000000,0.000000000,0.365576486,0.000000000,4.001173019
1772687567.893437862,0.018042000,0.010831000,0.054412000,-0.012735520,-0.022717130,-0.004539380,-0.999650510,0.025698000,0.045318000,0.009664000,0.000395688,0.000118784,-0.000896252,-0.012405255,-0.002635687,-0.004041204,0.009487420,0.001787637,1.001976252,-0.001835890,0.001151876,-0.000143344,0.000000000,0.000000000,0.000000000,0.000000000,0.018948498,0.010465744,0.054414897,0.046502133,-0.019077174,0.000223634,0.012342852,-0.003984974,0.002221511,0.382019258,-0.184686532,0.364282958,0.003328593,0.001622276,0.003173565,0.999987166,0.000000000,0.000000000,0.000000000,0.000000000,0.000000000,0.000000000,0.363814913,0.000000000,4.001173019
1772687567.903438091,0.018067000,0.010833000,0.054395000,-0.013011590,-0.022164100,-0.004683040,-0.999658700,0.026251000,0.044206000,0.009950000,0.000463054,0.000437646,-0.001169407,0.024542429,-0.045965296,0.015141534,0.011095130,0.001280218,1.000780082,-0.000153993,-0.000824752,-0.000057176,0.000000000,0.000000000,0.000000000,0.000000000,0.018959006,0.010463950,0.054412898,0.046497036,-0.019029698,0.000363978,0.013595266,-0.005651527,0.001680061,0.380205296,-0.185726882,0.363030245,0.003312752,0.001631268,0.003162629,0.999987185,0.000000000,0.000000000,0.000000000,0.000000000,0.000000000,0.000000000,0.363245113,0.000000000,4.001173019
1772687567.913437605,0.018053000,0.010837000,0.054394000,-0.013236570,-0.021679050,-0.004804840,-0.999665810,0.026701000,0.043230000,0.010190000,0.000351477,0.000582732,-0.001171233,0.053770476,-0.075511060,0.026893292,0.011265731,0.002126661,0.999765738,-0.003024295,0.000197721,0.003328034,0.000000000,0.000000000,0.000000000,0.000000000,0.018960556,0.010468037,0.054409007,0.046588235,-0.019016623,0.000404457,0.014931135,-0.005127130,-0.000986224,0.380254459,-0.185127099,0.362660673,0.003313203,0.001626025,0.003159421,0.999987231,0.000000000,0.000000000,0.000000000,0.000000000,0.000000000,0.000000000,0.362840639,0.000000000,4.001173019
1772687567.923437595,0.018048000,0.010851000,0.054393000,-0.013537400,-0.021509120,-0.004999980,-0.999664490,0.027309000,0.042882000,0.010589000,0.000208236,0.000326710,-0.000814375,0.060084044,-0.079390076,0.025889742,0.011103896,0.002312938,0.999430614,-0.002625651,0.001254620,0.001808377,0.000000000,0.000000000,0.000000000,0.000000000,0.018958992,0.010473047,0.054402317,0.046708885,-0.018958826,0.000321596,0.014340293,-0.003698532,0.000000566,0.378573305,-0.186171605,0.363635840,0.003298490,0.001635121,0.003167924,0.999987207,0.000000000,0.000000000,0.000000000,0.000000000,0.000000000,0.000000000,0.362901469,0.000000000,4.001173019
1772687567.933437109,0.018052000,0.010838000,0.054401000,-0.013722540,-0.021406740,-0.004984560,-0.999664240,0.027678000,0.042675000,0.010563000,-0.000295999,-0.000213015,0.000264142,0.027895485,-0.042199580,0.012269505,0.010786407,0.000605230,0.999301382,-0.000471020,0.000555394,-0.000559745,0.000000000,0.000000000,0.000000000,0.000000000,0.018957409,0.010476629,0.054395404,0.046788696,-0.018888020,0.000251172,0.014032329,-0.005753989,-0.000032829,0.378216863,-0.186406016,0.363844365,0.003295370,0.001637163,0.003169742,0.999987216,0.000000000,0.000000000,0.000000000,0.000000000,0.000000000,0.000000000,0.363833321,0.000000000,4.001173019
1772687567.943437099,0.018049000,0.010848000,0.054391000,-0.013834860,-0.021204290,-0.005018750,-0.999666840,0.027902000,0.042268000,0.010631000,0.000055536,-0.000357829,-0.000003477,0.016870357,-0.040114693,0.004056267,0.009876077,-0.000187445,1.000699772,-0.002778537,0.002961181,0.000856988,0.000000000,0.000000000,0.000000000,0.000000000,0.018973794,0.010471799,0.054390348,0.046910165,-0.018993998,0.000176961,0.014002320,-0.007045215,-0.000328170,0.377791983,-0.187046776,0.363753432,0.003291646,0.001642740,0.003168936,0.999987210,0.000000000,0.000000000,0.000000000,0.000000000,0.000000000,0.000000000,0.363722452,0.000000000,4.001173019
1772687567.953437090,0.018051000,0.010839000,0.054386000,-0.013845910,-0.020884020,-0.004999870,-0.999673520,0.027919000,0.041628000,0.010584000,0.000195999,-0.000130633,0.000129021,0.007033582,-0.030437490,-0.000193008,0.009759075,0.000540673,1.001349174,-0.003403715,0.003012889,0.002743168,0.000000000,0.000000000,0.000000000,0.000000000,0.019001639,0.010458063,0.054395351,0.046940330,-0.019219694,0.000232392,0.012266948,-0.006265438,0.002065508,0.377494244,-0.187753536,0.363770773,0.003289027,0.001648900,0.003169071,0.999987223,0.000000000,0.000000000,0.000000000,0.000000000,0.000000000,0.000000000,0.363817594,0.000000000,4.001173019
1772687567.963437080,0.018059000,0.010828000,0.054384000,-0.013838820,-0.020731030,-0.005024720,-0.999676680,0.027904000,0.041321000,0.010629000,-0.000130595,0.000182149,0.000237102,-0.002247437,-0.012414492,-0.000904135,0.010363439,-0.000447379,0.999585357,0.000262821,-0.000232615,-0.000282914,0.000000000,0.000000000,0.000000000,0.000000000,0.018978942,0.010464306,0.054400361,0.046740815,-0.019290793,0.000366093,0.013389464,-0.007319593,0.000440116,0.376103576,-0.188789591,0.363935612,0.003276861,0.001657908,0.003170501,0.999987245,0.000000000,0.000000000,0.000000000,0.000000000,0.000000000,0.000000000,0.364161594,0.000000000,4.001173019
1772687567.973437548,0.018054000,0.010835000,0.054401000,-0.013848410,-0.020704540,-0.005050770,-0.999676960,0.027924000,0.041268000,0.010681000,-0.000354235,0.000567949,0.000077331,-0.005905728,0.006634336,0.000532029,0.010470013,-0.000408780,0.999158256,-0.000022183,0.000702178,-0.001206806,0.000000000,0.000000000,0.000000000,0.000000000,0.018963082,0.010471253,0.054400526,0.046667740,-0.019441527,0.000309923,0.014382414,-0.006764261,-0.001766185,0.374338276,-0.189203603,0.364884806,0.003261431,0.001661499,0.003178797,0.999987286,0.000000000,0.000000000,0.000000000,0.000000000,0.000000000,0.000000000,0.364717099,0.000000000,4.001173019
1772687567.983437300,0.018052000,0.010847000,0.054401000,-0.013845480,-0.020733620,-0.004967310,-0.999676820,0.027915000,0.041328000,0.010515000,-0.000420610,0.000498039,-0.000037432,-0.007683871,0.028463695,-0.000313660,0.010703822,0.002042907,0.999320643,-0.000785197,0.001299837,-0.003182232,0.000000000,0.000000000,0.000000000,0.000000000,0.018954888,0.010474434,0.054395578,0.046683175,-0.019555647,0.000155432,0.014054079,-0.005269841,-0.000383669,0.373774997,-0.189383560,0.363504833,0.003256530,0.001663014,0.003166758,0.999987304,0.000000000,0.000000000,0.000000000,0.000000000,0.000000000,0.000000000,0.363364130,0.000000000,4.001173019
1772687567.993437290,0.018037000,0.010865000,0.054401000,-0.013793200,-0.021205040,-0.005041070,-0.999667290,0.027819000,0.042269000,0.010673000,-0.000202778,0.000189064,-0.000210140,-0.005585593,0.036152738,-0.000892019,0.010361645,0.002486072,1.000719773,-0.000745059,0.000730909,-0.000829397,0.000000000,0.000000000,0.000000000,0.000000000,0.018955340,0.010470114,0.054391512,0.046726427,-0.019499285,0.000081484,0.013908253,-0.003287885,0.000013491,0.373560501,-0.189593778,0.363522079,0.003254652,0.001664843,0.003166906,0.999987350,0.000000000,0.000000000,0.000000000,0.000000000,0.000000000,0.000000000,0.362767994,0.000000000,4.001173019
1772687568.003437042,0.018038000,0.010851000,0.054387000,-0.013702370,-0.021287480,-0.005038830,-0.999666790,0.027639000,0.042435000,0.010667000,0.000258819,-0.000444056,-0.000202953,-0.004076648,0.022553772,-0.003995795,0.010621855,0.002305641,1.001823383,-0.000592950,0.001637529,-0.002394774,0.000000000,0.000000000,0.000000000,0.000000000,0.018960612,0.010460825,0.054391500,0.046761546,-0.019385942,0.000143442,0.013726657,-0.003996300,0.001683874,0.373756561,-0.190123151,0.360912267,0.003256386,0.001669394,0.003144113,0.999987413,0.000000000,0.000000000,0.000000000,0.000000000,0.000000000,0.000000000,0.360599708,0.000000000,4.001173019
1772687568.013437033,0.018047000,0.010848000,0.054379000,-0.013732840,-0.021202630,-0.004995390,-0.999668400,0.027697000,0.042267000,0.010579000,0.000631877,-0.000886229,0.000156236,0.000291317,0.009482878,-0.004800081,0.010742865,0.001885453,1.001473965,0.000579099,0.002654836,0.003285052,0.000000000,0.000000000,0.000000000,0.000000000,0.018963450,0.010455137,0.054396359,0.046806354,-0.019293872,0.000314758,0.014366904,-0.004006350,0.001449783,0.373024129,-0.190128740,0.360333497,0.003250003,0.001669406,0.003139073,0.999987529,0.000000000,0.000000000,0.000000000,0.000000000,0.000000000,0.000000000,0.359457272,0.000000000,4.001173019
1772687568.023436308,0.018054000,0.010831000,0.054393000,-0.013739220,-0.021431570,-0.004994630,-0.999663430,0.027712000,0.042724000,0.010585000,0.000999069,-0.000419212,-0.000163656,0.021965229,-0.029523108,0.006089921,0.011341175,0.002481288,1.001295093,0.000635632,0.000698999,0.002921461,0.000000000,0.000000000,0.000000000,0.000000000,0.018961255,0.010457710,0.054401982,0.046862687,-0.019213152,0.000430541,0.014439151,-0.004274728,0.000937693,0.372156744,-0.189542035,0.358245019,0.003242480,0.001664204,0.003120877,0.999987501,0.000000000,0.000000000,0.000000000,0.000000000,0.000000000,0.000000000,0.358215150,0.000000000,4.001173019
1772687568.033437252,0.018070000,0.010820000,0.054402000,-0.013816810,-0.021182810,-0.004946490,-0.999667900,0.027862000,0.042227000,0.010485000,0.000105361,-0.000147650,0.000889589,0.000830374,-0.007296277,-0.001551917,0.011011472,0.003508766,1.000521677,-0.000780566,-0.001734171,-0.000826055,0.000000000,0.000000000,0.000000000,0.000000000,0.018955663,0.010466767,0.054404458,0.046926403,-0.019098517,0.000495367,0.015051283,-0.003291963,0.001038549,0.371727221,-0.189651427,0.358547390,0.003238724,0.001665155,0.003123519,0.999987483,0.000000000,0.000000000,0.000000000,0.000000000,0.000000000,0.000000000,0.358702630,0.000000000,4.001173019
1772687568.043437004,0.018068000,0.010828000,0.054408000,-0.013791080,-0.021021480,-0.004914350,-0.999671820,0.027808000,0.041906000,0.010415000,-0.000688909,0.000167949,0.001317445,-0.028773629,0.038232595,-0.012756075,0.009486356,0.003720677,0.999941855,-0.001303906,-0.003237293,-0.001039490,0.000000000,0.000000000,0.000000000,0.000000000,0.018947590,0.010480084,0.054402003,0.046974496,-0.018871272,0.000503866,0.013278843,-0.002824713,-0.000197380,0.371438924,-0.189789004,0.358593310,0.003236204,0.001666349,0.003123920,0.999987546,0.000000000,0.000000000,0.000000000,0.000000000,0.000000000,0.000000000,0.358501618,0.000000000,4.001173019
1772687568.053436756,0.018057000,0.010845000,0.054411000,-0.013872070,-0.021247230,-0.005016280,-0.999665420,0.027977000,0.042354000,0.010628000,-0.001078634,0.000358761,0.000824962,-0.050345372,0.063805076,-0.018530900,0.009163065,0.002768239,1.000215512,0.000525273,-0.003255498,0.000852133,0.000000000,0.000000000,0.000000000,0.000000000,0.018947314,0.010484538,0.054396702,0.046913946,-0.018650666,0.000426186,0.012857334,-0.003530890,0.000134032,0.370637463,-0.189360361,0.357991500,0.003229231,0.001662570,0.003118692,0.999987602,0.000000000,0.000000000,0.000000000,0.000000000,0.000000000,0.000000000,0.357630280,0.000000000,4.001173019
1772687568.063436747,0.018053000,0.010861000,0.054387000,-0.013829290,-0.021059090,-0.005095880,-0.999669590,0.027892000,0.041976000,0.010781000,-0.000784286,0.000271465,0.000229390,-0.054632724,0.070015028,-0.018727774,0.009840712,0.001454625,0.999917007,0.000004538,-0.000536393,-0.000285188,0.000000000,0.000000000,0.000000000,0.000000000,0.018950396,0.010486320,0.054392895,0.046834078,-0.018532842,0.000395484,0.012931867,-0.003825022,0.000454489,0.370132718,-0.188186372,0.357092476,0.003224871,0.001652286,0.003110887,0.999987602,0.000000000,0.000000000,0.000000000,0.000000000,0.000000000,0.000000000,0.356741124,0.000000000,4.001173019
1772687568.073436737,0.017992000,0.010819000,0.054491000,-0.012296130,-0.023162710,-0.004428690,-0.999646280,0.024818000,0.046217000,0.009434000,-0.000103011,-0.000119639,-0.000099398,-0.038635799,0.059871930,-0.012764851,0.010712192,0.001524998,1.001074192,-0.000843100,0.002071770,-0.001299595,0.000000000,0.000000000,0.000000000,0.000000000,0.018956442,0.010477804,0.054401055,0.046800590,-0.018530535,0.000419829,0.013049133,-0.005623646,0.000626922,0.370319317,-0.187163660,0.356717399,0.003226533,0.001643356,0.003107640,0.999987632,0.000000000,0.000000000,0.000000000,0.000000000,0.000000000,0.000000000,0.356721671,0.000000000,4.001173019
1772687568.083436728,0.018047000,0.010837000,0.054405000,-0.012816560,-0.022540940,-0.004567440,-0.999653330,0.025859000,0.044964000,0.009719000,0.000640346,-0.000315307,-0.000455226,-0.008069522,0.019145325,-0.004757219,0.012305019,0.003397520,1.002088484,0.000904746,0.002493187,0.001998524,0.000000000,0.000000000,0.000000000,0.000000000,0.018965207,0.010469145,0.054408187,0.046829224,-0.018582334,0.000514341,0.015722542,-0.003546753,0.001960433,0.369275040,-0.187745335,0.356641451,0.003217405,0.001648401,0.003106976,0.999987662,0.000000000,0.000000000,0.000000000,0.000000000,0.000000000,0.000000000,0.356593883,0.000000000,4.001173019
1772687568.093437433,0.018052000,0.010846000,0.054390000,-0.013090070,-0.022066250,-0.004809790,-0.999659240,0.026412000,0.044006000,0.010204000,0.000984500,-0.000155633,-0.000744989,0.027024211,-0.027161831,0.006565807,0.010698288,0.002218561,1.000704982,-0.001815924,0.002366416,0.000543259,0.000000000,0.000000000,0.000000000,0.000000000,0.018966836,0.010472582,0.054412386,0.047030370,-0.018367649,0.000718217,0.014748711,-0.002773499,0.002043941,0.368624318,-0.189120045,0.356173834,0.003211696,0.001660367,0.003102866,0.999987662,0.000000000,0.000000000,0.000000000,0.000000000,0.000000000,0.000000000,0.356109442,0.000000000,4.001173019
1772687568.103437901,0.018070000,0.010829000,0.054406000,-0.013303840,-0.021985000,-0.004832060,-0.999658100,0.026840000,0.043840000,0.010256000,0.000733295,0.000274651,-0.001078070,0.053834222,-0.061636865,0.017319006,0.009177983,0.001003494,0.999587787,-0.001300963,0.003433259,0.004501861,0.000000000,0.000000000,0.000000000,0.000000000,0.018966480,0.010480723,0.054406708,0.047034475,-0.018264499,0.000730921,0.012594626,-0.006993955,-0.001025569,0.367605278,-0.190763916,0.356688335,0.003202751,0.001674699,0.003107325,0.999987758,0.000000000,0.000000000,0.000000000,0.000000000,0.000000000,0.000000000,0.356184918,0.000000000,4.001173019
1772687568.113438606,0.018066000,0.010835000,0.054405000,-0.013579040,-0.021745730,-0.004856810,-0.999659510,0.027389000,0.043358000,0.010311000,0.000343338,0.000485490,-0.001044368,0.056294759,-0.078623090,0.017473952,0.009486589,0.002120850,0.999012164,0.000923616,0.001196480,0.005647913,0.000000000,0.000000000,0.000000000,0.000000000,0.018962333,0.010487622,0.054400588,0.046890677,-0.018283309,0.000609853,0.012692963,-0.003711292,-0.000486619,0.365893501,-0.191245688,0.354745659,0.003187829,0.001678803,0.003090383,0.999987639,0.000000000,0.000000000,0.000000000,0.000000000,0.000000000,0.000000000,0.355758925,0.000000000,4.001173019
1772687568.123438358,0.018057000,0.010846000,0.054392000,-0.013693530,-0.021392930,-0.004848040,-0.999665610,0.027614000,0.042652000,0.010288000,-0.000410548,0.000039122,0.000151807,0.019263636,-0.042957713,0.000633664,0.010291846,0.000825216,0.999661215,-0.000577680,0.002621700,0.002804286,0.000000000,0.000000000,0.000000000,0.000000000,0.018959682,0.010493594,0.054398779,0.046807846,-0.018221521,0.000483353,0.013856963,-0.004680356,-0.001317290,0.366062963,-0.192771685,0.358097323,0.003189216,0.001692217,0.003119587,0.999987602,0.000000000,0.000000000,0.000000000,0.000000000,0.000000000,0.000000000,0.358398617,0.000000000,4.001173019
1772687568.133439064,0.018053000,0.010847000,0.054386000,-0.013812690,-0.021257170,-0.004903740,-0.999666590,0.027853000,0.042377000,0.010401000,-0.000136247,0.000042327,-0.000132401,0.009432414,-0.036370275,-0.001532623,0.010549525,0.000793274,1.000280417,-0.000134847,-0.000832415,0.004103080,0.000000000,0.000000000,0.000000000,0.000000000,0.018956599,0.010494135,0.054400452,0.046791232,-0.018242515,0.000404426,0.013838100,-0.005191413,0.000296882,0.366399872,-0.192336130,0.358761555,0.003192158,0.001688444,0.003125390,0.999987602,0.000000000,0.000000000,0.000000000,0.000000000,0.000000000,0.000000000,0.358716565,0.000000000,4.001173019
1772687568.143438339,0.018049000,0.010849000,0.054377000,-0.013782380,-0.021024760,-0.004861970,-0.999672130,0.027788000,0.041914000,0.010310000,-0.000214802,0.000158120,-0.000010334,0.001704348,-0.025555045,0.000751554,0.009088010,0.002887164,1.000508368,0.000562273,0.003373579,0.004119893,0.000000000,0.000000000,0.000000000,0.000000000,0.018959679,0.010484240,0.054400776,0.046795402,-0.018321885,0.000393022,0.013073175,-0.004023194,0.000318993,0.364866636,-0.193620913,0.358927801,0.003178741,0.001699618,0.003126828,0.999987590,0.000000000,0.000000000,0.000000000,0.000000000,0.000000000,0.000000000,0.359430250,0.000000000,4.001173019
1772687568.153438807,0.018066000,0.010840000,0.054393000,-0.013792660,-0.020877390,-0.004832770,-0.999675220,0.027806000,0.041620000,0.010247000,-0.000115307,0.000113967,0.000213792,-0.002214956,-0.011181526,0.002244525,0.010751849,0.001998477,1.000156192,0.001306449,0.001460239,-0.002209935,0.000000000,0.000000000,0.000000000,0.000000000,0.018961868,0.010486654,0.054398078,0.046685887,-0.018136383,0.000391388,0.013327306,-0.003963970,0.000248287,0.364865426,-0.193543442,0.361255779,0.003178698,0.001699007,0.003147145,0.999987524,0.000000000,0.000000000,0.000000000,0.000000000,0.000000000,0.000000000,0.362329912,0.000000000,4.001173019
1772687568.163438320,0.018059000,0.010838000,0.054400000,-0.013710860,-0.020930460,-0.004885340,-0.999674980,0.027645000,0.041725000,0.010351000,-0.000198388,0.000220824,0.000193842,-0.000309709,0.000137745,0.002971069,0.011551457,0.002091568,1.000093273,0.000275878,0.001956266,0.001613048,0.000000000,0.000000000,0.000000000,0.000000000,0.018961029,0.010492171,0.054394947,0.046717613,-0.018071499,0.000365337,0.014705055,-0.004482696,0.000166850,0.364117420,-0.194230411,0.361726125,0.003172145,0.001704994,0.003151241,0.999987535,0.000000000,0.000000000,0.000000000,0.000000000,0.000000000,0.000000000,0.361398615,0.000000000,4.001173019
1772687568.173438311,0.018051000,0.010848000,0.054398000,-0.013780070,-0.021061430,-0.004908920,-0.999671160,0.027786000,0.041986000,0.010404000,-0.000102467,0.000087005,-0.000049825,0.002514681,0.001276420,0.002752489,0.011454722,0.003330129,0.998860307,-0.002654750,0.000625951,0.001186057,0.000000000,0.000000000,0.000000000,0.000000000,0.018960696,0.010495584,0.054391975,0.046832599,-0.017977190,0.000318902,0.014995071,-0.002507440,-0.000808564,0.363915618,-0.195667119,0.362584476,0.003170331,0.001717550,0.003158695,0.999987483,0.000000000,0.000000000,0.000000000,0.000000000,0.000000000,0.000000000,0.362677896,0.000000000,4.001173019
1772687568.183438301,0.018042000,0.010859000,0.054390000,-0.013838840,-0.020980730,-0.004924270,-0.999671970,0.027903000,0.041824000,0.010435000,0.000050466,-0.000232304,-0.000180303,0.005364202,0.000003377,0.003351859,0.011466405,0.001862378,0.999299111,0.000197688,-0.000470117,-0.002582576,0.000000000,0.000000000,0.000000000,0.000000000,0.018965287,0.010494311,0.054390849,0.046943719,-0.017794869,0.000195776,0.014381564,-0.004115667,-0.001271607,0.363798218,-0.195813123,0.362635256,0.003169301,0.001718822,0.003159136,0.999987527,0.000000000,0.000000000,0.000000000,0.000000000,0.000000000,0.000000000,0.362735898,0.000000000,4.001173019
1772687568.193438768,0.018051000,0.010851000,0.054384000,-0.013821950,-0.020910520,-0.004953910,-0.999673530,0.027870000,0.041683000,0.010492000,0.000249864,-0.000565502,-0.000121737,0.003233734,-0.006363537,0.000978626,0.009756781,0.001310417,1.000559306,0.000052833,-0.002439449,-0.001847377,0.000000000,0.000000000,0.000000000,0.000000000,0.018951248,0.010483967,0.054417819,0.046987473,-0.017763727,0.000229353,0.015060235,-0.005101713,0.000491343,0.362641903,-0.196830262,0.363097755,0.003159176,0.001727679,0.003163161,0.999987499,0.000000000,0.000000000,0.000000000,0.000000000,0.000000000,0.000000000,0.362850339,0.000000000,4.001173019
1772687568.203438282,0.018055000,0.010839000,0.054388000,-0.013855640,-0.020976930,-0.004910890,-0.999671880,0.027936000,0.041816000,0.010409000,0.000241298,-0.000489919,0.000185936,0.002166270,-0.005618462,0.001788771,0.009230724,0.000829220,1.001903828,0.000817908,-0.000812596,0.000681077,0.000000000,0.000000000,0.000000000,0.000000000,0.018936036,0.010478458,0.054439748,0.046929919,-0.017779816,0.000356008,0.011929251,-0.004626208,0.001084680,0.363659048,-0.196686254,0.361952028,0.003168073,0.001726419,0.003153151,0.999987527,0.000000000,0.000000000,0.000000000,0.000000000,0.000000000,0.000000000,0.361839432,0.000000000,4.001173019
1772687568.213438511,0.018068000,0.010822000,0.054391000,-0.013857860,-0.020822900,-0.004931410,-0.999674970,0.027940000,0.041508000,0.010446000,-0.000115016,-0.000187685,0.000335665,-0.002069778,0.004212535,0.006111823,0.009948889,-0.000351380,1.001587664,0.000897646,-0.000012600,0.001472537,0.000000000,0.000000000,0.000000000,0.000000000,0.018942326,0.010485963,0.054422718,0.046860972,-0.017782533,0.000381055,0.012790490,-0.006272316,0.001502234,0.363508806,-0.196126377,0.362106677,0.003166776,0.001721533,0.003154519,0.999987543,0.000000000,0.000000000,0.000000000,0.000000000,0.000000000,0.000000000,0.362322715,0.000000000,4.001173019
1772687568.223438740,0.018058000,0.010828000,0.054400000,-0.013822970,-0.020880390,-0.004970380,-0.999674060,0.027872000,0.041622000,0.010524000,-0.000476749,0.000421659,0.000036538,-0.003730951,0.009809527,0.008619515,0.010452486,-0.001028253,0.999814146,-0.001626755,-0.000725286,0.000505578,0.000000000,0.000000000,0.000000000,0.000000000,0.018948867,0.010492387,0.054408730,0.046836254,-0.017858832,0.000439708,0.014068056,-0.006816762,0.000255893,0.363446411,-0.196190431,0.362465421,0.003166224,0.001722100,0.003157649,0.999987543,0.000000000,0.000000000,0.000000000,0.000000000,0.000000000,0.000000000,0.362579218,0.000000000,4.001173019
1772687568.233438730,0.018050000,0.010839000,0.054402000,-0.013786030,-0.020949500,-0.004994290,-0.999673010,0.027800000,0.041760000,0.010572000,-0.000698991,0.000784985,-0.000208586,-0.004117209,0.009713525,0.008830440,0.010984815,0.000077264,0.998240376,-0.002161656,0.000619291,-0.002540639,0.000000000,0.000000000,0.000000000,0.000000000,0.018957534,0.010496603,0.054403842,0.046891584,-0.018063349,0.000376797,0.014554057,-0.006051325,-0.000960160,0.363317298,-0.195913502,0.362220427,0.003165108,0.001719674,0.003155520,0.999987589,0.000000000,0.000000000,0.000000000,0.000000000,0.000000000,0.000000000,0.361922966,0.000000000,4.001173019
1772687568.243438482,0.018030000,0.010864000,0.054393000,-0.013839870,-0.021148550,-0.005124980,-0.999667410,0.027916000,0.042154000,0.010842000,-0.000303652,0.000424728,-0.000278069,-0.003884292,0.004167243,0.004907245,0.011681180,0.000274502,0.999550850,0.000546727,0.001300360,0.002029829,0.000000000,0.000000000,0.000000000,0.000000000,0.018962976,0.010492452,0.054402551,0.046987213,-0.018187484,0.000192374,0.015391056,-0.005756378,-0.000602101,0.362165766,-0.195211998,0.360918094,0.003155099,0.001713484,0.003144192,0.999987662,0.000000000,0.000000000,0.000000000,0.000000000,0.000000000,0.000000000,0.360330428,0.000000000,4.001173019
1772687568.253438711,0.018038000,0.010853000,0.054385000,-0.013747090,-0.021121060,-0.005131270,-0.999669240,0.027730000,0.042099000,0.010850000,0.000196193,-0.000177759,0.000013792,-0.003584740,-0.002630543,0.000056300,0.010856584,0.001096411,0.999615286,0.001118562,0.000581004,0.001854309,0.000000000,0.000000000,0.000000000,0.000000000,0.018960445,0.010486803,0.054398039,0.047123997,-0.018299738,0.000112149,0.014381827,-0.004504433,0.000297457,0.360835185,-0.195078767,0.360298627,0.003143500,0.001712268,0.003138810,0.999987698,0.000000000,0.000000000,0.000000000,0.000000000,0.000000000,0.000000000,0.360173096,0.000000000,4.001173019
1772687568.263439417,0.018046000,0.010853000,0.054377000,-0.013756300,-0.020903430,-0.005052640,-0.999674090,0.027743000,0.041666000,0.010687000,0.000709500,-0.000735626,0.000276651,0.001156147,-0.011722393,-0.005989790,0.010076289,0.001068658,0.999814542,0.001640206,-0.000276014,0.001920857,0.000000000,0.000000000,0.000000000,0.000000000,0.018955849,0.010489785,0.054390205,0.047173167,-0.018300229,0.000054479,0.013275430,-0.005031959,0.000545477,0.360152035,-0.195594213,0.359147151,0.003137542,0.001716716,0.003128757,0.999987721,0.000000000,0.000000000,0.000000000,0.000000000,0.000000000,0.000000000,0.358643306,0.000000000,4.001173019
1772687568.273439169,0.018054000,0.010832000,0.054400000,-0.013777870,-0.020942130,-0.005012610,-0.999673180,0.027784000,0.041745000,0.010608000,0.000773777,-0.000767289,0.000391764,0.004584567,-0.015223846,-0.009166684,0.010015680,0.001030348,0.999448604,0.000599258,-0.001690309,-0.001160846,0.000000000,0.000000000,0.000000000,0.000000000,0.018957628,0.010486484,0.054386244,0.047139667,-0.018326082,0.000027945,0.013828565,-0.005044423,-0.000227681,0.360258697,-0.195804987,0.358088876,0.003138483,0.001718529,0.003119515,0.999987753,0.000000000,0.000000000,0.000000000,0.000000000,0.000000000,0.000000000,0.357772184,0.000000000,4.001173019
1772687568.283439159,0.018071000,0.010818000,0.054405000,-0.013791860,-0.020824930,-0.004944510,-0.999675780,0.027808000,0.041512000,0.010469000,0.000453322,-0.000415210,0.000210567,0.006333080,-0.010192952,-0.011859189,0.009000748,0.000931850,0.999227667,-0.001539350,-0.000361768,-0.003662117,0.000000000,0.000000000,0.000000000,0.000000000,0.018964413,0.010485915,0.054387489,0.047136572,-0.018368644,-0.000023285,0.012130303,-0.005290902,-0.001035924,0.360417091,-0.194992602,0.357323032,0.003139898,0.001711423,0.003112851,0.999987809,0.000000000,0.000000000,0.000000000,0.000000000,0.000000000,0.000000000,0.357049281,0.000000000,4.001173019
1772687568.293439150,0.018062000,0.010831000,0.054409000,-0.013793480,-0.020831000,-0.004971030,-0.999675500,0.027813000,0.041523000,0.010523000,-0.000008372,0.000361500,-0.000152253,0.005052635,0.003378206,-0.009242002,0.010771053,0.000277062,0.999524545,-0.001711888,-0.000007045,-0.000171734,0.000000000,0.000000000,0.000000000,0.000000000,0.018965889,0.010485189,0.054393831,0.046998299,-0.018430351,-0.000098000,0.013612234,-0.006232408,-0.000161293,0.360321663,-0.193637549,0.355931012,0.003139123,0.001699558,0.003100743,0.999987871,0.000000000,0.000000000,0.000000000,0.000000000,0.000000000,0.000000000,0.355247313,0.000000000,4.001173019
1772687568.303439617,0.018061000,0.010838000,0.054393000,-0.013947450,-0.020859580,-0.004854960,-0.999673330,0.028116000,0.041582000,0.010298000,-0.000369251,0.000724534,-0.000400156,-0.000385785,0.010881563,-0.004020938,0.010911231,0.000504608,0.998675077,0.000523819,0.000643144,-0.001369205,0.000000000,0.000000000,0.000000000,0.000000000,0.018968189,0.010486637,0.054397058,0.047029518,-0.018546365,-0.000148553,0.014394122,-0.006083909,-0.001522519,0.359769998,-0.192134556,0.354783235,0.003134367,0.001686395,0.003090776,0.999987934,0.000000000,0.000000000,0.000000000,0.000000000,0.000000000,0.000000000,0.354509897,0.000000000,4.001173019
1772687568.313439846,0.018055000,0.010846000,0.054384000,-0.013849430,-0.020871100,-0.004887050,-0.999674300,0.027922000,0.041605000,0.010358000,-0.000415560,0.000606450,-0.000446057,-0.002910510,0.006882185,0.000919580,0.009392658,0.000395589,0.999096486,-0.000213085,0.001902619,-0.000366153,0.000000000,0.000000000,0.000000000,0.000000000,0.018967584,0.010485500,0.054393560,0.047103744,-0.018627350,-0.000296443,0.013199425,-0.005378800,-0.000771574,0.358983236,-0.191259610,0.353711598,0.003127541,0.001678709,0.003081460,0.999987992,0.000000000,0.000000000,0.000000000,0.000000000,0.000000000,0.000000000,0.353186657,0.000000000,4.001173019
1772687568.323440075,0.018050000,0.010849000,0.054383000,-0.013805440,-0.021020300,-0.004823570,-0.999672090,0.027833000,0.041906000,0.010234000,-0.000240404,0.000142852,-0.000117152,-0.003763855,0.001680260,0.005128984,0.009520193,0.001428241,0.998646803,-0.001298664,0.001887947,-0.000654776,0.000000000,0.000000000,0.000000000,0.000000000,0.018964178,0.010484385,0.054384539,0.047042914,-0.018705298,-0.000406845,0.012385985,-0.004960151,-0.000896453,0.358706110,-0.191248840,0.352940463,0.003125134,0.001678587,0.003074735,0.999988019,0.000000000,0.000000000,0.000000000,0.000000000,0.000000000,0.000000000,0.352736915,0.000000000,4.001173019
1772687568.333440065,0.018055000,0.010857000,0.054390000,-0.013743330,-0.021054930,-0.004933920,-0.999671680,0.027713000,0.041973000,0.010453000,0.000145824,-0.000255498,0.000118085,-0.003036901,-0.005749863,0.007259768,0.010624389,0.002305004,0.998298919,0.002633833,-0.001605333,-0.004063064,0.000000000,0.000000000,0.000000000,0.000000000,0.018961474,0.010482058,0.054381461,0.046949645,-0.018713699,-0.000519294,0.013759615,-0.004404654,-0.001582836,0.357797214,-0.192012866,0.353168594,0.003117178,0.001685236,0.003076718,0.999988047,0.000000000,0.000000000,0.000000000,0.000000000,0.000000000,0.000000000,0.353480356,0.000000000,4.001173019
1772687568.343440056,0.018047000,0.010842000,0.054396000,-0.013781410,-0.020903240,-0.005024220,-0.999673890,0.027792000,0.041666000,0.010631000,0.000136908,-0.000232673,0.000212821,-0.001951880,-0.009272203,0.009400907,0.009749558,0.001107772,0.999471395,-0.000219279,-0.003857171,-0.002040710,0.000000000,0.000000000,0.000000000,0.000000000,0.018957646,0.010480561,0.054380017,0.046982954,-0.018641624,-0.000664993,0.013649989,-0.004651825,-0.000275887,0.356972736,-0.192281305,0.352003476,0.003109993,0.001687525,0.003066556,0.999988079,0.000000000,0.000000000,0.000000000,0.000000000,0.000000000,0.000000000,0.351212545,0.000000000,4.001173019
1772687568.353440285,0.018062000,0.010829000,0.054393000,-0.013833240,-0.020750060,-0.005009410,-0.999676440,0.027893000,0.041360000,0.010599000,0.000193784,-0.000067968,-0.000047339,0.001444462,-0.004914822,0.005521184,0.009175187,-0.000108338,1.000417268,-0.002078142,-0.002960599,0.000940196,0.000000000,0.000000000,0.000000000,0.000000000,0.018958360,0.010481610,0.054383172,0.046955852,-0.018656633,-0.000667803,0.012002539,-0.005637246,0.000160142,0.357822673,-0.191289437,0.349837213,0.003117469,0.001678833,0.003047666,0.999988163,0.000000000,0.000000000,0.000000000,0.000000000,0.000000000,0.000000000,0.349483406,0.000000000,4.001173019
1772687568.363440752,0.018060000,0.010843000,0.054389000,-0.013818710,-0.020800120,-0.005005400,-0.999675620,0.027864000,0.041460000,0.010592000,0.000565832,0.000211111,-0.000841182,0.017738872,-0.022811979,0.007729300,0.010233514,0.000706838,1.001185344,0.000721964,0.000852570,0.002742091,0.000000000,0.000000000,0.000000000,0.000000000,0.018959062,0.010484396,0.054385346,0.046873125,-0.018761773,-0.000600286,0.013600278,-0.006467042,0.001111246,0.356253185,-0.191151547,0.349349375,0.003103784,0.001677575,0.003043436,0.999988198,0.000000000,0.000000000,0.000000000,0.000000000,0.000000000,0.000000000,0.349234553,0.000000000,4.001173019
1772687568.373440504,0.018061000,0.010846000,0.054387000,-0.013805890,-0.020892380,-0.005021680,-0.999673790,0.027840000,0.041645000,0.010626000,-0.000151204,-0.000129060,0.000262996,-0.003248602,0.018830773,-0.003739939,0.011694600,0.002601393,1.000058088,0.000453394,0.001487110,-0.000405248,0.000000000,0.000000000,0.000000000,0.000000000,0.018960428,0.010483635,0.054383924,0.046908408,-0.018830020,-0.000501264,0.014418399,-0.004460169,0.001182254,0.355747658,-0.189421965,0.348911915,0.003099424,0.001662456,0.003039673,0.999988198,0.000000000,0.000000000,0.000000000,0.000000000,0.000000000,0.000000000,0.348792679,0.000000000,4.001173019
1772687568.383440495,0.018052000,0.010850000,0.054384000,-0.013769800,-0.020964220,-0.005042670,-0.999672680,0.027770000,0.041788000,0.010669000,-0.000666998,-0.000330653,0.001089822,-0.032542589,0.064589718,-0.013865527,0.010630222,0.002406498,0.998588798,-0.001435889,0.000061237,-0.002062633,0.000000000,0.000000000,0.000000000,0.000000000,0.018959271,0.010482372,0.054380250,0.047017252,-0.018751589,-0.000465076,0.014857880,-0.003696736,-0.000229729,0.355542707,-0.188647000,0.348645490,0.003097660,0.001655681,0.003037371,0.999988276,0.000000000,0.000000000,0.000000000,0.000000000,0.000000000,0.000000000,0.348364202,0.000000000,4.001173019
1772687568.393440247,0.018064000,0.010845000,0.054382000,-0.013799690,-0.021108560,-0.004974210,-0.999669570,0.027828000,0.042078000,0.010537000,-0.000936539,-0.000551185,0.001212686,-0.051285930,0.085848275,-0.019271119,0.009009691,0.002078318,0.998821029,-0.000912552,-0.000276444,-0.000220022,0.000000000,0.000000000,0.000000000,0.000000000,0.018962500,0.010480094,0.054380687,0.047108287,-0.018634926,-0.000539196,0.011990643,-0.003879363,-0.001745061,0.355080913,-0.186923228,0.347372701,0.003093694,0.001640592,0.003026318,0.999988317,0.000000000,0.000000000,0.000000000,0.000000000,0.000000000,0.000000000,0.346909777,0.000000000,4.001173019
