t,px,py,pz,qx,qy,qz,qw,roll,pitch,yaw,vx,vy,vz,wx_vicon,wy_vicon,wz_vicon,imu_acc_x,imu_acc_y,imu_acc_z,imu_gyro_x,imu_gyro_y,imu_gyro_z,motor_motor_m1,motor_motor_m2,motor_motor_m3,motor_motor_m4,est_stateEstimate_x,est_stateEstimate_y,est_stateEstimate_z,est_stateEstimate_vx,est_stateEstimate_vy,est_stateEstimate_vz,est_stateEstimate_ax,est_stateEstimate_ay,est_stateEstimate_az,att_stateEstimate_roll,att_stateEstimate_pitch,att_stateEstimate_yaw,att_stateEstimate_qx,att_stateEstimate_qy,att_stateEstimate_qz,att_stateEstimate_qw,sp_ctrltarget_x,sp_ctrltarget_y,sp_ctrltarget_z,sp_ctrltarget_yaw,pid_controller_roll,pid_controller_pitch,pid_controller_yaw,pid_controller_cmd_thrust,pwr_pm_vbat
1772687502.252689838,0.014925000,0.005751000,0.054389000,-0.012483650,-0.021035130,0.010849490,-0.999641920,0.024526000,0.042339000,-0.021187000,-0.002963367,-0.002041474,0.009329496,-0.269229139,0.393691154,-0.137285420,0.014503174,0.000282325,1.000005472,0.003282054,0.002733874,0.001293041,0.000000000,0.000000000,0.000000000,0.000000000,0.015872593,0.005428642,0.054480419,0.051762721,-0.016877050,0.001826268,0.015205075,-0.004807581,-0.000441612,0.328392959,-0.042128764,-0.871604432,0.002868476,0.000345834,-0.007607125,0.999965921,0.000000000,0.000000000,0.000000000,0.000000000,0.000000000,0.000000000,-0.871333930,0.000000000,4.080351830
1772687502.262689829,0.014880000,0.005710000,0.054494000,-0.011399360,-0.022787900,0.011274510,-0.999611750,0.022301000,0.045831000,-0.022046000,-0.000850079,0.001150720,0.000253497,-0.011108747,0.021629600,-0.017989661,0.012851066,-0.001268423,1.000082728,-0.001808436,0.001053077,-0.001420170,0.000000000,0.000000000,0.000000000,0.000000000,0.015879991,0.005421683,0.054485346,0.051777792,-0.016964472,0.001749476,0.013899326,-0.006983712,-0.000228417,0.327527693,-0.043025426,-0.869981224,0.002860980,0.000353756,-0.007592980,0.999966018,0.000000000,0.000000000,0.000000000,0.000000000,0.000000000,0.000000000,-0.869346277,0.000000000,4.080351830
1772687502.272689581,0.014914000,0.005775000,0.054395000,-0.012299470,-0.021398260,0.011048000,-0.999634320,0.024142000,0.043066000,-0.021583000,0.000232207,0.002346292,-0.003881239,0.117040864,-0.164872134,0.042091117,0.013679622,0.000192998,0.999593090,-0.002817069,0.000031006,0.002387988,0.000000000,0.000000000,0.000000000,0.000000000,0.015875266,0.005403639,0.054508308,0.051638359,-0.017259946,0.001748776,0.014576146,-0.006269069,-0.001254072,0.326960081,-0.043838417,-0.868855224,0.002856077,0.000360916,-0.007583172,0.999966145,0.000000000,0.000000000,0.000000000,0.000000000,0.000000000,0.000000000,-0.868949783,0.000000000,4.080351830
1772687502.282689810,0.014910000,0.005790000,0.054371000,-0.012834520,-0.020417980,0.010841490,-0.999650360,0.025241000,0.041112000,-0.021171000,0.000547825,0.002098390,-0.004367020,0.146414174,-0.210247496,0.057156602,0.014918059,0.001529068,0.998629982,-0.002251161,-0.002732699,0.001891747,0.000000000,0.000000000,0.000000000,0.000000000,0.015873204,0.005391545,0.054514872,0.051618038,-0.017375616,0.001607163,0.015637318,-0.004525653,-0.001379602,0.326027546,-0.043613036,-0.868073852,0.002847922,0.000359031,-0.007576346,0.999966188,0.000000000,0.000000000,0.000000000,0.000000000,0.000000000,0.000000000,-0.867726308,0.000000000,4.080351830
1772687502.292690039,0.014897000,0.005795000,0.054350000,-0.013338480,-0.019948480,0.010751170,-0.999654220,0.026263000,0.040181000,-0.020981000,0.000361111,0.000960160,-0.002496156,0.108138558,-0.158934653,0.041538655,0.014825920,0.002411305,0.999167534,0.000783441,0.001675643,0.001708245,0.000000000,0.000000000,0.000000000,0.000000000,0.015871353,0.005375027,0.054522451,0.051684758,-0.017359002,0.001426105,0.015937107,-0.003963437,-0.000325662,0.324679098,-0.042830920,-0.865859815,0.002836096,0.000352350,-0.007557002,0.999966356,0.000000000,0.000000000,0.000000000,0.000000000,0.000000000,0.000000000,-0.865339271,0.000000000,4.080351830
1772687502.302690268,0.014902000,0.005793000,0.054349000,-0.013591720,-0.019593750,0.010621800,-0.999659210,0.026782000,0.039473000,-0.020721000,-0.000063598,-0.000515249,0.000439045,0.033370068,-0.055407343,0.009369232,0.016242715,0.001450475,0.999746737,0.002107220,0.003144190,0.000542636,0.000000000,0.000000000,0.000000000,0.000000000,0.015871851,0.005374046,0.054520857,0.051785364,-0.017233281,0.001306726,0.016319272,-0.004631699,-0.000228499,0.323767288,-0.042824147,-0.863857570,0.002828133,0.000352400,-0.007539526,0.999966526,0.000000000,0.000000000,0.000000000,0.000000000,0.000000000,0.000000000,-0.863568264,0.000000000,4.080351830
1772687502.312690258,0.014915000,0.005776000,0.054362000,-0.013644150,-0.019412680,0.010544090,-0.999662850,0.026894000,0.039110000,-0.020569000,0.000092891,-0.001080809,0.001489085,-0.013418511,0.007863812,-0.011646946,0.015402732,0.000774577,0.999782876,-0.000621847,-0.001374078,0.001585879,0.000000000,0.000000000,0.000000000,0.000000000,0.015893247,0.005400612,0.054470694,0.051989984,-0.017117262,0.000999644,0.016150174,-0.004526342,-0.000330453,0.323592228,-0.043501668,-0.862725383,0.002826646,0.000358352,-0.007529662,0.999966582,0.000000000,0.000000000,0.000000000,0.000000000,0.000000000,0.000000000,-0.862560376,0.000000000,4.080351830
1772687502.322690248,0.014914000,0.005779000,0.054365000,-0.013705130,-0.018997850,0.010578860,-0.999669610,0.027022000,0.038282000,-0.020647000,0.000206780,-0.001022592,0.001316882,-0.037963008,0.038014662,-0.018915831,0.015214152,-0.000752121,1.001244992,-0.000621467,-0.001411974,0.002239490,0.000000000,0.000000000,0.000000000,0.000000000,0.015886414,0.005399690,0.054480799,0.052057594,-0.017102343,0.000976334,0.015938302,-0.006381198,0.000732779,0.323650493,-0.043417549,-0.861403639,0.002827145,0.000357647,-0.007518126,0.999966666,0.000000000,0.000000000,0.000000000,0.000000000,0.000000000,0.000000000,-0.861044032,0.000000000,4.080351830
1772687502.332690001,0.014863000,0.005737000,0.054476000,-0.012372400,-0.021077610,0.011181230,-0.999638750,0.024289000,0.042429000,-0.021854000,-0.000605459,-0.001209325,0.002394932,-0.088113122,0.110860053,-0.033056254,0.015252969,-0.000516273,1.001277495,-0.001078419,0.000473588,0.000856826,0.000000000,0.000000000,0.000000000,0.000000000,0.015875253,0.005392171,0.054503597,0.052089103,-0.017296370,0.001122606,0.016074170,-0.006069293,0.001237335,0.323674084,-0.042603834,-0.859951933,0.002827293,0.000350580,-0.007505438,0.999966776,0.000000000,0.000000000,0.000000000,0.000000000,0.000000000,0.000000000,-0.859694988,0.000000000,4.080351830
1772687502.342689514,0.014927000,0.005752000,0.054398000,-0.012740270,-0.020528410,0.011044160,-0.999647090,0.025042000,0.041336000,-0.021578000,-0.001213113,-0.000776283,0.002102430,-0.112649115,0.151473089,-0.035539181,0.015844022,0.003380566,1.000892570,0.000823919,0.002624441,0.002396516,0.000000000,0.000000000,0.000000000,0.000000000,0.015881900,0.005410086,0.054479682,0.052168630,-0.017315932,0.001070545,0.016578775,-0.003375672,0.000687051,0.323332139,-0.042262672,-0.859235212,0.002824285,0.000347643,-0.007499175,0.999966853,0.000000000,0.000000000,0.000000000,0.000000000,0.000000000,0.000000000,-0.859265394,0.000000000,4.080351830
1772687502.352689505,0.014916000,0.005776000,0.054365000,-0.012860860,-0.020135990,0.010898160,-0.999655130,0.025297000,0.040550000,-0.021290000,-0.000780925,0.000365035,0.000240424,-0.082508613,0.111932149,-0.017997567,0.016257265,0.003276554,0.999740366,0.001955854,-0.002712716,-0.000111760,0.000000000,0.000000000,0.000000000,0.000000000,0.015896190,0.005433808,0.054432094,0.052305348,-0.017123603,0.000872767,0.017121637,-0.002210449,0.000164529,0.323323522,-0.042507557,-0.859191874,0.002824226,0.000349782,-0.007498803,0.999966802,0.000000000,0.000000000,0.000000000,0.000000000,0.000000000,0.000000000,-0.858639941,0.000000000,4.080351830
1772687502.362689257,0.014851000,0.005718000,0.054484000,-0.011437740,-0.022351730,0.011198390,-0.999622020,0.022391000,0.044958000,-0.021901000,-0.000325136,0.000739298,-0.000708761,-0.039111664,0.055964722,-0.000935044,0.015703751,0.000821100,1.000658095,-0.000808613,-0.000102569,0.001786282,0.000000000,0.000000000,0.000000000,0.000000000,0.015931402,0.005438455,0.054396530,0.052516244,-0.016928127,0.000702936,0.016356213,-0.003940451,0.000579812,0.323373188,-0.043204750,-0.857264143,0.002824699,0.000355910,-0.007481998,0.999966963,0.000000000,0.000000000,0.000000000,0.000000000,0.000000000,0.000000000,-0.857324549,0.000000000,4.080351830
1772687502.372689009,0.014845000,0.005739000,0.054501000,-0.010653760,-0.023518460,0.011479390,-0.999600720,0.020784000,0.047280000,-0.022475000,-0.000155148,-0.000006158,0.000076690,-0.030139436,0.047408826,-0.001155471,0.015242352,-0.000069588,0.999216600,0.002090745,0.000307801,-0.000932836,0.000000000,0.000000000,0.000000000,0.000000000,0.015965532,0.005424613,0.054401350,0.052647471,-0.016951475,0.000722485,0.015733121,-0.006784371,0.000025999,0.323996900,-0.041941916,-0.857474013,0.002830059,0.000344844,-0.007483800,0.999966935,0.000000000,0.000000000,0.000000000,0.000000000,0.000000000,0.000000000,-0.857317766,0.000000000,4.080351830
1772687502.382689238,0.014887000,0.005783000,0.054385000,-0.011629200,-0.021902220,0.011072170,-0.999631160,0.022789000,0.044060000,-0.021649000,0.000294328,-0.000217133,0.000207557,-0.015764299,0.040185515,-0.006418497,0.015060241,0.000081827,0.997713415,0.003568999,-0.002103350,0.000081866,0.000000000,0.000000000,0.000000000,0.000000000,0.015924398,0.005411321,0.054453931,0.052447495,-0.017118479,0.000895475,0.015787256,-0.005106915,-0.003400579,0.323522262,-0.041540908,-0.856299542,0.002825888,0.000341405,-0.007473540,0.999967000,0.000000000,0.000000000,0.000000000,0.000000000,0.000000000,0.000000000,-0.855966347,0.000000000,4.080351830
1772687502.392689705,0.014913000,0.005789000,0.054361000,-0.012373630,-0.021048830,0.010926520,-0.999642160,0.024303000,0.042366000,-0.021345000,0.001320844,-0.000315540,-0.000445552,0.016249524,-0.004473411,0.004456440,0.014354712,0.000208102,0.998877088,0.001474872,-0.000489713,0.000445708,0.000000000,0.000000000,0.000000000,0.000000000,0.015892903,0.005405512,0.054489073,0.052321904,-0.017181750,0.000761780,0.015121065,-0.006394235,-0.001070312,0.324272980,-0.041134875,-0.854869597,0.002832408,0.000337848,-0.007461054,0.999967078,0.000000000,0.000000000,0.000000000,0.000000000,0.000000000,0.000000000,-0.854521949,0.000000000,4.080351830
1772687502.402689457,0.014881000,0.005720000,0.054469000,-0.011501960,-0.022541930,0.011246040,-0.999616470,0.022513000,0.045341000,-0.021989000,0.000849321,-0.000871038,0.000350700,0.005149616,-0.000176616,0.004453331,0.013794555,0.000985246,1.000037785,0.000097018,0.002080262,0.000008355,0.000000000,0.000000000,0.000000000,0.000000000,0.015872564,0.005404355,0.054500749,0.052209900,-0.017274944,0.000685586,0.014338601,-0.003931768,0.000368884,0.325200039,-0.041325663,-0.853804695,0.002840507,0.000339479,-0.007451769,0.999967137,0.000000000,0.000000000,0.000000000,0.000000000,0.000000000,0.000000000,-0.853578312,0.000000000,4.080351830
1772687502.412689924,0.014890000,0.005699000,0.054494000,-0.010749090,-0.023636990,0.011416320,-0.999597630,0.020975000,0.047518000,-0.022342000,-0.000725059,-0.001279197,0.002029450,-0.046652938,0.067669307,-0.012441202,0.014010143,0.001497893,0.999990793,-0.001600585,0.000238395,-0.001683946,0.000000000,0.000000000,0.000000000,0.000000000,0.015863295,0.005385613,0.054508830,0.052095382,-0.017271239,0.000706308,0.014953813,-0.004602713,-0.001087055,0.325054269,-0.041460238,-0.853469530,0.002839243,0.000340671,-0.007448847,0.999967158,0.000000000,0.000000000,0.000000000,0.000000000,0.000000000,0.000000000,-0.853435211,0.000000000,4.080351830
1772687502.422689676,0.014916000,0.005772000,0.054391000,-0.011830830,-0.022066750,0.011095240,-0.999624920,0.023188000,0.044394000,-0.021683000,-0.001794330,-0.000880964,0.002857365,-0.098071709,0.136149012,-0.033018729,0.014551671,0.001174801,1.000548049,-0.001548789,-0.000579126,-0.002479472,0.000000000,0.000000000,0.000000000,0.000000000,0.015866864,0.005389079,0.054496794,0.052087405,-0.017208433,0.000558545,0.015185744,-0.004659011,0.000302571,0.325242860,-0.041325589,-0.852772116,0.002840878,0.000339501,-0.007442758,0.999967187,0.000000000,0.000000000,0.000000000,0.000000000,0.000000000,0.000000000,-0.852528908,0.000000000,4.080351830
1772687502.432689667,0.014873000,0.005710000,0.054499000,-0.010866810,-0.023207720,0.011203730,-0.999608820,0.021230000,0.046658000,-0.021920000,-0.001124477,0.000678672,0.000187413,-0.062758040,0.084711972,-0.022975304,0.014747389,0.001407817,1.001301502,0.000360661,-0.000707362,0.000294014,0.000000000,0.000000000,0.000000000,0.000000000,0.015869639,0.005372710,0.054509219,0.052120631,-0.017213420,0.000646281,0.015239334,-0.003893803,0.000755983,0.325206162,-0.041616239,-0.852923936,0.002840577,0.000342036,-0.007444090,0.999967196,0.000000000,0.000000000,0.000000000,0.000000000,0.000000000,0.000000000,-0.853241826,0.000000000,4.080351830
1772687502.442689419,0.014843000,0.005708000,0.054512000,-0.010119850,-0.024266800,0.011574580,-0.999587290,0.019694000,0.048767000,-0.022677000,-0.000317483,0.001329352,-0.001189512,-0.009305070,0.019787448,-0.009166806,0.013632339,0.002339769,1.000985597,0.000083452,-0.004483104,-0.002998074,0.000000000,0.000000000,0.000000000,0.000000000,0.015892974,0.005398549,0.054459002,0.052213130,-0.017042021,0.000475827,0.014905868,-0.003557731,0.001189427,0.324364881,-0.041958905,-0.852962808,0.002833258,0.000345080,-0.007444435,0.999967202,0.000000000,0.000000000,0.000000000,0.000000000,0.000000000,0.000000000,-0.852682769,0.000000000,4.080351830
1772687502.452689409,0.014838000,0.005757000,0.054470000,-0.010232240,-0.024315790,0.011671780,-0.999583820,0.019913000,0.048870000,-0.022866000,-0.000008586,0.000621698,-0.000505012,0.009873698,-0.004178320,-0.002665606,0.013571745,0.000657095,1.001117467,0.000308760,-0.000195572,-0.005750456,0.000000000,0.000000000,0.000000000,0.000000000,0.015890890,0.005403556,0.054461647,0.052160559,-0.016931379,0.000565024,0.014357439,-0.004528155,0.001556584,0.323729328,-0.041533968,-0.852024183,0.002827681,0.000341436,-0.007436232,0.999967294,0.000000000,0.000000000,0.000000000,0.000000000,0.000000000,0.000000000,-0.851845763,0.000000000,4.080351830
1772687502.462688684,0.014858000,0.005741000,0.054485000,-0.010106180,-0.024616130,0.011683770,-0.999577610,0.019654000,0.049468000,-0.022890000,0.000607402,0.000155556,-0.000359635,0.020387878,-0.024908120,0.006316968,0.013353527,0.001228669,1.001283360,-0.002259451,0.001947089,0.002588701,0.000000000,0.000000000,0.000000000,0.000000000,0.015878049,0.005401681,0.054479748,0.052031663,-0.016933753,0.000735539,0.014090759,-0.005097326,0.001532332,0.323845607,-0.041032507,-0.851411320,0.002828662,0.000337068,-0.007430871,0.999967337,0.000000000,0.000000000,0.000000000,0.000000000,0.000000000,0.000000000,-0.851302956,0.000000000,4.080351830
1772687502.472688675,0.014911000,0.005783000,0.054379000,-0.011507120,-0.022636310,0.011233590,-0.999614420,0.022522000,0.045529000,-0.021962000,0.000987297,-0.000131838,-0.000580983,0.032387319,-0.054003115,0.017723258,0.014238993,0.002454786,1.002440360,-0.002765397,-0.000747846,0.004937426,0.000000000,0.000000000,0.000000000,0.000000000,0.015866376,0.005400795,0.054491777,0.051924270,-0.016888034,0.000895317,0.014649523,-0.003720744,0.001844372,0.324234358,-0.041426226,-0.850736722,0.002832078,0.000340495,-0.007424996,0.999967347,0.000000000,0.000000000,0.000000000,0.000000000,0.000000000,0.000000000,-0.850332791,0.000000000,4.080351830
1772687502.482688427,0.014878000,0.005732000,0.054478000,-0.011096940,-0.023097870,0.011284060,-0.999607930,0.021689000,0.046445000,-0.022072000,0.000137180,-0.001664823,0.001629800,-0.022843137,0.012481595,0.006144899,0.014150633,0.001966512,1.002096176,0.003740843,0.001012868,-0.003554443,0.000000000,0.000000000,0.000000000,0.000000000,0.015861858,0.005404733,0.054492516,0.051903430,-0.016772047,0.001041217,0.014898703,-0.003757960,0.001758303,0.323352944,-0.041203318,-0.849210085,0.002824367,0.000338644,-0.007411665,0.999967454,0.000000000,0.000000000,0.000000000,0.000000000,0.000000000,0.000000000,-0.848945676,0.000000000,4.080351830
1772687502.492688894,0.014870000,0.005716000,0.054499000,-0.010600680,-0.023472660,0.011338710,-0.999603970,0.020685000,0.047185000,-0.022197000,0.000090190,-0.001291318,0.000903264,-0.036731557,0.033612244,-0.004554320,0.014544004,0.001756482,1.000075603,-0.003458452,0.002950170,0.000402242,0.000000000,0.000000000,0.000000000,0.000000000,0.015881166,0.005426016,0.054460067,0.051967622,-0.016604528,0.001004256,0.015134009,-0.003990341,0.000781651,0.323278373,-0.040687510,-0.848297447,0.002823680,0.000334171,-0.007403688,0.999967515,0.000000000,0.000000000,0.000000000,0.000000000,0.000000000,0.000000000,-0.848342745,0.000000000,4.080351830
1772687502.502688885,0.014874000,0.005714000,0.054487000,-0.010278120,-0.023961910,0.011409740,-0.999594920,0.020026000,0.048158000,-0.022345000,-0.000048873,-0.000375214,0.000022922,-0.023030633,0.030998666,-0.006362903,0.015221204,0.001284612,1.000944962,-0.000715948,0.000812387,0.004550711,0.000000000,0.000000000,0.000000000,0.000000000,0.015901749,0.005452816,0.054418229,0.052040152,-0.016488767,0.000841224,0.016198472,-0.003871090,0.000938134,0.323654845,-0.041092837,-0.846886428,0.002826988,0.000337718,-0.007391387,0.999967609,0.000000000,0.000000000,0.000000000,0.000000000,0.000000000,0.000000000,-0.846133965,0.000000000,4.080351830
1772687502.512688637,0.014870000,0.005692000,0.054503000,-0.009914730,-0.024509230,0.011521560,-0.999584040,0.019281000,0.049246000,-0.022577000,-0.000224534,-0.000304410,0.000357207,-0.021784786,0.038858329,-0.003598935,0.014837222,0.002387822,1.001480830,0.000667618,0.002219022,0.000643758,0.000000000,0.000000000,0.000000000,0.000000000,0.015884359,0.005445902,0.054452751,0.052082437,-0.016462494,0.001037229,0.015695926,-0.003842384,0.001218339,0.323047683,-0.042219305,-0.843476491,0.002821752,0.000347671,-0.007361657,0.999967868,0.000000000,0.000000000,0.000000000,0.000000000,0.000000000,0.000000000,-0.842660872,0.000000000,4.080351830
1772687502.522688866,0.014872000,0.005710000,0.054492000,-0.010013550,-0.024570130,0.011565340,-0.999581050,0.019475000,0.049371000,-0.022658000,0.000146212,0.000782207,-0.000758839,0.022674121,-0.016085671,0.009100339,0.014219668,0.001222791,1.001415144,0.000420439,0.001626806,-0.002708430,0.000000000,0.000000000,0.000000000,0.000000000,0.015870976,0.005422402,0.054476610,0.052080992,-0.016464214,0.001221233,0.015498876,-0.004869530,0.000849857,0.322752449,-0.044320443,-0.841552695,0.002819305,0.000366073,-0.007344919,0.999968021,0.000000000,0.000000000,0.000000000,0.000000000,0.000000000,0.000000000,-0.841330287,0.000000000,4.080351830
1772687502.532688379,0.014921000,0.005771000,0.054380000,-0.011528420,-0.022489530,0.011156720,-0.999618350,0.022571000,0.045235000,-0.021810000,-0.000021348,0.001297029,-0.001140425,0.052042268,-0.063600293,0.017261412,0.014717469,-0.000762222,1.000539426,-0.002346371,-0.000740765,-0.000524157,0.000000000,0.000000000,0.000000000,0.000000000,0.015861363,0.005409359,0.054498785,0.052108294,-0.016542841,0.001356897,0.015266671,-0.006191783,0.001519356,0.322397654,-0.045620707,-0.841803484,0.002816293,0.000377436,-0.007347139,0.999968021,0.000000000,0.000000000,0.000000000,0.000000000,0.000000000,0.000000000,-0.842051693,0.000000000,4.080351830
1772687502.542688608,0.014861000,0.005718000,0.054498000,-0.010874830,-0.023465630,0.011180590,-0.999602970,0.021242000,0.047173000,-0.021868000,0.000557130,0.001823351,-0.002615756,0.099496730,-0.143867889,0.031869989,0.015649190,-0.001074674,1.000692766,-0.000362061,-0.000040193,0.000933040,0.000000000,0.000000000,0.000000000,0.000000000,0.015888198,0.005427912,0.054451988,0.052222172,-0.016661490,0.001217335,0.016693690,-0.005931001,-0.000133442,0.321569658,-0.046205338,-0.840473480,0.002809100,0.000382623,-0.007335545,0.999968074,0.000000000,0.000000000,0.000000000,0.000000000,0.000000000,0.000000000,-0.839808190,0.000000000,4.080351830
1772687502.552687883,0.014857000,0.005717000,0.054508000,-0.010487960,-0.023732480,0.011223340,-0.999600320,0.020460000,0.047699000,-0.021967000,0.000856625,0.001418241,-0.002634987,0.115552013,-0.172777084,0.033425267,0.015035903,0.000513774,1.000320733,0.002730712,0.000200248,-0.002167359,0.000000000,0.000000000,0.000000000,0.000000000,0.015892995,0.005423344,0.054469471,0.052402676,-0.016823321,0.001210824,0.015770992,-0.004807381,0.000531287,0.320706418,-0.046793901,-0.839252908,0.002801600,0.000387845,-0.007324905,0.999968171,0.000000000,0.000000000,0.000000000,0.000000000,0.000000000,0.000000000,-0.839286861,0.000000000,4.080351830
1772687502.562688351,0.014897000,0.005792000,0.054391000,-0.011845460,-0.021936900,0.011108780,-0.999627460,0.023219000,0.044135000,-0.021712000,0.000567794,0.000358042,-0.001124108,0.088529431,-0.134678084,0.022212989,0.013693996,0.002023915,1.001955199,0.003393295,-0.000243697,-0.001911887,0.000000000,0.000000000,0.000000000,0.000000000,0.015886934,0.005411719,0.054498842,0.052422530,-0.016872508,0.001371275,0.015145948,-0.004174091,0.001412419,0.320395624,-0.047532164,-0.838557503,0.002798933,0.000394324,-0.007318853,0.999968198,0.000000000,0.000000000,0.000000000,0.000000000,0.000000000,0.000000000,-0.837708777,0.000000000,4.080351830
1772687502.572688341,0.014910000,0.005794000,0.054337000,-0.012685580,-0.020544300,0.010831890,-0.999649780,0.024941000,0.041361000,-0.021155000,0.000024106,0.000016706,0.000269678,0.047515556,-0.068196049,0.001212886,0.016152439,0.001272099,1.001310242,-0.000875890,0.005975511,0.005613413,0.000000000,0.000000000,0.000000000,0.000000000,0.015896492,0.005426733,0.054470992,0.052490916,-0.016786044,0.001317108,0.016029530,-0.004970920,0.001485747,0.320705747,-0.048788453,-0.836718397,0.002801713,0.000405312,-0.007302836,0.999968301,0.000000000,0.000000000,0.000000000,0.000000000,0.000000000,0.000000000,-0.836611294,0.000000000,4.080351830
1772687502.582688332,0.014929000,0.005774000,0.054359000,-0.013294380,-0.019766360,0.010691030,-0.999659070,0.026181000,0.039814000,-0.020867000,-0.000507460,-0.000578944,0.001391241,-0.002607505,0.009108604,-0.014681125,0.014493986,-0.000999428,1.001641350,0.000975170,-0.000723583,-0.002483251,0.000000000,0.000000000,0.000000000,0.000000000,0.015891467,0.005425577,0.054474460,0.052583009,-0.016844643,0.001418554,0.015754894,-0.005976226,0.001926972,0.320633581,-0.049322896,-0.836183580,0.002801115,0.000409993,-0.007298182,0.999968357,0.000000000,0.000000000,0.000000000,0.000000000,0.000000000,0.000000000,-0.835969203,0.000000000,4.080351830
1772687502.592688322,0.014878000,0.005727000,0.054485000,-0.012055770,-0.021605720,0.011110570,-0.999632140,0.023647000,0.043477000,-0.021714000,-0.001602566,-0.001478440,0.003304490,-0.088010726,0.135884118,-0.035249458,0.014055857,0.001289471,1.001051068,-0.001547913,0.001671948,0.000405022,0.000000000,0.000000000,0.000000000,0.000000000,0.015897805,0.005430603,0.054455609,0.052649074,-0.016956601,0.001442332,0.015097922,-0.005609115,0.000767343,0.320609982,-0.049195629,-0.835153276,0.002800898,0.000408909,-0.007289188,0.999968421,0.000000000,0.000000000,0.000000000,0.000000000,0.000000000,0.000000000,-0.834518630,0.000000000,4.080351830
1772687502.602688313,0.014853000,0.005730000,0.054508000,-0.011280500,-0.022788460,0.011317410,-0.999612600,0.022061000,0.045831000,-0.022137000,-0.002006529,-0.002245903,0.004319157,-0.168663892,0.247480418,-0.050671270,0.015062274,0.001605099,0.998715392,-0.000265336,0.001032526,0.003144088,0.000000000,0.000000000,0.000000000,0.000000000,0.015900279,0.005430809,0.054452079,0.052680750,-0.017008987,0.001363104,0.015200913,-0.004391430,-0.001532259,0.320543422,-0.049935289,-0.833502918,0.002800358,0.000415409,-0.007274804,0.999968521,0.000000000,0.000000000,0.000000000,0.000000000,0.000000000,0.000000000,-0.833451194,0.000000000,4.080351830
1772687502.612688780,0.014844000,0.005742000,0.054496000,-0.010810180,-0.023505820,0.011591350,-0.999598050,0.021092000,0.047261000,-0.022692000,-0.000669814,-0.000912180,0.001249807,-0.138344703,0.209842843,-0.034424138,0.013263860,0.000308887,0.999500657,0.001411883,-0.001916296,0.001518722,0.000000000,0.000000000,0.000000000,0.000000000,0.015894119,0.005406823,0.054489372,0.052696237,-0.017051910,0.001341666,0.014398645,-0.004553829,-0.000338276,0.319886964,-0.049668312,-0.832456780,0.002794609,0.000413146,-0.007265666,0.999968559,0.000000000,0.000000000,0.000000000,0.000000000,0.000000000,0.000000000,-0.831416098,0.000000000,4.080351830
1772687502.622688770,0.014845000,0.005699000,0.054507000,-0.010073040,-0.024552170,0.011578560,-0.999580740,0.019594000,0.049337000,-0.022682000,0.000611034,0.000022047,-0.001381081,-0.063957165,0.102901256,-0.008202981,0.013748476,0.000151518,1.001286155,-0.000898701,0.002725231,-0.001802952,0.000000000,0.000000000,0.000000000,0.000000000,0.015914947,0.005414743,0.054467936,0.052682648,-0.017086853,0.001155022,0.013881633,-0.006207814,0.001272086,0.319202636,-0.049648048,-0.828878265,0.002788623,0.000413100,-0.007234436,0.999968849,0.000000000,0.000000000,0.000000000,0.000000000,0.000000000,0.000000000,-0.828633384,0.000000000,4.080351830
1772687502.632688284,0.014864000,0.005726000,0.054471000,-0.009985580,-0.024827030,0.011579690,-0.999574820,0.019413000,0.049885000,-0.022684000,0.001291027,0.000426690,-0.002104237,0.011020450,-0.013826973,0.013305309,0.014413953,0.000398381,1.002477169,-0.002112909,-0.000479932,-0.000419016,0.000000000,0.000000000,0.000000000,0.000000000,0.015928293,0.005431221,0.054418013,0.052605498,-0.017218215,0.001093333,0.015349059,-0.006108901,0.002206295,0.319230530,-0.050523665,-0.828927678,0.002788922,0.000420738,-0.007234888,0.999968849,0.000000000,0.000000000,0.000000000,0.000000000,0.000000000,0.000000000,-0.829109865,0.000000000,4.080351830
1772687502.642688751,0.014865000,0.005685000,0.054514000,-0.009592410,-0.025348600,0.011534800,-0.999566100,0.018617000,0.050918000,-0.022605000,0.000746815,0.000301787,-0.000917600,0.033961771,-0.060767624,0.011791968,0.015657649,0.002041397,1.002274673,-0.000463105,-0.000507906,-0.001595378,0.000000000,0.000000000,0.000000000,0.000000000,0.015932756,0.005443885,0.054390519,0.052634938,-0.017300421,0.001181818,0.015826801,-0.004558953,0.002567417,0.319036202,-0.050049992,-0.827335372,0.002787191,0.000416655,-0.007220981,0.999968929,0.000000000,0.000000000,0.000000000,0.000000000,0.000000000,0.000000000,-0.826549232,0.000000000,4.080351830
1772687502.652688742,0.014914000,0.005766000,0.054384000,-0.011186330,-0.023131130,0.011152750,-0.999607640,0.021873000,0.046510000,-0.021805000,-0.000336714,0.000220824,0.000323485,0.018498152,-0.048229551,-0.003011079,0.016502977,0.002495174,1.002090176,-0.000670473,0.003705224,0.000914864,0.000000000,0.000000000,0.000000000,0.000000000,0.015937759,0.005449926,0.054377090,0.052750881,-0.017221211,0.001337488,0.017133371,-0.002840755,0.002712570,0.317414219,-0.050591779,-0.823580696,0.002773057,0.000421576,-0.007188223,0.999969219,0.000000000,0.000000000,0.000000000,0.000000000,0.000000000,0.000000000,-0.823725262,0.000000000,4.080351830
1772687502.662688732,0.014871000,0.005731000,0.054473000,-0.010874690,-0.023345160,0.011484740,-0.999602340,0.021229000,0.046939000,-0.022479000,-0.000542347,0.000513928,0.000292852,0.007798612,-0.030250783,-0.016085083,0.013886807,0.000857104,1.000494118,-0.003064592,0.005167821,0.005916509,0.000000000,0.000000000,0.000000000,0.000000000,0.015941713,0.005450950,0.054385041,0.052883258,-0.017143864,0.001486926,0.015883928,-0.005112333,0.000524503,0.316480213,-0.052089380,-0.823502611,0.002765000,0.000434705,-0.007187575,0.999969257,0.000000000,0.000000000,0.000000000,0.000000000,0.000000000,0.000000000,-0.822864341,0.000000000,4.080351830
1772687502.672688723,0.014852000,0.005726000,0.054492000,-0.010528610,-0.023456420,0.011557460,-0.999602610,0.020531000,0.047155000,-0.022639000,0.000020105,0.000787336,-0.000841007,0.027215438,-0.051714740,-0.008312509,0.014253248,0.001206753,0.999474377,-0.000090875,0.004776755,0.000040171,0.000000000,0.000000000,0.000000000,0.000000000,0.015940777,0.005454356,0.054397919,0.052858649,-0.017228542,0.001513104,0.014718678,-0.004656179,-0.000170748,0.316009583,-0.053868083,-0.820602891,0.002760993,0.000450326,-0.007162312,0.999969414,0.000000000,0.000000000,0.000000000,0.000000000,0.000000000,0.000000000,-0.820092908,0.000000000,4.080351830
1772687502.682688713,0.014851000,0.005728000,0.054484000,-0.010274940,-0.023933320,0.011753070,-0.999591660,0.020003000,0.048107000,-0.023033000,0.000455847,0.001311579,-0.001413269,0.057306175,-0.082490833,0.002349395,0.014508488,0.002636850,1.001180588,-0.000176519,0.001049413,0.003445896,0.000000000,0.000000000,0.000000000,0.000000000,0.015922680,0.005423870,0.054450813,0.052731708,-0.017287740,0.001616323,0.015642075,-0.003299880,0.000827350,0.315203864,-0.055319941,-0.818653118,0.002754045,0.000463093,-0.007145329,0.999969566,0.000000000,0.000000000,0.000000000,0.000000000,0.000000000,0.000000000,-0.818332769,0.000000000,4.080351830
1772687502.692688704,0.014855000,0.005738000,0.054469000,-0.010221810,-0.024198280,0.011786450,-0.999585430,0.019890000,0.048637000,-0.023098000,0.000587025,0.000776069,-0.001125137,0.075008393,-0.092727872,0.016018991,0.014050169,0.000892954,1.001377503,-0.000703917,0.001514237,0.002266640,0.000000000,0.000000000,0.000000000,0.000000000,0.015898857,0.005400816,0.054493541,0.052735528,-0.017227612,0.001851169,0.015095837,-0.005234263,0.001508171,0.314683117,-0.056595357,-0.816917869,0.002749573,0.000474297,-0.007130214,0.999969650,0.000000000,0.000000000,0.000000000,0.000000000,0.000000000,0.000000000,-0.816418973,0.000000000,4.080351830
1772687502.702688456,0.014918000,0.005785000,0.054380000,-0.011703120,-0.022245960,0.011390070,-0.999619140,0.022916000,0.044757000,-0.022275000,0.000261791,0.000402642,-0.000656566,0.069482251,-0.072840313,0.018795545,0.013979229,-0.000261812,1.001102984,-0.000199352,0.004070799,0.003414519,0.000000000,0.000000000,0.000000000,0.000000000,0.015889375,0.005393729,0.054507921,0.052716031,-0.017305888,0.001956408,0.014840711,-0.005976892,0.001218572,0.314737804,-0.056843562,-0.815733793,0.002750060,0.000476488,-0.007119888,0.999969742,0.000000000,0.000000000,0.000000000,0.000000000,0.000000000,0.000000000,-0.815685004,0.000000000,4.080351830
1772687502.712688208,0.014908000,0.005792000,0.054374000,-0.012715050,-0.020665650,0.011115040,-0.999643790,0.024986000,0.041611000,-0.021717000,-0.000173835,-0.000255692,0.000025272,0.037061852,-0.033844728,0.013776488,0.014167690,0.000869622,1.001773797,-0.002820559,0.002910381,0.003107610,0.000000000,0.000000000,0.000000000,0.000000000,0.015886656,0.005385767,0.054526481,0.052754943,-0.017405752,0.002070505,0.015500620,-0.004720993,0.001972579,0.314310689,-0.057312159,-0.814212488,0.002746356,0.000480640,-0.007106622,0.999969849,0.000000000,0.000000000,0.000000000,0.000000000,0.000000000,0.000000000,-0.813515350,0.000000000,4.080351830
1772687502.722687960,0.014860000,0.005756000,0.054472000,-0.012015860,-0.021796460,0.011379410,-0.999625450,0.023551000,0.043864000,-0.022250000,-0.000358003,-0.000662821,0.000604177,-0.001726975,0.012859767,0.006907657,0.014402622,0.000454105,1.000751004,0.000814846,0.001943452,0.003648974,0.000000000,0.000000000,0.000000000,0.000000000,0.015911650,0.005403218,0.054487613,0.052901992,-0.017337379,0.002000658,0.015031612,-0.004876461,0.001263016,0.313610252,-0.058408631,-0.811976087,0.002740302,0.000490305,-0.007087130,0.999970003,0.000000000,0.000000000,0.000000000,0.000000000,0.000000000,0.000000000,-0.811599997,0.000000000,4.080351830
1772687502.732687950,0.014852000,0.005719000,0.054476000,-0.011321480,-0.022997920,0.011439060,-0.999605960,0.022133000,0.046253000,-0.022374000,-0.000679837,-0.001310976,0.001947787,-0.061950210,0.100090048,-0.015437519,0.013744789,0.000117437,1.000582440,0.001460339,0.002783604,0.000847518,0.000000000,0.000000000,0.000000000,0.000000000,0.015916379,0.005397188,0.054496126,0.052926000,-0.017401515,0.002021746,0.014746137,-0.004870335,0.000471454,0.313464109,-0.059030512,-0.810395711,0.002739059,0.000495779,-0.007073353,0.999970105,0.000000000,0.000000000,0.000000000,0.000000000,0.000000000,0.000000000,-0.809833193,0.000000000,4.080351830
1772687502.742687941,0.014844000,0.005717000,0.054495000,-0.010451340,-0.024170930,0.011665760,-0.999585140,0.020355000,0.048585000,-0.022846000,-0.000015559,-0.000579935,0.000860898,-0.061827335,0.093313222,-0.018330610,0.014528581,0.001553549,1.001306134,-0.000257556,0.000989220,-0.002896071,0.000000000,0.000000000,0.000000000,0.000000000,0.015919316,0.005407629,0.054475921,0.052925201,-0.017372176,0.001912108,0.015362086,-0.005057880,0.001039313,0.312781952,-0.060094803,-0.808879819,0.002733165,0.000505144,-0.007060147,0.999970206,0.000000000,0.000000000,0.000000000,0.000000000,0.000000000,0.000000000,-0.808583517,0.000000000,4.080351830
1772687502.752687931,0.014910000,0.005771000,0.054376000,-0.011632360,-0.022392960,0.011237450,-0.999618410,0.022778000,0.045045000,-0.021969000,0.000545746,0.000159752,0.000024281,-0.034248867,0.049303082,-0.010004817,0.014584118,-0.000828872,1.003435770,-0.000770405,-0.001148342,-0.000418986,0.000000000,0.000000000,0.000000000,0.000000000,0.015924419,0.005428947,0.054436865,0.052965439,-0.017351700,0.001795437,0.015896502,-0.005663238,0.002229234,0.312872298,-0.061191185,-0.807941111,0.002734017,0.000514729,-0.007051982,0.999970256,0.000000000,0.000000000,0.000000000,0.000000000,0.000000000,0.000000000,-0.807609628,0.000000000,4.080351830
1772687502.762687445,0.014883000,0.005739000,0.054477000,-0.011250440,-0.023221160,0.011502140,-0.999600870,0.021983000,0.046700000,-0.022499000,0.000811092,0.000938152,-0.001317348,0.020773319,-0.032361720,0.008164899,0.013787685,0.002410803,1.002250680,0.001373660,-0.004408669,-0.003633160,0.000000000,0.000000000,0.000000000,0.000000000,0.015916352,0.005433330,0.054429953,0.052978338,-0.017401519,0.001948393,0.015294965,-0.004204067,0.002721933,0.312782609,-0.060822444,-0.806832409,0.002733206,0.000511543,-0.007042298,0.999970372,0.000000000,0.000000000,0.000000000,0.000000000,0.000000000,0.000000000,-0.806724315,0.000000000,4.080351830
1772687502.772687912,0.014863000,0.005723000,0.054510000,-0.010634760,-0.023988160,0.011728820,-0.999586870,0.020724000,0.048225000,-0.022966000,0.000256041,0.001061287,-0.001146777,0.040571923,-0.065376256,0.014230296,0.013956261,0.002217515,0.999990052,0.000973341,-0.002047343,-0.001795296,0.000000000,0.000000000,0.000000000,0.000000000,0.015899736,0.005417791,0.054463841,0.052939821,-0.017410611,0.002175956,0.015256511,-0.004215539,-0.000598995,0.313671108,-0.059866803,-0.806463444,0.002740900,0.000503158,-0.007039060,0.999970376,0.000000000,0.000000000,0.000000000,0.000000000,0.000000000,0.000000000,-0.806314973,0.000000000,4.080351830
1772687502.782687902,0.014901000,0.005783000,0.054388000,-0.011763290,-0.022035410,0.011278480,-0.999624360,0.023045000,0.044334000,-0.022054000,-0.000513656,-0.000199573,0.000224340,0.006744953,-0.012679072,0.012064251,0.014484695,-0.000061475,0.999599720,-0.000157836,0.000589319,0.003908813,0.000000000,0.000000000,0.000000000,0.000000000,0.015899499,0.005412242,0.054480235,0.052956675,-0.017382922,0.002150138,0.015297472,-0.005632284,0.000269424,0.313824707,-0.058732106,-0.805994825,0.002742168,0.000493258,-0.007034944,0.999970376,0.000000000,0.000000000,0.000000000,0.000000000,0.000000000,0.000000000,-0.805867755,0.000000000,4.080351830
1772687502.792687893,0.014857000,0.005736000,0.054480000,-0.010862100,-0.023593970,0.011411940,-0.999597470,0.021202000,0.047435000,-0.022329000,-0.000427681,-0.000570746,0.000737957,-0.022604962,0.033744135,0.007870026,0.014520456,-0.000229933,1.000024773,-0.001039681,-0.000793269,0.002574103,0.000000000,0.000000000,0.000000000,0.000000000,0.015922651,0.005425172,0.054449377,0.053056373,-0.017439416,0.001903826,0.015439819,-0.005968907,-0.000593413,0.314497648,-0.059481393,-0.805510697,0.002748084,0.000499767,-0.007030740,0.999970376,0.000000000,0.000000000,0.000000000,0.000000000,0.000000000,0.000000000,-0.804939421,0.000000000,4.080351830
1772687502.802688360,0.014904000,0.005779000,0.054370000,-0.011985490,-0.021991040,0.011083360,-0.999624880,0.023500000,0.044246000,-0.021654000,0.000540987,-0.000194464,-0.000510218,-0.000807356,-0.004639150,0.016357035,0.014081419,-0.000414700,1.001754515,-0.000834961,-0.000361176,-0.000498396,0.000000000,0.000000000,0.000000000,0.000000000,0.015933589,0.005428700,0.054433745,0.053108759,-0.017554016,0.001763232,0.015305421,-0.005790314,0.001957080,0.313596175,-0.059689455,-0.803302324,0.002740221,0.000501690,-0.007011469,0.999970501,0.000000000,0.000000000,0.000000000,0.000000000,0.000000000,0.000000000,-0.802745008,0.000000000,4.080351830
1772687502.812688351,0.014870000,0.005747000,0.054460000,-0.011320140,-0.022710720,0.011239990,-0.999614800,0.022146000,0.045674000,-0.021982000,0.000732518,-0.000187219,-0.000258392,0.015859374,-0.034612685,0.013866681,0.013751845,-0.000901160,1.001850027,0.002401112,-0.000863167,-0.001727153,0.000000000,0.000000000,0.000000000,0.000000000,0.015919177,0.005415589,0.054463222,0.053061814,-0.017709282,0.001990894,0.014883611,-0.006728759,0.002333924,0.312854777,-0.058758042,-0.802365633,0.002733690,0.000493630,-0.007003270,0.999970593,0.000000000,0.000000000,0.000000000,0.000000000,0.000000000,0.000000000,-0.802234250,0.000000000,4.080351830
1772687502.822689056,0.014869000,0.005696000,0.054518000,-0.010506610,-0.024154060,0.011300810,-0.999589160,0.020484000,0.048545000,-0.022113000,0.000842930,0.000300408,-0.001075661,0.042706133,-0.087235800,0.014882266,0.014241459,0.000023358,1.000872834,0.001741232,-0.000912593,-0.002260160,0.000000000,0.000000000,0.000000000,0.000000000,0.015909187,0.005396313,0.054493140,0.053023517,-0.017951607,0.002225517,0.014860691,-0.005875288,0.000598721,0.313359535,-0.058643765,-0.801846310,0.002738085,0.000492615,-0.006998738,0.999970651,0.000000000,0.000000000,0.000000000,0.000000000,0.000000000,0.000000000,-0.801710598,0.000000000,4.080351830
1772687502.832688332,0.014923000,0.005770000,0.054400000,-0.011689660,-0.022199570,0.011080260,-0.999623810,0.022903000,0.044656000,-0.021656000,0.001241124,0.001257888,-0.002901770,0.096198674,-0.173645249,0.028955378,0.014635806,0.001042079,1.000617003,-0.001779474,0.001897807,-0.001121363,0.000000000,0.000000000,0.000000000,0.000000000,0.015918372,0.005408451,0.054468947,0.053062324,-0.017983816,0.002086548,0.015153623,-0.004698786,0.001211961,0.314375057,-0.058603535,-0.801730111,0.002746945,0.000492204,-0.006997728,0.999970641,0.000000000,0.000000000,0.000000000,0.000000000,0.000000000,0.000000000,-0.801747026,0.000000000,4.080351830
1772687502.842688322,0.014920000,0.005774000,0.054363000,-0.012446530,-0.020541150,0.010894700,-0.999652160,0.024460000,0.041351000,-0.021290000,0.000841551,0.001150642,-0.002549284,0.109017602,-0.183400839,0.032091232,0.013935762,0.000152271,0.999073007,-0.002164721,0.003609968,-0.000501411,0.000000000,0.000000000,0.000000000,0.000000000,0.015907579,0.005393333,0.054502446,0.053062785,-0.018010747,0.002239520,0.015004642,-0.005553074,-0.001412010,0.313659696,-0.059133757,-0.801188648,0.002740732,0.000496888,-0.006993012,0.999970671,0.000000000,0.000000000,0.000000000,0.000000000,0.000000000,0.000000000,-0.800945346,0.000000000,4.080351830
1772687502.852687836,0.014919000,0.005787000,0.054355000,-0.013062860,-0.019689430,0.010759440,-0.999662900,0.025716000,0.039657000,-0.021015000,0.001004566,0.001768533,-0.003191650,0.141907964,-0.223649048,0.036014349,0.013327884,-0.000542295,0.997517182,-0.003345702,0.003271154,-0.001993683,0.000000000,0.000000000,0.000000000,0.000000000,0.015891723,0.005390137,0.054522133,0.053020576,-0.018080351,0.002098287,0.014383613,-0.005829174,-0.002001541,0.312415179,-0.060029287,-0.800727848,0.002729924,0.000504790,-0.006989006,0.999970734,0.000000000,0.000000000,0.000000000,0.000000000,0.000000000,0.000000000,-0.800699930,0.000000000,4.080351830
1772687502.862687588,0.014922000,0.005793000,0.054337000,-0.013416140,-0.019152240,0.010654810,-0.999669780,0.026438000,0.038587000,-0.020806000,0.000216123,0.000720766,-0.000635587,0.103930798,-0.164144587,0.021839077,0.014089263,0.001801058,0.999013100,-0.001715500,0.001025418,0.001729324,0.000000000,0.000000000,0.000000000,0.000000000,0.015901072,0.005405130,0.054487434,0.052996686,-0.018092133,0.001705914,0.014792895,-0.005039599,-0.001155303,0.311548164,-0.060817170,-0.800066360,0.002722403,0.000511734,-0.006983249,0.999970761,0.000000000,0.000000000,0.000000000,0.000000000,0.000000000,0.000000000,-0.799554520,0.000000000,4.080351830
1772687502.872687578,0.014928000,0.005786000,0.054352000,-0.013686190,-0.018840520,0.010596140,-0.999672670,0.026987000,0.037968000,-0.020686000,-0.000768241,-0.001015619,0.002483064,0.012250135,-0.016197505,-0.003828204,0.015368892,-0.000218390,0.999189210,0.003609454,-0.000883901,0.001685168,0.000000000,0.000000000,0.000000000,0.000000000,0.015922879,0.005420648,0.054438660,0.053084261,-0.018047078,0.001336899,0.015864230,-0.004921534,-0.000576272,0.310666095,-0.061704616,-0.798380028,0.002714753,0.000519571,-0.006968550,0.999970873,0.000000000,0.000000000,0.000000000,0.000000000,0.000000000,0.000000000,-0.797991068,0.000000000,4.080351830
1772687502.882687092,0.014922000,0.005785000,0.054373000,-0.013763300,-0.018726420,0.010638820,-0.999673300,0.027142000,0.037742000,-0.020771000,-0.001139026,-0.001393377,0.003164921,-0.061069235,0.100370172,-0.023427373,0.014583583,-0.000852658,1.000429546,-0.000873673,0.002362014,0.000520008,0.000000000,0.000000000,0.000000000,0.000000000,0.015938712,0.005426893,0.054404196,0.053187594,-0.018095968,0.001090429,0.015399085,-0.005996184,0.000173592,0.309642077,-0.063115226,-0.796755795,0.002705895,0.000531982,-0.006954405,0.999970980,0.000000000,0.000000000,0.000000000,0.000000000,0.000000000,0.000000000,-0.796198840,0.000000000,4.080351830
1772687502.892686844,0.014918000,0.005793000,0.054381000,-0.013797660,-0.018534710,0.010799230,-0.999674680,0.027208000,0.037364000,-0.021096000,-0.001943825,-0.002186307,0.004308726,-0.153594335,0.240136981,-0.051156443,0.012487507,0.000724501,1.000882169,0.001039085,0.003381916,0.005704015,0.000000000,0.000000000,0.000000000,0.000000000,0.015935380,0.005413967,0.054424133,0.053155919,-0.018268547,0.001160129,0.014119350,-0.005794871,0.001230318,0.309182312,-0.063727876,-0.794757774,0.002701911,0.000537403,-0.006936982,0.999971156,0.000000000,0.000000000,0.000000000,0.000000000,0.000000000,0.000000000,-0.794448917,0.000000000,4.080351830
1772687502.902686357,0.014883000,0.005724000,0.054477000,-0.012466480,-0.020624490,0.011027340,-0.999648750,0.024493000,0.041521000,-0.021553000,-0.001458199,-0.001585374,0.002944156,-0.178192418,0.286623761,-0.058856920,0.013088760,-0.000422568,0.999668682,-0.000556306,-0.000834790,-0.001428933,0.000000000,0.000000000,0.000000000,0.000000000,0.015932272,0.005409332,0.054440988,0.053008216,-0.018352120,0.001263351,0.014158751,-0.005062813,0.000364913,0.310025256,-0.064403466,-0.793164077,0.002709300,0.000543285,-0.006923095,0.999971233,0.000000000,0.000000000,0.000000000,0.000000000,0.000000000,0.000000000,-0.792670541,0.000000000,4.080351830
1772687502.912686348,0.014850000,0.005709000,0.054509000,-0.011001260,-0.023070950,0.011396600,-0.999608330,0.021493000,0.046391000,-0.022302000,-0.000733994,-0.001277507,0.001973564,-0.176577051,0.284983856,-0.053659490,0.014562412,-0.000121596,0.998375469,-0.003846766,0.003420023,0.000649652,0.000000000,0.000000000,0.000000000,0.000000000,0.015917532,0.005387810,0.054475170,0.052884514,-0.018488684,0.001301230,0.015682793,-0.006210264,-0.001603698,0.309310885,-0.064693908,-0.791885713,0.002703077,0.000545893,-0.006911943,0.999971330,0.000000000,0.000000000,0.000000000,0.000000000,0.000000000,0.000000000,-0.791923683,0.000000000,4.080351830
1772687502.922686338,0.014862000,0.005724000,0.054480000,-0.010412150,-0.024195580,0.011529840,-0.999586530,0.020283000,0.048630000,-0.022575000,0.000193959,-0.000506314,0.000384422,-0.119495970,0.193662502,-0.032375784,0.014051339,0.001257600,0.998652413,-0.000998172,0.004443894,0.000906087,0.000000000,0.000000000,0.000000000,0.000000000,0.015897670,0.005359775,0.054505013,0.052916460,-0.018691325,0.001136790,0.015334796,-0.004533621,-0.001455367,0.308456120,-0.066081264,-0.790906852,0.002695697,0.000558074,-0.006903430,0.999971394,0.000000000,0.000000000,0.000000000,0.000000000,0.000000000,0.000000000,-0.790516623,0.000000000,4.080351830
1772687502.932685852,0.014864000,0.005713000,0.054508000,-0.009742150,-0.025252300,0.011865070,-0.999563220,0.018902000,0.050735000,-0.023260000,0.001269737,0.001113909,-0.002309987,-0.006486205,0.013348529,0.007040510,0.013505686,0.002771117,1.001313382,0.000766897,0.005001085,0.000774023,0.000000000,0.000000000,0.000000000,0.000000000,0.015887718,0.005358135,0.054505435,0.052921885,-0.018501740,0.000988193,0.014573341,-0.003053975,0.001693535,0.308442080,-0.068017287,-0.789197002,0.002695683,0.000575010,-0.006888553,0.999971492,0.000000000,0.000000000,0.000000000,0.000000000,0.000000000,0.000000000,-0.788834286,0.000000000,4.080351830
1772687502.942685604,0.014924000,0.005765000,0.054393000,-0.011118000,-0.023103720,0.011397040,-0.999606280,0.021726000,0.046459000,-0.022297000,0.001378226,0.001964823,-0.003643321,0.094522603,-0.147999782,0.036257526,0.014290473,0.000664626,1.000725829,0.000401366,0.004965040,0.001555835,0.000000000,0.000000000,0.000000000,0.000000000,0.015895140,0.005359002,0.054501882,0.052929298,-0.018256786,0.001084782,0.014327357,-0.003405268,0.002007819,0.308925994,-0.069463014,-0.787416048,0.002699984,0.000587639,-0.006873048,0.999971563,0.000000000,0.000000000,0.000000000,0.000000000,0.000000000,0.000000000,-0.787203846,0.000000000,4.080351830
1772687502.952685595,0.014890000,0.005717000,0.054487000,-0.010555560,-0.023763210,0.011394490,-0.999596950,0.020586000,0.047766000,-0.022305000,0.000153089,0.000979061,-0.001760511,0.104533849,-0.158354810,0.035539295,0.014734922,0.000900793,1.000784985,-0.001647267,-0.001234544,0.000472419,0.000000000,0.000000000,0.000000000,0.000000000,0.015910377,0.005373288,0.054483825,0.053010230,-0.018132366,0.001071635,0.016760666,-0.006282623,0.000206414,0.308882097,-0.073059555,-0.786558169,0.002699811,0.000619046,-0.006865646,0.999971626,0.000000000,0.000000000,0.000000000,0.000000000,0.000000000,0.000000000,-0.786652505,0.000000000,4.080351830
1772687502.962685108,0.014903000,0.005775000,0.054382000,-0.011801830,-0.021859080,0.011080430,-0.999629990,0.023135000,0.043978000,-0.021659000,-0.000773136,0.000350758,-0.000275059,0.069335883,-0.098183900,0.017648090,0.013816821,0.001895952,1.000424163,-0.002684837,-0.001468939,0.002620128,0.000000000,0.000000000,0.000000000,0.000000000,0.015931228,0.005406433,0.054432820,0.053150400,-0.018015072,0.000858599,0.015328347,-0.003649043,0.000487872,0.310344817,-0.073797020,-0.786688069,0.002712620,0.000625391,-0.006866804,0.999971516,0.000000000,0.000000000,0.000000000,0.000000000,0.000000000,0.000000000,-0.786266725,0.000000000,4.080351830
1772687502.972685099,0.014909000,0.005801000,0.054341000,-0.012634890,-0.020733630,0.010810330,-0.999646740,0.024837000,0.041738000,-0.021109000,-0.000411247,0.000274301,-0.000335529,0.051602994,-0.060775263,0.008525920,0.015861880,-0.000603202,1.001252909,0.000364711,0.000966266,0.001510092,0.000000000,0.000000000,0.000000000,0.000000000,0.015920012,0.005398718,0.054445057,0.053124459,-0.017978028,0.000914598,0.016453064,-0.005469198,0.000546643,0.309890467,-0.073629196,-0.784651800,0.002708634,0.000624002,-0.006849030,0.999971699,0.000000000,0.000000000,0.000000000,0.000000000,0.000000000,0.000000000,-0.784274935,0.000000000,4.080351830
1772687502.982684851,0.014859000,0.005746000,0.054439000,-0.011921660,-0.022008420,0.011238230,-0.999623530,0.023365000,0.044283000,-0.021967000,-0.000085703,0.000070552,0.000128108,0.029835795,-0.027051826,-0.005648762,0.015357262,0.001384890,1.000876295,0.000468908,0.001279796,0.000361550,0.000000000,0.000000000,0.000000000,0.000000000,0.015905120,0.005382646,0.054472635,0.053228703,-0.018084700,0.001095205,0.016721610,-0.004983179,0.000420408,0.309516532,-0.074264624,-0.783126713,0.002705401,0.000629605,-0.006835734,0.999971767,0.000000000,0.000000000,0.000000000,0.000000000,0.000000000,0.000000000,-0.782893479,0.000000000,4.080351830
1772687502.992685080,0.014857000,0.005730000,0.054486000,-0.011259490,-0.023180100,0.011529730,-0.999601410,0.022001000,0.046618000,-0.022555000,0.000275700,-0.000377875,0.000669853,0.003211727,0.001474585,-0.012330785,0.013035292,0.002412210,1.000592143,0.001200712,0.001873121,0.000036729,0.000000000,0.000000000,0.000000000,0.000000000,0.015922866,0.005396444,0.054444776,0.053346172,-0.017969178,0.000942863,0.015251360,-0.003596822,0.000355537,0.309738661,-0.074335210,-0.781747480,0.002707336,0.000630241,-0.006823702,0.999971835,0.000000000,0.000000000,0.000000000,0.000000000,0.000000000,0.000000000,-0.781256880,0.000000000,4.080351830
1772687503.002685070,0.014913000,0.005773000,0.054393000,-0.012038460,-0.021764740,0.011251560,-0.999627320,0.023603000,0.043798000,-0.021994000,0.000350544,-0.000615618,0.000999554,-0.018865570,0.026136785,-0.013153580,0.013804904,0.000209184,1.000364407,0.000700475,-0.000097492,0.003785180,0.000000000,0.000000000,0.000000000,0.000000000,0.015941633,0.005411596,0.054414370,0.053316221,-0.017807108,0.000816053,0.014620359,-0.004608032,0.000933688,0.310036352,-0.073587735,-0.780044346,0.002709880,0.000623740,-0.006808823,0.999971953,0.000000000,0.000000000,0.000000000,0.000000000,0.000000000,0.000000000,-0.779721713,0.000000000,4.080351830
1772687503.012685299,0.014930000,0.005778000,0.054365000,-0.012798070,-0.020692800,0.010970540,-0.999643770,0.025157000,0.041664000,-0.021424000,0.000533373,-0.000189297,0.000111830,-0.005863482,0.001738324,-0.001181866,0.013714584,-0.001925951,0.999826087,0.000663346,0.003820674,0.002000851,0.000000000,0.000000000,0.000000000,0.000000000,0.015947165,0.005427641,0.054397784,0.053220218,-0.017836850,0.000749991,0.014612619,-0.006914799,-0.000044076,0.310462637,-0.072993272,-0.779239530,0.002713560,0.000618547,-0.006801789,0.999972033,0.000000000,0.000000000,0.000000000,0.000000000,0.000000000,0.000000000,-0.779274636,0.000000000,4.080351830
1772687503.022684813,0.014879000,0.005748000,0.054452000,-0.011952740,-0.021791900,0.011351060,-0.999626630,0.023426000,0.043853000,-0.022196000,-0.000347805,-0.000352895,0.001017095,-0.028176322,0.030679955,0.000404981,0.012655884,-0.001719708,1.000635213,-0.001359635,0.004278190,0.001473317,0.000000000,0.000000000,0.000000000,0.000000000,0.015948472,0.005436114,0.054390490,0.053075206,-0.018059787,0.000663437,0.014706401,-0.006731740,0.000242592,0.311418524,-0.072823950,-0.778764857,0.002721889,0.000617024,-0.006797647,0.999971999,0.000000000,0.000000000,0.000000000,0.000000000,0.000000000,0.000000000,-0.778397942,0.000000000,4.080351830
1772687503.032685041,0.014871000,0.005719000,0.054489000,-0.011054450,-0.023120770,0.011496490,-0.999605450,0.021594000,0.046494000,-0.022499000,-0.001342523,-0.000704294,0.002109326,-0.064155604,0.085393408,-0.009617968,0.013710608,0.000072204,0.999387551,0.003920741,0.002163827,0.000439849,0.000000000,0.000000000,0.000000000,0.000000000,0.015944076,0.005438678,0.054383283,0.052927628,-0.018214037,0.000641424,0.015127257,-0.005697380,0.000649429,0.311750242,-0.073407851,-0.777426371,0.002724811,0.000622131,-0.006785983,0.999972055,0.000000000,0.000000000,0.000000000,0.000000000,0.000000000,0.000000000,-0.777034658,0.000000000,4.080351830
1772687503.042684317,0.014904000,0.005772000,0.054399000,-0.012010970,-0.021910890,0.011196160,-0.999625080,0.023547000,0.044089000,-0.021881000,-0.001011132,-0.000248446,0.001397709,-0.064539778,0.086173618,-0.010016253,0.013786705,-0.000858645,1.000481744,0.000552739,0.000917050,-0.001425524,0.000000000,0.000000000,0.000000000,0.000000000,0.015954990,0.005409191,0.054406238,0.052866541,-0.018412100,0.000710266,0.015100887,-0.006397098,-0.000628776,0.311781663,-0.074550450,-0.776284622,0.002725147,0.000632127,-0.006776047,0.999972164,0.000000000,0.000000000,0.000000000,0.000000000,0.000000000,0.000000000,-0.776254708,0.000000000,4.080351830
1772687503.052684784,0.014869000,0.005725000,0.054497000,-0.011145470,-0.022956570,0.011296240,-0.999610510,0.021789000,0.046163000,-0.022097000,0.000567502,0.001070164,-0.002005150,0.009467031,-0.036477391,0.014682414,0.013844914,-0.001786719,1.001811901,-0.000259502,-0.002311760,-0.000606695,0.000000000,0.000000000,0.000000000,0.000000000,0.015961990,0.005367895,0.054445086,0.052798650,-0.018664681,0.000850163,0.015237240,-0.007170554,0.001398011,0.312932715,-0.075424112,-0.776167887,0.002735242,0.000639686,-0.006775055,0.999972110,0.000000000,0.000000000,0.000000000,0.000000000,0.000000000,0.000000000,-0.775769121,0.000000000,4.080351830
1772687503.062685013,0.014842000,0.005736000,0.054508000,-0.010575560,-0.023635980,0.011435390,-0.999599280,0.020627000,0.047513000,-0.022389000,0.001152254,0.001089822,-0.002693146,0.061553010,-0.110434319,0.025344113,0.013898478,-0.001398142,1.001464156,0.000131119,-0.001564913,-0.000590343,0.000000000,0.000000000,0.000000000,0.000000000,0.015943019,0.005360202,0.054454614,0.052630126,-0.018839792,0.000979734,0.015040278,-0.007571674,0.001667612,0.312226862,-0.074523003,-0.774729338,0.002729021,0.000631898,-0.006762476,0.999972192,0.000000000,0.000000000,0.000000000,0.000000000,0.000000000,0.000000000,-0.774410436,0.000000000,4.080351830
1772687503.072685003,0.014900000,0.005783000,0.054386000,-0.011733080,-0.021914580,0.011134460,-0.999628990,0.022994000,0.044088000,-0.021769000,0.001174613,0.000996019,-0.002332986,0.091286090,-0.141943122,0.020962961,0.014815661,-0.000229603,1.001446759,0.000190499,0.001621588,-0.001496635,0.000000000,0.000000000,0.000000000,0.000000000,0.015942528,0.005383226,0.054428510,0.052548752,-0.018918039,0.000949813,0.015702720,-0.006328535,0.000907425,0.311487135,-0.074533406,-0.774483387,0.002722565,0.000632039,-0.006760326,0.999972224,0.000000000,0.000000000,0.000000000,0.000000000,0.000000000,0.000000000,-0.774508558,0.000000000,4.080351830
1772687503.082684755,0.014928000,0.005788000,0.054352000,-0.012515250,-0.020602990,0.010953340,-0.999649390,0.024594000,0.041478000,-0.021403000,0.000969581,0.000307809,-0.001020494,0.083737227,-0.116952942,0.013219936,0.015794684,0.001206795,1.002425852,0.000671107,0.003036937,-0.000561781,0.000000000,0.000000000,0.000000000,0.000000000,0.015941018,0.005405086,0.054409309,0.052543931,-0.018896600,0.000890292,0.016626614,-0.004965515,0.003092739,0.311098465,-0.074385672,-0.774268391,0.002719164,0.000630777,-0.006758444,0.999972255,0.000000000,0.000000000,0.000000000,0.000000000,0.000000000,0.000000000,-0.774196672,0.000000000,4.080351830
1772687503.092684746,0.014928000,0.005782000,0.054345000,-0.013090390,-0.019674890,0.010823050,-0.999662140,0.025769000,0.039630000,-0.021142000,0.000467930,-0.000427856,0.000304585,0.059310644,-0.063862336,0.009238818,0.015896400,0.002369267,1.002271511,0.001282048,-0.000345242,0.000297578,0.000000000,0.000000000,0.000000000,0.000000000,0.015941721,0.005413927,0.054403793,0.052646422,-0.018805268,0.001130419,0.017287939,-0.003422066,0.002098374,0.310480319,-0.075141830,-0.773703850,0.002713811,0.000637426,-0.006753532,0.999972315,0.000000000,0.000000000,0.000000000,0.000000000,0.000000000,0.000000000,-0.773526944,0.000000000,4.080351830
1772687503.102684736,0.014888000,0.005736000,0.054475000,-0.012238590,-0.021490510,0.011236590,-0.999630990,0.024010000,0.043254000,-0.021961000,-0.001019931,-0.001676322,0.002973099,-0.030679742,0.073607610,-0.009745982,0.015345419,0.001867719,1.002144039,-0.000468605,-0.001514698,0.000446799,0.000000000,0.000000000,0.000000000,0.000000000,0.015937564,0.005428022,0.054396157,0.052769173,-0.018551247,0.001234462,0.016975622,-0.003913954,0.002097284,0.310542641,-0.075441778,-0.772132195,0.002714364,0.000640077,-0.006739825,0.999972383,0.000000000,0.000000000,0.000000000,0.000000000,0.000000000,0.000000000,-0.771729425,0.000000000,4.080351830
1772687503.112685680,0.014913000,0.005775000,0.054406000,-0.012892020,-0.020621260,0.011046320,-0.999643210,0.025344000,0.041525000,-0.021573000,-0.001925604,-0.001946894,0.003746818,-0.118648239,0.192962989,-0.028193899,0.014791384,0.001431037,1.001093276,0.004134515,-0.002228401,0.003106721,0.000000000,0.000000000,0.000000000,0.000000000,0.015922978,0.005422123,0.054414388,0.052775781,-0.018431555,0.001484369,0.015531680,-0.003919307,0.001859899,0.310626605,-0.074218712,-0.771223252,0.002715020,0.000629421,-0.006731864,0.999972403,0.000000000,0.000000000,0.000000000,0.000000000,0.000000000,0.000000000,-0.770448083,0.000000000,4.080351830
1772687503.122685432,0.014874000,0.005715000,0.054497000,-0.011598820,-0.022384670,0.011196050,-0.999619450,0.022713000,0.045027000,-0.021888000,-0.001645961,-0.001683898,0.002760706,-0.162430893,0.242425625,-0.034205525,0.015646239,0.000439796,1.000237141,0.001510655,-0.002307151,-0.001788855,0.000000000,0.000000000,0.000000000,0.000000000,0.015904992,0.005380145,0.054486208,0.052734069,-0.018449643,0.001854482,0.016278409,-0.004565872,0.000308322,0.310352185,-0.073252597,-0.767765931,0.002712550,0.000621088,-0.006701671,0.999972711,0.000000000,0.000000000,0.000000000,0.000000000,0.000000000,0.000000000,-0.767426733,0.000000000,4.080351830
1772687503.132684708,0.014858000,0.005698000,0.054503000,-0.010779500,-0.023760270,0.011272670,-0.999596010,0.021040000,0.047763000,-0.022051000,-0.000521387,-0.000876127,0.000950156,-0.143195830,0.208411515,-0.029089457,0.015640208,0.000570113,1.001960955,0.000016124,0.003247507,0.003946439,0.000000000,0.000000000,0.000000000,0.000000000,0.015900287,0.005356870,0.054518252,0.052874547,-0.018464193,0.001959900,0.017266250,-0.005809488,0.001716774,0.311251638,-0.072938444,-0.767199460,0.002720377,0.000618307,-0.006696725,0.999972739,0.000000000,0.000000000,0.000000000,0.000000000,0.000000000,0.000000000,-0.767406228,0.000000000,4.080351830
1772687503.142684698,0.014852000,0.005717000,0.054488000,-0.010093330,-0.024729230,0.011500620,-0.999577070,0.019635000,0.049690000,-0.022522000,0.000798466,0.000765541,-0.001813405,-0.050033421,0.072747678,-0.007737202,0.015904232,0.000358832,1.000077115,0.000790640,0.003542857,0.002465428,0.000000000,0.000000000,0.000000000,0.000000000,0.015916557,0.005378534,0.054486442,0.053072814,-0.018429135,0.001911386,0.016833992,-0.005600717,0.000327072,0.311478532,-0.073267102,-0.767689178,0.002722379,0.000621150,-0.006701008,0.999972675,0.000000000,0.000000000,0.000000000,0.000000000,0.000000000,0.000000000,-0.767700551,0.000000000,4.080351830
1772687503.152685165,0.014874000,0.005714000,0.054478000,-0.009827970,-0.024869040,0.011530480,-0.999575910,0.019099000,0.049964000,-0.022592000,0.001153770,0.001253342,-0.002078887,0.029701596,-0.041251794,0.007756066,0.016094613,0.001188482,0.998794942,0.001909670,-0.000703980,-0.000431456,0.000000000,0.000000000,0.000000000,0.000000000,0.015912124,0.005384105,0.054485028,0.053195493,-0.018407622,0.001786168,0.017275559,-0.004726008,-0.001715087,0.311480913,-0.073669083,-0.766804244,0.002722418,0.000624679,-0.006693295,0.999972689,0.000000000,0.000000000,0.000000000,0.000000000,0.000000000,0.000000000,-0.766415712,0.000000000,4.080351830
