t,px,py,pz,qx,qy,qz,qw,roll,pitch,yaw,vx,vy,vz,wx_vicon,wy_vicon,wz_vicon,imu_acc_x,imu_acc_y,imu_acc_z,imu_gyro_x,imu_gyro_y,imu_gyro_z,motor_motor_m1,motor_motor_m2,motor_motor_m3,motor_motor_m4,est_stateEstimate_x,est_stateEstimate_y,est_stateEstimate_z,est_stateEstimate_vx,est_stateEstimate_vy,est_stateEstimate_vz,est_stateEstimate_ax,est_stateEstimate_ay,est_stateEstimate_az,att_stateEstimate_roll,att_stateEstimate_pitch,att_stateEstimate_yaw,att_stateEstimate_qx,att_stateEstimate_qy,att_stateEstimate_qz,att_stateEstimate_qw,sp_ctrltarget_x,sp_ctrltarget_y,sp_ctrltarget_z,sp_ctrltarget_yaw,pid_controller_roll,pid_controller_pitch,pid_controller_yaw,pid_controller_cmd_thrust,pwr_pm_vbat
1772684476.716497421,0.012695000,0.002339000,0.071446000,-0.001423960,0.008906930,0.000769930,0.999959020,-0.002835000,0.017816000,0.001515000,-0.000671446,-0.000011092,0.000910801,-0.026690476,0.013864037,0.003442363,0.002018425,-0.001102504,0.999505768,0.001518773,0.003003021,-0.000220735,0.000000000,0.000000000,0.000000000,0.000000000,0.012943158,0.002327143,0.071415736,0.017274760,-0.000321493,-0.002202267,0.006247060,-0.000015957,-0.000805995,-0.056497405,-0.233902957,0.045589390,-0.000493843,0.002040993,0.000398848,0.999996722,0.000000000,0.000000000,0.000000000,0.000000000,0.000000000,0.000000000,0.045862431,0.000000000,4.212316990
1772684476.726497173,0.012693000,0.002338000,0.071449000,-0.001486760,0.008899810,0.000777950,0.999958990,-0.002960000,0.017802000,0.001530000,-0.000342191,-0.000238598,0.000124903,-0.010056041,-0.010610879,-0.003333821,0.000704440,-0.002715716,0.999318415,-0.000788429,0.001745833,-0.001031793,0.000000000,0.000000000,0.000000000,0.000000000,0.012988391,0.002328958,0.071406219,0.017622513,-0.000298320,-0.002232498,0.004940279,-0.001098866,-0.000604580,-0.055805520,-0.234401892,0.045404323,-0.000487804,0.002045350,0.000397222,0.999996711,0.000000000,0.000000000,0.000000000,0.000000000,0.000000000,0.000000000,0.045034530,0.000000000,4.212316990
1772684476.736497164,0.012682000,0.002334000,0.071453000,-0.001546600,0.008789300,0.000725660,0.999959910,-0.003081000,0.017581000,0.001424000,-0.000112238,-0.000320533,-0.000262160,0.000287519,-0.020970724,-0.006493640,0.000598775,-0.004123240,0.998758056,-0.001432676,0.001420707,0.000075013,0.000000000,0.000000000,0.000000000,0.000000000,0.013010590,0.002324474,0.071401596,0.017711114,-0.000484515,-0.002232671,0.003270126,-0.003182731,-0.001144539,-0.055894738,-0.235648614,0.044800682,-0.000488576,0.002056232,0.000391962,0.999996662,0.000000000,0.000000000,0.000000000,0.000000000,0.000000000,0.000000000,0.044659759,0.000000000,4.212316990
1772684476.746496916,0.012689000,0.002327000,0.071447000,-0.001472560,0.008649080,0.000735440,0.999961240,-0.002933000,0.017301000,0.001446000,0.000033800,-0.000292560,-0.000351088,0.005470110,-0.020605831,-0.006828732,0.002677340,-0.002681034,0.998227042,-0.001155427,0.004248232,-0.000029998,0.000000000,0.000000000,0.000000000,0.000000000,0.013024529,0.002318018,0.071402078,0.017679898,-0.000791964,-0.002291853,0.006598128,-0.002000030,-0.001954449,-0.056072318,-0.236340518,0.045137460,-0.000490134,0.002062268,0.000394907,0.999996662,0.000000000,0.000000000,0.000000000,0.000000000,0.000000000,0.000000000,0.045538840,0.000000000,4.212316990
1772684476.756496906,0.012692000,0.002337000,0.071440000,-0.001503190,0.008671310,0.000669420,0.999961050,-0.002995000,0.017345000,0.001313000,0.000111305,-0.000190346,-0.000242580,0.006627430,-0.012903850,-0.005136886,0.003058742,-0.000844787,0.999362262,0.000076727,0.000792576,0.001510354,0.000000000,0.000000000,0.000000000,0.000000000,0.013027151,0.002315161,0.071401489,0.017947639,-0.000866741,-0.002379174,0.007028192,-0.000701256,-0.000763047,-0.056724902,-0.237423993,0.045630525,-0.000495842,0.002071718,0.000399226,0.999996653,0.000000000,0.000000000,0.000000000,0.000000000,0.000000000,0.000000000,0.045610581,0.000000000,4.212316990
1772684476.766496658,0.012689000,0.002327000,0.071440000,-0.001503860,0.008738290,0.000669290,0.999960470,-0.002996000,0.017479000,0.001312000,0.000135664,-0.000049553,-0.000037335,0.004887462,-0.001255863,-0.002211170,0.001939257,-0.000503975,1.000501093,0.000484698,-0.002050089,0.002395476,0.000000000,0.000000000,0.000000000,0.000000000,0.013033064,0.002317919,0.071403022,0.018092967,-0.000818783,-0.002297301,0.006014062,0.001062097,0.000379755,-0.057512210,-0.238157027,0.046251787,-0.000502726,0.002078110,0.000404665,0.999996610,0.000000000,0.000000000,0.000000000,0.000000000,0.000000000,0.000000000,0.046689446,0.000000000,4.212316990
1772684476.776496649,0.012695000,0.002324000,0.071446000,-0.001392910,0.008521030,0.000634630,0.999962520,-0.002775000,0.017044000,0.001246000,0.000132984,0.000127797,0.000082459,0.000656223,0.009531129,0.001622671,0.001531298,-0.001050405,0.999754629,-0.000483811,-0.001498129,0.002005473,0.000000000,0.000000000,0.000000000,0.000000000,0.013042179,0.002318405,0.071402004,0.018195020,-0.000687317,-0.002140869,0.006322949,0.000046927,-0.000232792,-0.057593951,-0.237707649,0.046898045,-0.000503449,0.002074185,0.000410304,0.999996662,0.000000000,0.000000000,0.000000000,0.000000000,0.000000000,0.000000000,0.046951616,0.000000000,4.212316990
1772684476.786496401,0.012685000,0.002328000,0.071445000,-0.001406000,0.008543650,0.000669010,0.999962290,-0.002801000,0.017089000,0.001314000,-0.000031585,0.000165229,0.000062568,-0.003087790,0.014447497,0.003839162,0.000243035,-0.001202898,0.998768323,-0.000987824,0.002023737,0.002052379,0.000000000,0.000000000,0.000000000,0.000000000,0.013042827,0.002320352,0.071401856,0.018267218,-0.000664957,-0.002137882,0.004712031,-0.000295677,-0.001110069,-0.057198709,-0.237058535,0.047013886,-0.000500000,0.002068522,0.000411305,0.999996662,0.000000000,0.000000000,0.000000000,0.000000000,0.000000000,0.000000000,0.047040666,0.000000000,4.212316990
1772684476.796496868,0.012690000,0.002336000,0.071449000,-0.001460430,0.008848170,0.000748910,0.999959510,-0.002908000,0.017699000,0.001472000,0.000113772,0.000050330,-0.000006294,-0.003261904,0.017270981,0.004077701,0.000174655,-0.001717000,1.000137185,0.000353784,-0.001966010,-0.001478862,0.000000000,0.000000000,0.000000000,0.000000000,0.013043367,0.002317625,0.071399332,0.018117125,-0.000663283,-0.002144352,0.004112010,-0.001052292,-0.000589213,-0.057490923,-0.236355700,0.047351766,-0.000502554,0.002062386,0.000414256,0.999996662,0.000000000,0.000000000,0.000000000,0.000000000,0.000000000,0.000000000,0.047643375,0.000000000,4.212316990
1772684476.806497097,0.012701000,0.002333000,0.071443000,-0.001540010,0.009008460,0.000682750,0.999958000,-0.003068000,0.018019000,0.001338000,0.000192832,0.000019211,-0.000138850,-0.002669069,0.020736410,0.001479976,0.002228218,-0.001308957,0.999975098,0.000541558,-0.000745167,-0.003304353,0.000000000,0.000000000,0.000000000,0.000000000,0.013046922,0.002314616,0.071401038,0.018109579,-0.000740117,-0.002087989,0.005343298,-0.000054784,0.000333522,-0.058947476,-0.235890296,0.047185774,-0.000515260,0.002058320,0.000412831,0.999996662,0.000000000,0.000000000,0.000000000,0.000000000,0.000000000,0.000000000,0.046591866,0.000000000,4.212316990
1772684476.816496611,0.012690000,0.002335000,0.071442000,-0.001520670,0.008900510,0.000765370,0.999958940,-0.003028000,0.017804000,0.001504000,0.000086441,-0.000142463,-0.000259654,0.000508473,0.011845967,0.000786026,0.001306045,-0.000409220,1.000806283,0.005181985,-0.003010361,-0.002213925,0.000000000,0.000000000,0.000000000,0.000000000,0.013045796,0.002314854,0.071400911,0.018147118,-0.000656567,-0.001960337,0.005924198,0.001043517,0.000780617,-0.059420007,-0.235410630,0.046049765,-0.000519361,0.002054137,0.000402924,0.999996662,0.000000000,0.000000000,0.000000000,0.000000000,0.000000000,0.000000000,0.046112140,0.000000000,4.212316990
1772684476.826496601,0.012692000,0.002327000,0.071437000,-0.001469680,0.008932620,0.000718830,0.999958760,-0.002927000,0.017868000,0.001412000,-0.000008294,-0.000145921,-0.000104992,0.004124813,-0.005294908,0.000275646,0.002184418,-0.000891456,1.000493576,0.000366401,0.002191050,0.000400201,0.000000000,0.000000000,0.000000000,0.000000000,0.013042558,0.002317735,0.071401449,0.018184255,-0.000543984,-0.001823417,0.005862114,-0.000103931,0.000247184,-0.059298910,-0.234952881,0.046129469,-0.000518304,0.002050142,0.000403615,0.999996709,0.000000000,0.000000000,0.000000000,0.000000000,0.000000000,0.000000000,0.046030246,0.000000000,4.212316990
1772684476.836496353,0.012702000,0.002324000,0.071444000,-0.001439070,0.009009550,0.000684950,0.999958140,-0.002866000,0.018021000,0.001344000,-0.000163093,-0.000029254,0.000033877,0.004459089,-0.015766567,0.000998214,0.000546715,-0.003987465,0.998424327,-0.000162628,0.001305947,-0.001820979,0.000000000,0.000000000,0.000000000,0.000000000,0.013040882,0.002321077,0.071406676,0.018209681,-0.000593457,-0.001754302,0.005445586,-0.001395578,-0.001526974,-0.059498188,-0.235773054,0.045814775,-0.000520041,0.002057301,0.000400876,0.999996677,0.000000000,0.000000000,0.000000000,0.000000000,0.000000000,0.000000000,0.045505183,0.000000000,4.212316990
1772684476.846495628,0.012692000,0.002329000,0.071438000,-0.001417670,0.008937950,0.000721110,0.999958790,-0.002823000,0.017878000,0.001417000,-0.000212685,0.000158256,0.000091550,0.000061137,-0.010471036,0.002837145,0.000190500,0.000063670,0.998071299,0.000181784,-0.003125356,0.001466457,0.000000000,0.000000000,0.000000000,0.000000000,0.013040703,0.002322307,0.071409620,0.018206828,-0.000651702,-0.001764501,0.004631054,-0.001010515,-0.002784145,-0.058878955,-0.236096661,0.045123238,-0.000514626,0.002060130,0.000394832,0.999996662,0.000000000,0.000000000,0.000000000,0.000000000,0.000000000,0.000000000,0.045141517,0.000000000,4.212316990
1772684476.856496096,0.012686000,0.002333000,0.071438000,-0.001437720,0.008657950,0.000782910,0.999961180,-0.002862000,0.017318000,0.001541000,-0.000212665,0.000255828,0.000054565,-0.006074992,-0.001446765,0.003345919,0.000711790,-0.000117451,0.998322183,0.000186227,-0.002813400,0.000908097,0.000000000,0.000000000,0.000000000,0.000000000,0.013040717,0.002322296,0.071409513,0.018190897,-0.000653295,-0.001795492,0.004717163,-0.000852102,-0.002485540,-0.058817739,-0.235881663,0.045173596,-0.000514091,0.002058254,0.000395269,0.999996669,0.000000000,0.000000000,0.000000000,0.000000000,0.000000000,0.000000000,0.045193734,0.000000000,4.212316990
1772684476.866496086,0.012689000,0.002336000,0.071450000,-0.001506710,0.008750970,0.000769850,0.999960280,-0.003000000,0.017504000,0.001513000,-0.000193881,0.000239200,0.000174942,-0.007250346,0.000733949,0.001939780,0.001233056,-0.000298564,0.998573055,0.000190670,-0.002501458,0.000349763,0.000000000,0.000000000,0.000000000,0.000000000,0.013040731,0.002322285,0.071409406,0.018174968,-0.000654888,-0.001826481,0.004803269,-0.000693697,-0.002186949,-0.058756526,-0.235666675,0.045223952,-0.000513557,0.002056378,0.000395707,0.999996678,0.000000000,0.000000000,0.000000000,0.000000000,0.000000000,0.000000000,0.045245948,0.000000000,4.212316990
1772684476.876496315,0.012690000,0.002334000,0.071443000,-0.001520130,0.008830240,0.000757560,0.999959570,-0.003027000,0.017663000,0.001488000,0.000090054,-0.000063986,0.000163326,-0.006392778,0.008321490,-0.001289541,0.001754335,-0.000479681,0.998823932,0.000195113,-0.002189509,-0.000208584,0.000000000,0.000000000,0.000000000,0.000000000,0.013040746,0.002322274,0.071409299,0.018159038,-0.000656481,-0.001857472,0.004889376,-0.000535288,-0.001888352,-0.058695311,-0.235451681,0.045274309,-0.000513023,0.002054501,0.000396144,0.999996686,0.000000000,0.000000000,0.000000000,0.000000000,0.000000000,0.000000000,0.045298163,0.000000000,4.212316990
1772684476.886496305,0.012685000,0.002335000,0.071440000,-0.001599330,0.009020360,0.000779460,0.999957730,-0.003185000,0.018043000,0.001530000,0.000382149,-0.000263268,0.000166375,-0.005753462,0.011999416,-0.003482815,0.002275601,-0.000660794,0.999074804,0.000199556,-0.001877568,-0.000766918,0.000000000,0.000000000,0.000000000,0.000000000,0.013040760,0.002322263,0.071409193,0.018143108,-0.000658075,-0.001888461,0.004975482,-0.000376883,-0.001589761,-0.058634098,-0.235236693,0.045324665,-0.000512489,0.002052625,0.000396581,0.999996695,0.000000000,0.000000000,0.000000000,0.000000000,0.000000000,0.000000000,0.045350377,0.000000000,4.212316990
1772684476.896496296,0.012690000,0.002333000,0.071448000,-0.001586430,0.008981770,0.000767390,0.999958110,-0.003159000,0.017966000,0.001506000,0.000400700,-0.000392094,0.000067560,-0.003671577,0.012597862,-0.000865381,0.002796866,-0.000841907,0.999325676,0.000203998,-0.001565626,-0.001325252,0.000000000,0.000000000,0.000000000,0.000000000,0.013040774,0.002322252,0.071409086,0.018127179,-0.000659668,-0.001919451,0.005061587,-0.000218478,-0.001291170,-0.058572885,-0.235021705,0.045375021,-0.000511955,0.002050749,0.000397019,0.999996704,0.000000000,0.000000000,0.000000000,0.000000000,0.000000000,0.000000000,0.045402591,0.000000000,4.212316990
1772684476.906497002,0.012702000,0.002325000,0.071455000,-0.001539500,0.008882680,0.000670320,0.999959140,-0.003067000,0.017768000,0.001313000,0.000289278,-0.000265229,0.000082576,-0.003004902,0.002848072,0.003336274,0.003318170,-0.001023033,0.999576566,0.000208442,-0.001253662,-0.001883625,0.000000000,0.000000000,0.000000000,0.000000000,0.013039671,0.002322481,0.071407719,0.018157761,-0.000636621,-0.001926088,0.005147699,-0.000060061,-0.000992558,-0.058511667,-0.234806702,0.045425381,-0.000511421,0.002048873,0.000397456,0.999996713,0.000000000,0.000000000,0.000000000,0.000000000,0.000000000,0.000000000,0.045448496,0.000000000,4.212316990
1772684476.916496754,0.012704000,0.002319000,0.071445000,-0.001615660,0.009047730,0.000765070,0.999957470,-0.003218000,0.018098000,0.001501000,0.000076981,-0.000231275,0.000098524,-0.001974571,-0.000961105,0.005927024,0.003391329,-0.001606296,0.999883618,0.000252391,-0.000281301,-0.001926579,0.000000000,0.000000000,0.000000000,0.000000000,0.013038547,0.002322714,0.071406329,0.018189187,-0.000613129,-0.001932282,0.006675916,-0.000355884,-0.000311766,-0.058528529,-0.234572599,0.045427754,-0.000511568,0.002046830,0.000397476,0.999996721,0.000000000,0.000000000,0.000000000,0.000000000,0.000000000,0.000000000,0.045406412,0.000000000,4.212316990
1772684476.926496744,0.012699000,0.002325000,0.071447000,-0.001649510,0.008967390,0.000797620,0.999958110,-0.003285000,0.017938000,0.001566000,-0.000143745,-0.000019872,-0.000008974,0.000121062,-0.002720398,0.003993562,0.002003050,-0.003157431,1.000432994,0.000635084,0.001744127,-0.000460024,0.000000000,0.000000000,0.000000000,0.000000000,0.013040359,0.002322107,0.071408672,0.018339159,-0.000656677,-0.001855249,0.006424411,-0.001464286,0.000362451,-0.058510102,-0.234426448,0.044957305,-0.000511398,0.002045556,0.000393370,0.999996722,0.000000000,0.000000000,0.000000000,0.000000000,0.000000000,0.000000000,0.044277908,0.000000000,4.212316990
1772684476.936496735,0.012697000,0.002321000,0.071450000,-0.001605090,0.009071310,0.000867120,0.999957190,-0.003195000,0.018146000,0.001705000,-0.000220843,0.000061810,-0.000061247,0.001008459,-0.002448420,0.000655211,0.000903922,-0.002163502,1.001273184,0.002296740,-0.003714369,-0.000447282,0.000000000,0.000000000,0.000000000,0.000000000,0.013046110,0.002318614,0.071413381,0.018397141,-0.000776532,-0.001717446,0.005278413,-0.001725653,0.000813539,-0.058127559,-0.234609067,0.043624444,-0.000508036,0.002047157,0.000381732,0.999996722,0.000000000,0.000000000,0.000000000,0.000000000,0.000000000,0.000000000,0.043680906,0.000000000,4.212316990
1772684476.946496487,0.012692000,0.002330000,0.071451000,-0.001619560,0.008875150,0.000830920,0.999958960,-0.003225000,0.017753000,0.001633000,-0.000196834,0.000160004,0.000015773,0.002236799,-0.005959678,-0.004990220,0.002961112,-0.000517308,0.999548864,-0.000140022,0.000318884,-0.002487703,0.000000000,0.000000000,0.000000000,0.000000000,0.013052449,0.002312886,0.071415655,0.018441510,-0.000843848,-0.001587966,0.005926319,-0.000029229,0.000292584,-0.057662121,-0.234867407,0.043758692,-0.000503978,0.002049413,0.000382897,0.999996722,0.000000000,0.000000000,0.000000000,0.000000000,0.000000000,0.000000000,0.043543533,0.000000000,4.212316990
1772684476.956496477,0.012689000,0.002319000,0.071446000,-0.001556520,0.008938790,0.000777050,0.999958530,-0.003100000,0.017880000,0.001526000,-0.000027642,0.000083625,0.000121989,0.004093137,-0.004785285,-0.007461088,0.002338088,-0.000203576,0.996775256,0.000818734,0.000079961,0.001597069,0.000000000,0.000000000,0.000000000,0.000000000,0.013056082,0.002310078,0.071415813,0.018579432,-0.000746739,-0.001621260,0.006880659,0.000984317,-0.002129140,-0.058033602,-0.235734505,0.043162455,-0.000507212,0.002056981,0.000377704,0.999996722,0.000000000,0.000000000,0.000000000,0.000000000,0.000000000,0.000000000,0.042961972,0.000000000,4.212316990
1772684476.966495991,0.012696000,0.002332000,0.071451000,-0.001553330,0.008915320,0.000662840,0.999958830,-0.003095000,0.017833000,0.001298000,0.000034110,-0.000079196,0.000077079,0.004636030,0.002652876,-0.006791237,0.001079221,-0.002162114,0.998629199,0.002438350,-0.000611567,-0.000155626,0.000000000,0.000000000,0.000000000,0.000000000,0.013056915,0.002309533,0.071416544,0.018648101,-0.000674491,-0.001808740,0.005363626,-0.000224419,-0.001659332,-0.056934799,-0.235859282,0.042899554,-0.000497619,0.002058075,0.000375391,0.999996722,0.000000000,0.000000000,0.000000000,0.000000000,0.000000000,0.000000000,0.043147834,0.000000000,4.212316990
1772684476.976495504,0.012700000,0.002320000,0.071450000,-0.001559460,0.008894550,0.000687440,0.999958990,-0.003107000,0.017791000,0.001347000,-0.000062723,-0.000101748,0.000083508,0.005219992,0.001817754,-0.004427558,0.002105666,-0.001407835,0.998518621,0.000493830,-0.001174788,0.000446114,0.000000000,0.000000000,0.000000000,0.000000000,0.013054594,0.002313411,0.071416030,0.018647468,-0.000680772,-0.001864868,0.006107542,-0.001074668,-0.001225189,-0.055870471,-0.234359847,0.043517673,-0.000488337,0.002044991,0.000380759,0.999996722,0.000000000,0.000000000,0.000000000,0.000000000,0.000000000,0.000000000,0.043582292,0.000000000,4.212316990
1772684476.986495495,0.012690000,0.002329000,0.071451000,-0.001555930,0.008929000,0.000685020,0.999958690,-0.003100000,0.017860000,0.001342000,-0.000230808,-0.000046426,-0.000136208,0.005016397,0.004112611,-0.002484375,0.000338968,-0.001335598,1.000086051,-0.003941200,0.001609135,0.003380071,0.000000000,0.000000000,0.000000000,0.000000000,0.013052404,0.002310495,0.071413255,0.018667819,-0.000722204,-0.001913273,0.004682268,0.000876285,-0.000164693,-0.055387976,-0.233979639,0.043490011,-0.000484125,0.002041675,0.000380508,0.999996722,0.000000000,0.000000000,0.000000000,0.000000000,0.000000000,0.000000000,0.043590748,0.000000000,4.212316990
1772684476.996494770,0.012692000,0.002321000,0.071453000,-0.001482220,0.009049320,0.000758300,0.999957670,-0.002951000,0.018101000,0.001490000,-0.000079915,0.000046406,-0.000261985,0.001607587,0.000823410,0.000556810,-0.000681000,-0.002537352,1.001312261,-0.004208985,0.003188457,-0.000353119,0.000000000,0.000000000,0.000000000,0.000000000,0.013054788,0.002312819,0.071414759,0.018492832,-0.000700821,-0.001747379,0.003600157,-0.001184361,0.001183171,-0.054877427,-0.233332870,0.044807557,-0.000479691,0.002036027,0.000391994,0.999996722,0.000000000,0.000000000,0.000000000,0.000000000,0.000000000,0.000000000,0.044759843,0.000000000,4.212316990
1772684477.006494761,0.012688000,0.002320000,0.071449000,-0.001446700,0.008970710,0.000639540,0.999958510,-0.002882000,0.017943000,0.001253000,0.000045552,0.000018648,-0.000202312,-0.001342608,-0.003240548,-0.000069135,0.001682134,-0.001359328,0.999737682,0.004176281,0.000398244,-0.005082223,0.000000000,0.000000000,0.000000000,0.000000000,0.013051553,0.002312255,0.071417629,0.018348761,-0.000756983,-0.001557704,0.005608228,-0.000291706,-0.000064894,-0.055832945,-0.235212278,0.044478060,-0.000488029,0.002052425,0.000389143,0.999996673,0.000000000,0.000000000,0.000000000,0.000000000,0.000000000,0.000000000,0.044201266,0.000000000,4.212316990
1772684477.016494513,0.012686000,0.002327000,0.071443000,-0.001487640,0.008831660,0.000670700,0.999959670,-0.002964000,0.017666000,0.001315000,0.000224223,0.000130187,-0.000014646,-0.003290958,-0.007844313,-0.002600069,0.001881405,-0.001874945,0.997348799,-0.000615537,-0.002137313,0.002096465,0.000000000,0.000000000,0.000000000,0.000000000,0.013048165,0.002310261,0.071420985,0.018373600,-0.000766790,-0.001551782,0.006315101,-0.000649045,-0.002315946,-0.055402217,-0.235779664,0.044403955,-0.000484271,0.002057379,0.000388491,0.999996719,0.000000000,0.000000000,0.000000000,0.000000000,0.000000000,0.000000000,0.044922938,0.000000000,4.212316990
1772684477.026493549,0.012691000,0.002331000,0.071434000,-0.001550230,0.008945140,0.000640290,0.999958580,-0.003089000,0.017892000,0.001253000,0.000115676,0.000126282,0.000152020,-0.002857431,-0.011936481,-0.002066287,0.001277069,-0.002178134,0.998044037,0.002982064,-0.000998773,-0.000990600,0.000000000,0.000000000,0.000000000,0.000000000,0.013045736,0.002307443,0.071418785,0.018426066,-0.000843524,-0.001811585,0.006017774,-0.001960103,-0.002988694,-0.054847476,-0.234176801,0.045096273,-0.000479437,0.002043390,0.000394516,0.999996672,0.000000000,0.000000000,0.000000000,0.000000000,0.000000000,0.000000000,0.045056372,0.000000000,4.212316990
1772684477.036493301,0.012709000,0.002325000,0.071451000,-0.001588250,0.008842690,0.000740100,0.999959370,-0.003164000,0.017688000,0.001452000,-0.000183955,0.000322339,0.000090152,-0.002308714,-0.013449563,0.002288085,0.001321184,-0.001377320,1.000071991,0.000020587,0.003365329,0.001099893,0.000000000,0.000000000,0.000000000,0.000000000,0.013043846,0.002309094,0.071411678,0.018441467,-0.000952784,-0.001957798,0.004773279,-0.000459475,-0.000143080,-0.053699243,-0.232969173,0.044961785,-0.000469411,0.002032856,0.000393317,0.999996722,0.000000000,0.000000000,0.000000000,0.000000000,0.000000000,0.000000000,0.044909195,0.000000000,4.212316990
1772684477.046493530,0.012691000,0.002329000,0.071457000,-0.001555270,0.008698740,0.000635360,0.999960750,-0.003100000,0.017400000,0.001244000,-0.000158081,0.000256546,-0.000017560,0.002444042,-0.011660194,0.007235118,0.000732456,-0.001216350,0.999611448,-0.000785318,0.002192328,0.004247728,0.000000000,0.000000000,0.000000000,0.000000000,0.013046302,0.002311000,0.071405129,0.018406339,-0.000931964,-0.001881745,0.005433488,-0.000271043,-0.000489403,-0.053511473,-0.232990907,0.045214323,-0.000467777,0.002033045,0.000395518,0.999996722,0.000000000,0.000000000,0.000000000,0.000000000,0.000000000,0.000000000,0.045383612,0.000000000,4.212316990
1772684477.056493521,0.012688000,0.002331000,0.071450000,-0.001490200,0.008724990,0.000686570,0.999960590,-0.002969000,0.017452000,0.001347000,-0.000108877,0.000074029,-0.000087102,0.004138336,-0.009682217,0.009225874,0.000352335,-0.001150691,0.998768888,-0.001515331,0.001700723,0.004116844,0.000000000,0.000000000,0.000000000,0.000000000,0.013054062,0.002309793,0.071409648,0.018413917,-0.000915574,-0.001857353,0.004679156,-0.000080097,-0.001045666,-0.053598224,-0.233725238,0.045922632,-0.000468549,0.002039450,0.000401703,0.999996722,0.000000000,0.000000000,0.000000000,0.000000000,0.000000000,0.000000000,0.046259890,0.000000000,4.212316990
1772684477.066493273,0.012679000,0.002338000,0.071446000,-0.001480340,0.008642680,0.000763730,0.999961260,-0.002948000,0.017288000,0.001502000,0.000213132,-0.000049068,-0.000058275,0.000122851,-0.004250355,0.008175854,0.000585424,-0.001496612,0.998677885,-0.003578521,0.000859019,0.000174092,0.000000000,0.000000000,0.000000000,0.000000000,0.013051736,0.002310411,0.071414103,0.018330698,-0.000888241,-0.001881002,0.004532899,-0.000000347,-0.001023448,-0.053535909,-0.234500843,0.046725823,-0.000468022,0.002046216,0.000408715,0.999996722,0.000000000,0.000000000,0.000000000,0.000000000,0.000000000,0.000000000,0.046989142,0.000000000,4.212316990
1772684477.076492786,0.012690000,0.002338000,0.071435000,-0.001534750,0.008618230,0.000872340,0.999961300,-0.003055000,0.017239000,0.001718000,0.000366045,-0.000173271,0.000192094,-0.004040606,0.000733530,0.004812916,0.001921305,-0.002044563,0.999808103,0.001709409,-0.000577843,-0.000363874,0.000000000,0.000000000,0.000000000,0.000000000,0.013047259,0.002312053,0.071415679,0.018283878,-0.000869394,-0.001873968,0.005458592,-0.000313283,-0.000359827,-0.054347705,-0.235245753,0.047293940,-0.000475119,0.002052711,0.000413690,0.999996682,0.000000000,0.000000000,0.000000000,0.000000000,0.000000000,0.000000000,0.047034046,0.000000000,4.212316990
1772684477.086492777,0.012707000,0.002327000,0.071447000,-0.001480840,0.008656620,0.000838860,0.999961080,-0.002947000,0.017316000,0.001652000,0.000456294,-0.000270377,0.000536889,-0.003623330,0.005822397,0.001395922,0.001367633,-0.001807042,0.999638942,0.000566987,-0.000257961,-0.000453781,0.000000000,0.000000000,0.000000000,0.000000000,0.013043787,0.002313899,0.071415012,0.018282142,-0.000875195,-0.001841486,0.005806928,-0.000943996,-0.000046846,-0.054416505,-0.235404381,0.046935930,-0.000475713,0.002054096,0.000410567,0.999996662,0.000000000,0.000000000,0.000000000,0.000000000,0.000000000,0.000000000,0.046411719,0.000000000,4.212316990
1772684477.096492052,0.012704000,0.002321000,0.071459000,-0.001601020,0.008739080,0.000844880,0.999960170,-0.003188000,0.017481000,0.001662000,0.000149359,-0.000293823,0.000443454,-0.003047015,0.005376753,-0.004796873,0.000707578,-0.001526039,0.999395273,-0.000947904,0.000159600,-0.000529026,0.000000000,0.000000000,0.000000000,0.000000000,0.013041374,0.002315465,0.071414268,0.018284231,-0.000896652,-0.001813605,0.006155238,-0.001574664,0.000266112,-0.054485301,-0.235562998,0.046577946,-0.000476308,0.002055482,0.000407445,0.999996662,0.000000000,0.000000000,0.000000000,0.000000000,0.000000000,0.000000000,0.046265514,0.000000000,4.212316990
1772684477.106492043,0.012709000,0.002325000,0.071465000,-0.001633660,0.008765960,0.000721060,0.999959980,-0.003255000,0.017534000,0.001414000,-0.000178788,-0.000141375,-0.000109732,0.000543599,0.005275869,-0.006701233,0.001038586,-0.001511966,0.998563428,-0.000072082,0.000082353,-0.000160831,0.000000000,0.000000000,0.000000000,0.000000000,0.013038961,0.002317031,0.071413524,0.018286320,-0.000918109,-0.001785723,0.005222294,-0.000878413,-0.000926152,-0.054746931,-0.235601653,0.046268320,-0.000478586,0.002055820,0.000404748,0.999996662,0.000000000,0.000000000,0.000000000,0.000000000,0.000000000,0.000000000,0.046119299,0.000000000,4.212316990
1772684477.116492271,0.012687000,0.002326000,0.071466000,-0.001528090,0.008659990,0.000758250,0.999961050,-0.003043000,0.017322000,0.001490000,-0.000356469,-0.000002933,-0.000438598,0.002507447,0.000681958,-0.004787894,0.002212464,-0.001901091,0.997169068,0.003086545,-0.000670427,0.001016249,0.000000000,0.000000000,0.000000000,0.000000000,0.013040164,0.002318907,0.071407995,0.018279814,-0.000926486,-0.001888864,0.005088120,-0.000730535,-0.002247792,-0.054926723,-0.235621362,0.046331307,-0.000480156,0.002055991,0.000405301,0.999996662,0.000000000,0.000000000,0.000000000,0.000000000,0.000000000,0.000000000,0.046759453,0.000000000,4.212316990
1772684477.126492262,0.012693000,0.002327000,0.071446000,-0.001473420,0.008859410,0.000733790,0.999959400,-0.002934000,0.017721000,0.001442000,-0.000201768,0.000053769,-0.000633101,0.000750281,0.003374769,-0.001958160,-0.000493141,-0.002679005,0.997593868,-0.000712107,-0.001063867,0.003313984,0.000000000,0.000000000,0.000000000,0.000000000,0.013048118,0.002315182,0.071406979,0.018280822,-0.000998049,-0.002066830,0.003866608,-0.001327837,-0.001949608,-0.054802290,-0.235948667,0.046870188,-0.000479081,0.002058845,0.000410003,0.999996662,0.000000000,0.000000000,0.000000000,0.000000000,0.000000000,0.000000000,0.046380225,0.000000000,4.212316990
1772684477.136492014,0.012695000,0.002322000,0.071432000,-0.001587430,0.008711360,0.000743320,0.999960520,-0.003162000,0.017425000,0.001459000,0.000045513,0.000112024,-0.000354507,0.000659055,0.008099252,0.000162793,-0.000790292,-0.002984087,0.997737802,0.000428980,0.000981729,0.000492910,0.000000000,0.000000000,0.000000000,0.000000000,0.013051984,0.002307809,0.071412648,0.018015546,-0.001146550,-0.002146179,0.003059979,-0.001179252,-0.001874904,-0.055098736,-0.236280398,0.046167338,-0.000481656,0.002061742,0.000403876,0.999996662,0.000000000,0.000000000,0.000000000,0.000000000,0.000000000,0.000000000,0.046563963,0.000000000,4.212316990
1772684477.146492243,0.012694000,0.002329000,0.071433000,-0.001512490,0.008787190,0.000740370,0.999959970,-0.003012000,0.017577000,0.001454000,0.000173174,0.000160762,0.000132032,-0.002349201,0.013907925,0.002078252,0.002988036,-0.002632404,0.997974631,0.000988934,-0.002735856,0.002168578,0.000000000,0.000000000,0.000000000,0.000000000,0.013160538,0.002299624,0.071399903,0.018258865,-0.001244797,-0.002295418,0.005558390,-0.001263074,-0.002237820,-0.053345594,-0.236217307,0.046880215,-0.000466370,0.002061195,0.000410065,0.999996662,0.000000000,0.000000000,0.000000000,0.000000000,0.000000000,0.000000000,0.046916065,0.000000000,4.212316990
1772684477.156491518,0.012702000,0.002323000,0.071456000,-0.001572000,0.008841990,0.000749330,0.999959390,-0.003131000,0.017687000,0.001471000,0.000209441,0.000273874,0.000472087,-0.001554670,0.017371855,0.000972985,0.002949717,-0.002090697,0.998807729,-0.001110299,0.001080712,0.000904016,0.000000000,0.000000000,0.000000000,0.000000000,0.013307545,0.002289289,0.071381085,0.018743029,-0.001357318,-0.002454008,0.007625587,-0.001625013,-0.001717479,-0.052414706,-0.236090249,0.046975186,-0.000458248,0.002060089,0.000410877,0.999996662,0.000000000,0.000000000,0.000000000,0.000000000,0.000000000,0.000000000,0.046998664,0.000000000,4.212316990
1772684477.166491985,0.012698000,0.002331000,0.071453000,-0.001603610,0.009081190,0.000723540,0.999957220,-0.003194000,0.018165000,0.001418000,-0.000169678,0.000240482,0.000424126,0.002218546,0.007877189,-0.000067082,-0.000052671,-0.002672043,0.999967012,-0.002828026,-0.000472021,-0.002735636,0.000000000,0.000000000,0.000000000,0.000000000,0.013379993,0.002281137,0.071373738,0.017561660,-0.001387526,-0.002389797,0.005594056,-0.000888802,-0.000638191,-0.052318102,-0.236824354,0.047032234,-0.000457408,0.002066496,0.000411376,0.999996662,0.000000000,0.000000000,0.000000000,0.000000000,0.000000000,0.000000000,0.046472737,0.000000000,4.212316990
1772684477.176491976,0.012695000,0.002339000,0.071457000,-0.001521660,0.009013740,0.000776530,0.999957920,-0.003030000,0.018030000,0.001526000,-0.000132984,0.000087121,0.000080225,0.005242435,-0.002988432,-0.002215804,0.000080699,-0.000316042,0.999632241,-0.003667527,-0.003324610,-0.001395988,0.000000000,0.000000000,0.000000000,0.000000000,0.013135782,0.002293700,0.071401726,0.013701886,-0.001200330,-0.001990774,0.005080741,-0.000308646,-0.000319288,-0.053956067,-0.213752417,0.046209991,-0.000471608,0.001865153,0.000404132,0.999997057,0.000000000,0.000000000,0.000000000,0.000000000,0.000000000,0.000000000,0.045199241,0.000000000,4.212316990
1772684477.186491489,0.012697000,0.002333000,0.071455000,-0.001518100,0.009023740,0.000755440,0.999957850,-0.003023000,0.018050000,0.001484000,-0.000051457,-0.000173932,-0.000231877,0.001457258,-0.014157675,-0.001545462,0.000614124,0.000221835,0.999466412,0.001140051,0.000254033,-0.000537180,0.000000000,0.000000000,0.000000000,0.000000000,0.012781965,0.002323919,0.071433215,0.012560119,-0.000920849,-0.001799058,0.004567451,0.000271482,-0.000000401,-0.055761655,-0.188422423,0.045299014,-0.000487261,0.001644104,0.000396108,0.999997437,0.000000000,0.000000000,0.000000000,0.000000000,0.000000000,0.000000000,0.045328228,0.000000000,4.212316990
1772684477.196491241,0.012692000,0.002332000,0.071446000,-0.001478560,0.008926390,0.000721460,0.999958810,-0.002945000,0.017855000,0.001417000,-0.000001360,-0.000239083,-0.000228380,0.000718552,-0.015033810,-0.000931236,0.001647916,-0.000596867,1.000479734,-0.002102415,0.002908933,0.002035491,0.000000000,0.000000000,0.000000000,0.000000000,0.012885231,0.002321762,0.071428237,0.013322548,-0.000737918,-0.001781723,0.005030488,0.000476801,-0.000229271,-0.056489043,-0.187426077,0.045032023,-0.000493601,0.001635408,0.000393784,0.999997437,0.000000000,0.000000000,0.000000000,0.000000000,0.000000000,0.000000000,0.045264842,0.000000000,4.212316990
1772684477.206491232,0.012689000,0.002325000,0.071442000,-0.001510220,0.008625040,0.000680160,0.999961430,-0.003009000,0.017252000,0.001334000,0.000116162,-0.000287296,0.000047086,-0.002446970,-0.009589931,0.000854542,0.002907651,-0.001481589,0.998989378,-0.000354666,0.000755100,0.000317369,0.000000000,0.000000000,0.000000000,0.000000000,0.012922801,0.002320052,0.071421148,0.013768312,-0.000710194,-0.001812185,0.005686063,-0.000174061,-0.000396680,-0.056391673,-0.188275277,0.045585396,-0.000492763,0.001642817,0.000398615,0.999997437,0.000000000,0.000000000,0.000000000,0.000000000,0.000000000,0.000000000,0.045632105,0.000000000,4.212316990
1772684477.216491461,0.012705000,0.002323000,0.071452000,-0.001520630,0.008701740,0.000727600,0.999960720,-0.003029000,0.017406000,0.001429000,0.000163170,-0.000159460,0.000060237,-0.002909505,0.002331897,0.001643372,0.001905891,-0.000286281,0.999840050,-0.004717801,0.005307178,-0.000113600,0.000000000,0.000000000,0.000000000,0.000000000,0.012940049,0.002317888,0.071415799,0.014049824,-0.000696571,-0.001822091,0.005134122,-0.000348180,-0.000045228,-0.057248973,-0.189242228,0.045806859,-0.000500250,0.001651251,0.000400564,0.999997437,0.000000000,0.000000000,0.000000000,0.000000000,0.000000000,0.000000000,0.046172392,0.000000000,4.212316990
1772684477.226491213,0.012699000,0.002323000,0.071453000,-0.001611160,0.008903600,0.000790130,0.999958750,-0.003209000,0.017810000,0.001552000,0.000139083,-0.000017599,0.000034887,0.000223893,0.011370954,0.003065342,0.001755436,-0.001417006,0.998775269,-0.003863849,0.000071120,-0.000387225,0.000000000,0.000000000,0.000000000,0.000000000,0.012953131,0.002315120,0.071412933,0.014258352,-0.000681694,-0.001812133,0.005934178,0.000347789,-0.001051387,-0.057937698,-0.189321114,0.046786595,-0.000506275,0.001651932,0.000409124,0.999997437,0.000000000,0.000000000,0.000000000,0.000000000,0.000000000,0.000000000,0.047148070,0.000000000,4.212316990
1772684477.236490726,0.012696000,0.002329000,0.071455000,-0.001518670,0.008940520,0.000758360,0.999958590,-0.003024000,0.017884000,0.001490000,0.000044678,0.000098058,-0.000021601,0.001786881,0.017232695,0.004076403,0.002056409,-0.001284314,0.999425900,-0.002390598,-0.000471394,-0.001446589,0.000000000,0.000000000,0.000000000,0.000000000,0.012968679,0.002312655,0.071415219,0.014510910,-0.000675230,-0.001848279,0.005561859,-0.000890397,-0.000341467,-0.058679113,-0.189380178,0.047500729,-0.000512756,0.001652442,0.000415367,0.999997437,0.000000000,0.000000000,0.000000000,0.000000000,0.000000000,0.000000000,0.047749552,0.000000000,4.212316990
1772684477.246490479,0.012699000,0.002327000,0.071450000,-0.001525980,0.008942240,0.000789530,0.999958540,-0.003038000,0.017887000,0.001552000,-0.000097689,0.000183178,-0.000030303,0.002206598,0.007625451,0.004025546,0.002559123,-0.000125466,1.001271077,-0.000954667,0.002761306,-0.002532949,0.000000000,0.000000000,0.000000000,0.000000000,0.012974538,0.002311752,0.071416586,0.014702847,-0.000665366,-0.001764858,0.005201799,-0.000253401,0.000551354,-0.059432487,-0.189251159,0.047683802,-0.000519332,0.001651313,0.000416975,0.999997437,0.000000000,0.000000000,0.000000000,0.000000000,0.000000000,0.000000000,0.047639256,0.000000000,4.212316990
1772684477.256490469,0.012701000,0.002325000,0.071444000,-0.001479410,0.008975700,0.000769630,0.999958330,-0.002945000,0.017954000,0.001513000,-0.000149767,0.000044017,0.000068901,0.000927142,-0.009261951,0.002553405,0.001454263,-0.000164873,0.999928474,-0.003782759,0.001185067,0.002287559,0.000000000,0.000000000,0.000000000,0.000000000,0.012977876,0.002312475,0.071418020,0.014815768,-0.000633169,-0.001691723,0.005073949,0.000484078,0.000700786,-0.060016499,-0.189023937,0.047626095,-0.000524427,0.001649328,0.000416479,0.999997387,0.000000000,0.000000000,0.000000000,0.000000000,0.000000000,0.000000000,0.047702458,0.000000000,4.212316990
1772684477.266490459,0.012696000,0.002327000,0.071447000,-0.001494480,0.008997820,0.000804740,0.999958080,-0.002975000,0.017998000,0.001583000,0.000020707,0.000066919,0.000129235,-0.000028133,-0.014392566,0.003481199,0.001590454,-0.000746237,0.999304291,-0.001230856,0.000442063,0.002319831,0.000000000,0.000000000,0.000000000,0.000000000,0.012980016,0.002313970,0.071419487,0.014891183,-0.000590372,-0.001623471,0.005266373,0.001014609,-0.000229057,-0.059863805,-0.188945139,0.047843466,-0.000523097,0.001648640,0.000418373,0.999997377,0.000000000,0.000000000,0.000000000,0.000000000,0.000000000,0.000000000,0.047921232,0.000000000,4.212316990
1772684477.276490211,0.012694000,0.002333000,0.071456000,-0.001545290,0.008867190,0.000862740,0.999959120,-0.003076000,0.017737000,0.001698000,-0.000129177,0.000039880,0.000102525,-0.001579839,-0.007740429,0.002621981,0.001736966,-0.001328646,0.998681954,0.001317654,-0.000281476,0.002354790,0.000000000,0.000000000,0.000000000,0.000000000,0.012984034,0.002315376,0.071419754,0.015026227,-0.000512325,-0.001618241,0.005700986,0.000549145,-0.001365461,-0.059741070,-0.188966371,0.048152494,-0.000522031,0.001648824,0.000421068,0.999997377,0.000000000,0.000000000,0.000000000,0.000000000,0.000000000,0.000000000,0.048474677,0.000000000,4.212316990
1772684477.286489487,0.012697000,0.002328000,0.071461000,-0.001557740,0.008645100,0.000838570,0.999961070,-0.003101000,0.017293000,0.001650000,-0.000077253,-0.000015093,0.000139744,-0.001441597,0.004632648,-0.003150328,0.002866192,-0.002011852,0.998233909,0.003548803,0.000846228,0.002645592,0.000000000,0.000000000,0.000000000,0.000000000,0.012988025,0.002315801,0.071418315,0.015192320,-0.000495334,-0.001683206,0.006450620,-0.000762425,-0.002050662,-0.059733082,-0.189669025,0.048980045,-0.000521976,0.001654952,0.000428293,0.999997377,0.000000000,0.000000000,0.000000000,0.000000000,0.000000000,0.000000000,0.049084134,0.000000000,4.212316990
1772684477.296489477,0.012697000,0.002324000,0.071456000,-0.001526380,0.008777220,0.000809280,0.999959990,-0.003039000,0.017557000,0.001592000,0.000136461,-0.000167444,0.000213559,-0.004674165,0.011606851,-0.006181127,0.003491629,-0.001265812,0.998099788,0.003785488,0.001152040,0.002824089,0.000000000,0.000000000,0.000000000,0.000000000,0.012991257,0.002315615,0.071416226,0.015355328,-0.000532452,-0.001769511,0.007014300,-0.000548791,-0.001359340,-0.059251340,-0.190443601,0.049286422,-0.000517779,0.001661712,0.000430963,0.999997377,0.000000000,0.000000000,0.000000000,0.000000000,0.000000000,0.000000000,0.049391786,0.000000000,4.212316990
1772684477.306488514,0.012697000,0.002334000,0.071447000,-0.001516800,0.008966750,0.000816590,0.999958310,-0.003019000,0.017936000,0.001606000,0.000201865,-0.000137879,0.000256838,-0.003671097,0.008866177,-0.005944811,0.002865950,0.002661981,0.998706468,-0.000410486,-0.000559372,0.002679861,0.000000000,0.000000000,0.000000000,0.000000000,0.012994534,0.002316640,0.071414392,0.015617776,-0.000437469,-0.001827975,0.006573126,0.001457821,-0.001160242,-0.058810592,-0.191115743,0.049426764,-0.000513937,0.001667579,0.000432185,0.999997377,0.000000000,0.000000000,0.000000000,0.000000000,0.000000000,0.000000000,0.049192733,0.000000000,4.212316990
1772684477.316488266,0.012691000,0.002323000,0.071456000,-0.001561350,0.009103160,0.000717380,0.999957090,-0.003110000,0.018209000,0.001407000,0.000125583,-0.000003302,0.000059732,-0.004104486,0.003257433,-0.003387845,0.001677119,0.001111292,0.998896588,0.003087123,-0.002720707,0.001540568,0.000000000,0.000000000,0.000000000,0.000000000,0.012997579,0.002321374,0.071416039,0.015829248,-0.000137446,-0.001872112,0.005026335,0.002701220,-0.001615781,-0.058551766,-0.190909936,0.048990539,-0.000511672,0.001665786,0.000428373,0.999997377,0.000000000,0.000000000,0.000000000,0.000000000,0.000000000,0.000000000,0.049338130,0.000000000,4.212316990
1772684477.326487541,0.012707000,0.002322000,0.071465000,-0.001644900,0.009089520,0.000670630,0.999957110,-0.003278000,0.018181000,0.001312000,-0.000073116,0.000217463,-0.000184946,-0.004880362,-0.009390452,0.000806930,0.001408787,-0.002560720,0.997076555,0.002287076,-0.002529615,-0.001116638,0.000000000,0.000000000,0.000000000,0.000000000,0.013000680,0.002325023,0.071419358,0.015918585,-0.000027243,-0.001968010,0.004705599,-0.000740927,-0.001878042,-0.058202179,-0.188760048,0.049771653,-0.000508624,0.001647022,0.000435175,0.999997417,0.000000000,0.000000000,0.000000000,0.000000000,0.000000000,0.000000000,0.049647300,0.000000000,4.212316990
1772684477.336488008,0.012704000,0.002326000,0.071467000,-0.001672930,0.008773080,0.000786140,0.999959810,-0.003332000,0.017549000,0.001543000,-0.000167891,0.000274359,-0.000426554,-0.001612543,-0.019429430,0.003502567,0.002839122,-0.002195052,0.997596395,0.002013738,-0.001954982,0.000890376,0.000000000,0.000000000,0.000000000,0.000000000,0.013003728,0.002325108,0.071419688,0.016033373,-0.000131742,-0.002093729,0.005488246,-0.002577811,-0.002104804,-0.057980096,-0.188785986,0.049483423,-0.000506682,0.001647251,0.000432657,0.999997437,0.000000000,0.000000000,0.000000000,0.000000000,0.000000000,0.000000000,0.049229842,0.000000000,4.212316990
1772684477.346487522,0.012693000,0.002337000,0.071454000,-0.001562420,0.008624600,0.000830800,0.999961240,-0.003111000,0.017252000,0.001635000,-0.000285393,0.000256935,-0.000495552,0.001322365,-0.016289816,0.005608464,0.003545749,-0.001850328,0.997112334,0.000306200,-0.000037259,0.000311750,0.000000000,0.000000000,0.000000000,0.000000000,0.013006719,0.002324837,0.071415572,0.016225500,-0.000258138,-0.002239055,0.006412401,-0.001391443,-0.002583670,-0.056635899,-0.189685817,0.048779525,-0.000494945,0.001655111,0.000426499,0.999997437,0.000000000,0.000000000,0.000000000,0.000000000,0.000000000,0.000000000,0.048804201,0.000000000,4.212316990
1772684477.356487513,0.012692000,0.002335000,0.071433000,-0.001632820,0.008750140,0.000795450,0.999960070,-0.003252000,0.017503000,0.001563000,-0.000231546,0.000200661,-0.000356916,0.001488621,-0.008558667,0.006953840,0.003461919,-0.001626106,0.998269144,0.000444334,-0.000973336,-0.003169910,0.000000000,0.000000000,0.000000000,0.000000000,0.013009580,0.002325904,0.071410294,0.016441568,-0.000320527,-0.002394200,0.006546604,-0.000733536,-0.002357761,-0.055966077,-0.188931334,0.048989617,-0.000489100,0.001648529,0.000428319,0.999997437,0.000000000,0.000000000,0.000000000,0.000000000,0.000000000,0.000000000,0.049094673,0.000000000,4.212316990
1772684477.366487503,0.012687000,0.002337000,0.071438000,-0.001605670,0.008682180,0.000830100,0.999960680,-0.003197000,0.017367000,0.001632000,-0.000078283,-0.000146776,0.000034538,0.001071555,0.000183486,0.005319067,0.002953894,-0.001846254,0.999788171,0.000274485,0.000446424,-0.001398800,0.000000000,0.000000000,0.000000000,0.000000000,0.013011455,0.002321484,0.071410485,0.016674261,-0.000364160,-0.002441608,0.005826297,-0.000476616,-0.000269511,-0.054614097,-0.188579135,0.048004027,-0.000477286,0.001645464,0.000419697,0.999997437,0.000000000,0.000000000,0.000000000,0.000000000,0.000000000,0.000000000,0.047338496,0.000000000,4.212316990
1772684477.376487017,0.012694000,0.002332000,0.071447000,-0.001550050,0.008761990,0.000847220,0.999960050,-0.003086000,0.017527000,0.001667000,0.000222961,-0.000307887,0.000389899,-0.000000387,0.002583463,0.002168347,0.002259186,-0.001824761,1.000050733,-0.000423618,0.002794272,0.002642461,0.000000000,0.000000000,0.000000000,0.000000000,0.013021901,0.002318396,0.071415207,0.016842489,-0.000418422,-0.002311098,0.006007873,-0.000109691,-0.000627445,-0.053684813,-0.188908669,0.047440587,-0.000469170,0.001648346,0.000414769,0.999997437,0.000000000,0.000000000,0.000000000,0.000000000,0.000000000,0.000000000,0.047840523,0.000000000,4.212316990
1772684477.386486292,0.012693000,0.002329000,0.071460000,-0.001642580,0.008741500,0.000884130,0.999960050,-0.003270000,0.017486000,0.001740000,0.000313073,-0.000279390,0.000441784,-0.000745743,-0.004392846,0.002253380,0.001668018,-0.000939071,0.999075715,-0.000534676,0.002096630,0.002026337,0.000000000,0.000000000,0.000000000,0.000000000,0.013023876,0.002318587,0.071416786,0.016881520,-0.000385357,-0.002316332,0.005333069,0.000011594,-0.000992438,-0.053381354,-0.189456506,0.047738058,-0.000466528,0.001653126,0.000417362,0.999997437,0.000000000,0.000000000,0.000000000,0.000000000,0.000000000,0.000000000,0.047647218,0.000000000,4.212316990
1772684477.396485567,0.012702000,0.002325000,0.071459000,-0.001643020,0.008642620,0.000899890,0.999960900,-0.003271000,0.017288000,0.001772000,0.000083100,-0.000023582,0.000054876,0.001746855,-0.002610017,-0.001046258,0.001076850,-0.000053380,0.998100697,-0.000645734,0.001398987,0.001410213,0.000000000,0.000000000,0.000000000,0.000000000,0.013025851,0.002318778,0.071418365,0.016920551,-0.000352291,-0.002321566,0.004494455,0.000089758,-0.001280065,-0.053622115,-0.189971911,0.047649036,-0.000468629,0.001657624,0.000416591,0.999997437,0.000000000,0.000000000,0.000000000,0.000000000,0.000000000,0.000000000,0.047437694,0.000000000,4.212316990
1772684477.406485558,0.012700000,0.002324000,0.071453000,-0.001562890,0.008669710,0.000879080,0.999960810,-0.003111000,0.017342000,0.001731000,-0.000042560,0.000109829,-0.000297766,0.000320479,0.005635135,-0.004394469,0.000327920,-0.001214852,0.998075706,-0.000976435,0.005658505,0.001385852,0.000000000,0.000000000,0.000000000,0.000000000,0.013018908,0.002321115,0.071414814,0.016811480,-0.000365254,-0.002335756,0.003767014,-0.000008223,-0.001536475,-0.054203440,-0.190467060,0.047318158,-0.000473699,0.001661944,0.000413714,0.999997404,0.000000000,0.000000000,0.000000000,0.000000000,0.000000000,0.000000000,0.047229698,0.000000000,4.212316990
1772684477.416484833,0.012696000,0.002332000,0.071448000,-0.001576560,0.008651540,0.000808340,0.999961010,-0.003139000,0.017306000,0.001590000,-0.000050078,0.000123174,-0.000192599,-0.000385586,0.005424416,-0.005637721,-0.000249341,-0.002471926,0.999547842,0.002334254,0.000166920,0.002470741,0.000000000,0.000000000,0.000000000,0.000000000,0.013002289,0.002325781,0.071405696,0.016541695,-0.000428169,-0.002359663,0.003581498,-0.000576411,-0.000987330,-0.054095261,-0.194012363,0.046727325,-0.000472759,0.001692885,0.000408571,0.999997351,0.000000000,0.000000000,0.000000000,0.000000000,0.000000000,0.000000000,0.047024331,0.000000000,4.212316990
1772684477.426484823,0.012696000,0.002333000,0.071443000,-0.001606220,0.008706720,0.000820730,0.999960470,-0.003199000,0.017416000,0.001614000,0.000092055,0.000120008,0.000006682,0.001658894,0.003049598,-0.007391600,0.000947392,-0.001698658,1.000588931,0.001240384,0.003107178,0.000776572,0.000000000,0.000000000,0.000000000,0.000000000,0.012992898,0.002328357,0.071399477,0.016355097,-0.000489059,-0.002344896,0.003562599,-0.001043839,0.000012791,-0.053451607,-0.194968513,0.046699483,-0.000467145,0.001701232,0.000408322,0.999997318,0.000000000,0.000000000,0.000000000,0.000000000,0.000000000,0.000000000,0.046629133,0.000000000,4.212316990
1772684477.436485052,0.012690000,0.002336000,0.071444000,-0.001574130,0.008916650,0.000738710,0.999958730,-0.003135000,0.017836000,0.001450000,0.000110936,0.000238462,0.000195960,0.001453078,0.002794729,-0.004989031,0.000619269,-0.001173883,0.998284301,-0.002646340,0.004306395,0.002490293,0.000000000,0.000000000,0.000000000,0.000000000,0.013003175,0.002324730,0.071403627,0.016413406,-0.000525414,-0.002260872,0.005081203,-0.000061891,-0.000793255,-0.052314335,-0.194976910,0.046715031,-0.000457221,0.001701309,0.000408441,0.999997344,0.000000000,0.000000000,0.000000000,0.000000000,0.000000000,0.000000000,0.046645795,0.000000000,4.212316990
1772684477.446484804,0.012703000,0.002330000,0.071459000,-0.001621000,0.008799220,0.000779100,0.999959670,-0.003229000,0.017601000,0.001530000,0.000175641,0.000267716,0.000113403,0.001964547,-0.003277041,-0.003116213,-0.000293400,-0.001525001,0.997863101,0.001670345,-0.002360400,0.001338450,0.000000000,0.000000000,0.000000000,0.000000000,0.013009569,0.002321097,0.071410394,0.016423216,-0.000526792,-0.002323721,0.003503696,-0.000327946,-0.002884543,-0.052544193,-0.196217939,0.046314827,-0.000459225,0.001712140,0.000404957,0.999997348,0.000000000,0.000000000,0.000000000,0.000000000,0.000000000,0.000000000,0.046574908,0.000000000,4.212316990
1772684477.456484318,0.012707000,0.002330000,0.071460000,-0.001587810,0.008606680,0.000734440,0.999961430,-0.003163000,0.017216000,0.001442000,-0.000026476,0.000220358,-0.000265093,0.003568014,-0.001299315,-0.002978763,-0.000192644,-0.001174092,0.996451383,0.001437691,-0.001278805,0.002226687,0.000000000,0.000000000,0.000000000,0.000000000,0.013014527,0.002318076,0.071410786,0.016336265,-0.000531387,-0.002506294,0.003051490,0.000046278,-0.003266869,-0.052301823,-0.195783844,0.047644128,-0.000457129,0.001708347,0.000416552,0.999997318,0.000000000,0.000000000,0.000000000,0.000000000,0.000000000,0.000000000,0.047790092,0.000000000,4.212316990
1772684477.466484308,0.012702000,0.002343000,0.071447000,-0.001494010,0.008663700,0.000689650,0.999961120,-0.002976000,0.017330000,0.001354000,-0.000061286,0.000146737,-0.000506042,0.001040123,0.000193139,-0.004276565,0.000239873,-0.002236956,0.997683180,-0.001468121,-0.000555133,0.002866609,0.000000000,0.000000000,0.000000000,0.000000000,0.013014404,0.002317609,0.071406580,0.016260328,-0.000545230,-0.002705761,0.004039287,-0.000787129,-0.002452356,-0.052267746,-0.195305608,0.047973201,-0.000456834,0.001704173,0.000419421,0.999997318,0.000000000,0.000000000,0.000000000,0.000000000,0.000000000,0.000000000,0.048146982,0.000000000,4.212316990
1772684477.476483583,0.012695000,0.002348000,0.071441000,-0.001538170,0.008839990,0.000762730,0.999959450,-0.003063000,0.017683000,0.001498000,-0.000075602,-0.000104468,-0.000451302,-0.000859268,0.004433013,-0.002437031,0.000128880,-0.002832583,0.998948584,-0.001529792,0.000868478,0.002208591,0.000000000,0.000000000,0.000000000,0.000000000,0.013012550,0.002319666,0.071401355,0.016215937,-0.000630704,-0.002765411,0.003182142,-0.001426161,-0.000487092,-0.052710145,-0.195715160,0.048287056,-0.000460701,0.001707744,0.000422169,0.999997318,0.000000000,0.000000000,0.000000000,0.000000000,0.000000000,0.000000000,0.048400853,0.000000000,4.212316990
1772684477.486483097,0.012696000,0.002338000,0.071434000,-0.001571800,0.008701120,0.000678340,0.999960680,-0.003132000,0.017405000,0.001329000,0.000006779,-0.000251457,-0.000074204,-0.001747008,0.005176126,-0.000433404,0.001274294,-0.002336797,0.998670276,-0.002098101,0.003556506,-0.000012230,0.000000000,0.000000000,0.000000000,0.000000000,0.013010570,0.002320424,0.071396100,0.016117153,-0.000745856,-0.002735359,0.004651680,-0.002248937,-0.001931872,-0.052914157,-0.196714710,0.048992113,-0.000462496,0.001716463,0.000428328,0.999997318,0.000000000,0.000000000,0.000000000,0.000000000,0.000000000,0.000000000,0.048278176,0.000000000,4.212316990
1772684477.496482849,0.012693000,0.002332000,0.071431000,-0.001575450,0.008911080,0.000666680,0.999958830,-0.003139000,0.017824000,0.001305000,0.000078866,-0.000368920,0.000323077,-0.001270341,0.000296239,0.003194499,0.002895446,-0.000997872,0.999311842,-0.003857800,0.001677250,-0.001655717,0.000000000,0.000000000,0.000000000,0.000000000,0.013008398,0.002319863,0.071395881,0.016231843,-0.000852205,-0.002784761,0.004848087,-0.000988236,-0.000515031,-0.054523247,-0.197034819,0.048308739,-0.000476529,0.001719253,0.000422390,0.999997318,0.000000000,0.000000000,0.000000000,0.000000000,0.000000000,0.000000000,0.048046624,0.000000000,4.212316990
1772684477.506482840,0.012709000,0.002328000,0.071449000,-0.001619180,0.008763540,0.000697790,0.999960050,-0.003227000,0.017530000,0.001367000,-0.000008411,-0.000295688,0.000440521,-0.000177859,-0.004583434,0.004109651,0.001049388,-0.000215646,1.000736551,-0.003209932,-0.001550067,-0.000763609,0.000000000,0.000000000,0.000000000,0.000000000,0.013014196,0.002317224,0.071401905,0.016396688,-0.000801497,-0.002696016,0.005034189,0.000140441,0.000677523,-0.055572444,-0.197957318,0.047427056,-0.000485675,0.001727303,0.000414716,0.999997318,0.000000000,0.000000000,0.000000000,0.000000000,0.000000000,0.000000000,0.047210098,0.000000000,4.212316990
1772684477.516483068,0.012701000,0.002326000,0.071457000,-0.001546180,0.008746980,0.000786810,0.999960240,-0.003079000,0.017497000,0.001547000,-0.000141667,0.000189724,0.000158955,0.000884140,0.000248243,0.007420437,0.000717111,-0.001061178,1.000127338,-0.000600708,-0.001830744,0.000204874,0.000000000,0.000000000,0.000000000,0.000000000,0.013018539,0.002316625,0.071405385,0.016386324,-0.000729369,-0.002524453,0.005131560,0.000132559,-0.000060612,-0.056346870,-0.197963901,0.047020831,-0.000492427,0.001727360,0.000411183,0.999997318,0.000000000,0.000000000,0.000000000,0.000000000,0.000000000,0.000000000,0.046897112,0.000000000,4.212316990
1772684477.526482344,0.012701000,0.002336000,0.071454000,-0.001555770,0.008644510,0.000807930,0.999961100,-0.003098000,0.017292000,0.001589000,-0.000283236,0.000469989,-0.000196795,-0.001823787,0.004841143,0.012577764,0.001655387,-0.001992171,0.997855499,0.000229136,-0.001403263,-0.001099351,0.000000000,0.000000000,0.000000000,0.000000000,0.013018916,0.002324110,0.071402111,0.016432112,-0.000696522,-0.002492647,0.005654952,-0.000526456,-0.001426163,-0.056574713,-0.196853155,0.046337479,-0.000494401,0.001717669,0.000405218,0.999997318,0.000000000,0.000000000,0.000000000,0.000000000,0.000000000,0.000000000,0.046024220,0.000000000,4.212316990
1772684477.536482334,0.012686000,0.002337000,0.071440000,-0.001532520,0.008807440,0.000815290,0.999959710,-0.003051000,0.017618000,0.001604000,-0.000147591,0.000354857,-0.000425991,-0.004002235,-0.003042944,0.008984755,0.002752767,-0.003059837,0.998011090,-0.001118521,0.001188812,-0.001002920,0.000000000,0.000000000,0.000000000,0.000000000,0.013015913,0.002327685,0.071393496,0.016513460,-0.000819361,-0.002675465,0.006012401,-0.000929729,-0.001955341,-0.056320987,-0.194905667,0.045336235,-0.000492165,0.001700679,0.000396468,0.999997318,0.000000000,0.000000000,0.000000000,0.000000000,0.000000000,0.000000000,0.045608806,0.000000000,4.212316990
1772684477.546481848,0.012690000,0.002341000,0.071438000,-0.001629950,0.008841800,0.000852640,0.999959220,-0.003245000,0.017687000,0.001677000,0.000005420,0.000017483,-0.000384829,-0.003025564,-0.004726663,0.002731465,0.001715974,-0.001985192,0.999304669,0.000290639,-0.002595001,0.000913852,0.000000000,0.000000000,0.000000000,0.000000000,0.013016357,0.002320550,0.071383926,0.016866765,-0.000938400,-0.002804816,0.005513993,-0.000018703,0.000528209,-0.057028627,-0.195171014,0.045957420,-0.000498351,0.001702990,0.000401901,0.999997318,0.000000000,0.000000000,0.000000000,0.000000000,0.000000000,0.000000000,0.045677854,0.000000000,4.212316990
1772684477.556481600,0.012697000,0.002350000,0.071433000,-0.001643360,0.008859350,0.000969820,0.999958930,-0.003270000,0.017722000,0.001911000,0.000241570,-0.000202506,0.000043396,-0.001343629,-0.012266550,-0.003996970,0.000550545,-0.000845087,0.999680226,0.001496240,-0.003562044,0.001029449,0.000000000,0.000000000,0.000000000,0.000000000,0.013026001,0.002315696,0.071391187,0.016916482,-0.000887943,-0.002577376,0.004033125,-0.000474764,-0.000791745,-0.056642198,-0.194997309,0.045844362,-0.000494976,0.001701475,0.000400908,0.999997318,0.000000000,0.000000000,0.000000000,0.000000000,0.000000000,0.000000000,0.045811756,0.000000000,4.212316990
1772684477.566481113,0.012698000,0.002334000,0.071439000,-0.001647080,0.008618590,0.000923580,0.999961080,-0.003279000,0.017240000,0.001819000,0.000231216,-0.000176962,0.000343202,0.000081095,-0.012810308,-0.006029729,0.000525257,-0.000496574,0.999037189,0.001530199,-0.002078820,-0.002225998,0.000000000,0.000000000,0.000000000,0.000000000,0.012981978,0.002318638,0.071409710,0.016374252,-0.000786493,-0.002496598,0.004011271,-0.000598549,-0.001399549,-0.055683477,-0.195451929,0.045715264,-0.000486609,0.001705447,0.000399769,0.999997318,0.000000000,0.000000000,0.000000000,0.000000000,0.000000000,0.000000000,0.045300187,0.000000000,4.212316990
1772684477.576479912,0.012706000,0.002328000,0.071448000,-0.001589470,0.008441340,0.000748530,0.999962830,-0.003167000,0.016885000,0.001470000,0.000076690,0.000002817,0.000387355,0.003693788,-0.005870229,-0.006676694,0.000174650,-0.002216744,0.998156501,0.000015573,-0.001730442,-0.000355721,0.000000000,0.000000000,0.000000000,0.000000000,0.012993460,0.002321309,0.071400685,0.016420020,-0.000657339,-0.002513040,0.004691181,-0.000397472,-0.001184989,-0.054614119,-0.194070005,0.044091430,-0.000477249,0.001693398,0.000385577,0.999997332,0.000000000,0.000000000,0.000000000,0.000000000,0.000000000,0.000000000,0.043544576,0.000000000,4.212316990
1772684477.586479902,0.012697000,0.002329000,0.071450000,-0.001534770,0.008626970,0.000735630,0.999961340,-0.003057000,0.017256000,0.001445000,-0.000160373,-0.000004487,0.000085917,0.005072537,0.010945583,-0.005496412,0.001576092,-0.002020029,0.999053640,-0.000577003,-0.001093268,0.000314278,0.000000000,0.000000000,0.000000000,0.000000000,0.013006399,0.002329532,0.071390399,0.016407114,-0.000759601,-0.002634420,0.005371172,-0.000196372,-0.000970403,-0.054198590,-0.192132100,0.042300360,-0.000473590,0.001676495,0.000369932,0.999997427,0.000000000,0.000000000,0.000000000,0.000000000,0.000000000,0.000000000,0.042038128,0.000000000,4.212316990
1772684477.596479893,0.012695000,0.002343000,0.071450000,-0.001574790,0.008648370,0.000744950,0.999961080,-0.003137000,0.017299000,0.001463000,-0.000160742,0.000010723,-0.000260626,0.004514836,0.022227737,-0.003299629,0.001279805,-0.002053466,0.998989764,0.001371001,0.001714199,-0.000351041,0.000000000,0.000000000,0.000000000,0.000000000,0.013011579,0.002326444,0.071388784,0.016484401,-0.000783266,-0.002630136,0.004742568,-0.001138859,-0.000818095,-0.054806267,-0.192584075,0.041310198,-0.000478880,0.001680441,0.000361302,0.999997437,0.000000000,0.000000000,0.000000000,0.000000000,0.000000000,0.000000000,0.040998858,0.000000000,4.212316990
1772684477.606479645,0.012696000,0.002345000,0.071442000,-0.001605070,0.008854840,0.000826790,0.999959170,-0.003196000,0.017713000,0.001625000,0.000001476,-0.000122378,-0.000369406,0.004619536,0.025163414,-0.000166893,0.000423902,-0.002672555,0.998752683,0.001837977,0.000539545,-0.003748866,0.000000000,0.000000000,0.000000000,0.000000000,0.013018487,0.002318628,0.071393341,0.016460007,-0.000952075,-0.002592252,0.003818845,-0.001316498,-0.000417938,-0.054794909,-0.191902787,0.040477600,-0.000478766,0.001674499,0.000354034,0.999997437,0.000000000,0.000000000,0.000000000,0.000000000,0.000000000,0.000000000,0.040389127,0.000000000,4.212316990
1772684477.616479158,0.012693000,0.002334000,0.071439000,-0.001460210,0.008998310,0.000781610,0.999958140,-0.002907000,0.017999000,0.001537000,0.000211811,-0.000385742,-0.000169153,0.004257214,0.012511755,-0.002148203,0.000922724,-0.001031101,1.000111507,0.002562084,-0.002171019,-0.003330849,0.000000000,0.000000000,0.000000000,0.000000000,0.013015971,0.002315387,0.071398913,0.016345689,-0.000981982,-0.002496946,0.004132148,0.000720998,0.000331492,-0.053858048,-0.190928738,0.039154258,-0.000470568,0.001666008,0.000342468,0.999997437,0.000000000,0.000000000,0.000000000,0.000000000,0.000000000,0.000000000,0.038749684,0.000000000,4.212316990
