t,px,py,pz,qx,qy,qz,qw,roll,pitch,yaw,vx,vy,vz,wx_vicon,wy_vicon,wz_vicon,imu_acc_x,imu_acc_y,imu_acc_z,imu_gyro_x,imu_gyro_y,imu_gyro_z,motor_motor_m1,motor_motor_m2,motor_motor_m3,motor_motor_m4,est_stateEstimate_x,est_stateEstimate_y,est_stateEstimate_z,est_stateEstimate_vx,est_stateEstimate_vy,est_stateEstimate_vz,est_stateEstimate_ax,est_stateEstimate_ay,est_stateEstimate_az,att_stateEstimate_roll,att_stateEstimate_pitch,att_stateEstimate_yaw,att_stateEstimate_qx,att_stateEstimate_qy,att_stateEstimate_qz,att_stateEstimate_qw,sp_ctrltarget_x,sp_ctrltarget_y,sp_ctrltarget_z,sp_ctrltarget_yaw,pid_controller_roll,pid_controller_pitch,pid_controller_yaw,pid_controller_cmd_thrust,pwr_pm_vbat
1772424940.509644747,0.016164000,0.009634000,0.053737000,0.002372290,-0.006391280,-0.013748090,-0.999882250,-0.004569000,0.012847000,0.027468000,0.001583898,-0.002698507,-0.001253362,0.018866456,0.076924641,0.023892316,0.009039976,-0.002619429,0.999525221,-0.001761916,-0.001328603,0.000665940,0.000000000,0.000000000,0.000000000,0.000000000,0.016526344,0.009671799,0.053711498,0.018132014,0.002785017,-0.001693682,0.003901818,0.000140177,-0.000407592,-0.169548685,0.247105522,1.120275178,-0.001458434,-0.002170762,0.009772858,0.999947947,0.000000000,0.000000000,0.000000000,0.000000000,0.000000000,0.000000000,1.119285742,0.000000000,4.006451607
1772424940.519644737,0.016173000,0.009619000,0.053730000,0.002395200,-0.006709890,-0.013775720,-0.999879730,-0.004605000,0.013485000,0.027522000,0.000537860,-0.001028459,-0.000016414,-0.001061129,0.022529267,0.002111256,0.011324960,-0.002797328,0.999897879,0.000112285,-0.002259006,0.000112340,0.000000000,0.000000000,0.000000000,0.000000000,0.016526480,0.009675782,0.053714156,0.018116084,0.002776818,-0.001647029,0.006500632,-0.000146395,-0.000311119,-0.169040869,0.248516469,1.118051308,-0.001453925,-0.002183003,0.009753441,0.999948127,0.000000000,0.000000000,0.000000000,0.000000000,0.000000000,0.000000000,1.117164229,0.000000000,4.006451607
1772424940.529644728,0.016164000,0.009619000,0.053727000,0.002312240,-0.006673480,-0.013812760,-0.999879660,-0.004440000,0.013410000,0.027597000,-0.000126243,0.000038908,0.000474962,-0.009457092,-0.006934670,-0.008520058,0.009309073,-0.002598843,0.999402430,-0.001417730,-0.000396657,-0.001203165,0.000000000,0.000000000,0.000000000,0.000000000,0.016518993,0.009685503,0.053712467,0.018227140,0.002736130,-0.001621221,0.006160823,-0.000304472,-0.000124980,-0.168751657,0.249168366,1.116204111,-0.001451381,-0.002188643,0.009737319,0.999948238,0.000000000,0.000000000,0.000000000,0.000000000,0.000000000,0.000000000,1.115384136,0.000000000,4.006451607
1772424940.539644718,0.016177000,0.009613000,0.053739000,0.002403920,-0.006652430,-0.013704100,-0.999881070,-0.004625000,0.013370000,0.027379000,-0.000467852,0.000603594,0.000439647,-0.009525364,-0.017404269,-0.010807898,0.008533038,-0.003755541,0.998930855,-0.000053955,-0.001710586,0.000480985,0.000000000,0.000000000,0.000000000,0.000000000,0.016519885,0.009683822,0.053708478,0.018337885,0.002658802,-0.001610249,0.003927115,-0.000513358,-0.000872795,-0.167372561,0.250401165,1.114527187,-0.001439274,-0.002199263,0.009722696,0.999948366,0.000000000,0.000000000,0.000000000,0.000000000,0.000000000,0.000000000,1.113720973,0.000000000,4.006451607
1772424940.549645424,0.016171000,0.009620000,0.053749000,0.002528430,-0.006458750,-0.013713730,-0.999881910,-0.004880000,0.012986000,0.027397000,-0.000546407,0.000765599,0.000096523,-0.004471386,-0.014814629,-0.007562888,0.009488742,-0.003748629,0.999827689,0.001292245,-0.001171007,0.000758632,0.000000000,0.000000000,0.000000000,0.000000000,0.016523708,0.009677309,0.053704016,0.018282020,0.002553113,-0.001664063,0.005203816,-0.000331225,-0.000173169,-0.168986669,0.249356286,1.113279891,-0.001453471,-0.002190266,0.009711795,0.999948442,0.000000000,0.000000000,0.000000000,0.000000000,0.000000000,0.000000000,1.112657991,0.000000000,4.006451607
1772424940.559645653,0.016170000,0.009626000,0.053741000,0.002485060,-0.006411040,-0.013635190,-0.999883400,-0.004795000,0.012889000,0.027241000,-0.000421348,0.000624923,-0.000335529,0.002509539,-0.005105469,-0.001594634,0.010172869,-0.003032561,1.000272913,-0.000060493,0.000075358,-0.000861670,0.000000000,0.000000000,0.000000000,0.000000000,0.016521255,0.009671903,0.053699916,0.018310058,0.002410980,-0.001639233,0.006110131,-0.000271004,0.000245359,-0.169339777,0.249227531,1.112492697,-0.001456579,-0.002189162,0.009704920,0.999948472,0.000000000,0.000000000,0.000000000,0.000000000,0.000000000,0.000000000,1.112088604,0.000000000,4.006451607
1772424940.569646358,0.016144000,0.009641000,0.053729000,0.002420480,-0.006555540,-0.013662150,-0.999882250,-0.004662000,0.013176000,0.027295000,-0.000069872,0.000169872,-0.000240715,0.004439167,0.003546708,0.000837021,0.009792378,-0.001967727,0.999037509,-0.002504720,0.000415899,-0.003568559,0.000000000,0.000000000,0.000000000,0.000000000,0.016527541,0.009664900,0.053704969,0.018448436,0.002303568,-0.001521265,0.005452168,0.000993368,-0.001189170,-0.169225161,0.249563183,1.111337749,-0.001455572,-0.002192067,0.009694840,0.999948591,0.000000000,0.000000000,0.000000000,0.000000000,0.000000000,0.000000000,1.110656450,0.000000000,4.006451607
1772424940.579647064,0.016154000,0.009646000,0.053720000,0.002334650,-0.006641930,-0.013689810,-0.999881500,-0.004487000,0.013347000,0.027351000,0.000163947,-0.000146912,-0.000086694,0.003690459,0.001048166,0.001997323,0.009093589,-0.001124964,0.997919098,-0.000962616,0.001594801,-0.003182635,0.000000000,0.000000000,0.000000000,0.000000000,0.016528446,0.009664926,0.053712598,0.018498771,0.002341704,-0.001531906,0.004857615,0.001602155,-0.001346554,-0.169443598,0.249864038,1.110022953,-0.001457478,-0.002194694,0.009683359,0.999948728,0.000000000,0.000000000,0.000000000,0.000000000,0.000000000,0.000000000,1.109079175,0.000000000,4.006451607
1772424940.589647293,0.016164000,0.009627000,0.053731000,0.002379780,-0.006521020,-0.013768870,-0.999881110,-0.004580000,0.013106000,0.027509000,0.000437568,-0.000337918,0.000254021,-0.003425671,-0.005242331,0.000451265,0.009122884,-0.001651112,0.997306839,0.000715755,0.001427556,0.000151035,0.000000000,0.000000000,0.000000000,0.000000000,0.016528394,0.009668008,0.053711851,0.018490297,0.002439520,-0.001609350,0.005056213,0.001662998,-0.002522869,-0.169844437,0.249710862,1.108453867,-0.001461019,-0.002193371,0.009669662,0.999948921,0.000000000,0.000000000,0.000000000,0.000000000,0.000000000,0.000000000,1.107145893,0.000000000,4.006451607
1772424940.599647522,0.016178000,0.009619000,0.053734000,0.002412510,-0.006516560,-0.013694260,-0.999882080,-0.004646000,0.013098000,0.027360000,0.000633781,-0.000443474,0.000492192,-0.010995805,-0.013136652,0.000273713,0.008803233,-0.001838822,0.998391571,-0.005057222,0.000944670,0.000780183,0.000000000,0.000000000,0.000000000,0.000000000,0.016517987,0.009676864,0.053705564,0.018463515,0.002542969,-0.001795013,0.004513074,0.001195529,-0.001814363,-0.169894999,0.249190138,1.106419446,-0.001461543,-0.002188806,0.009651916,0.999949036,0.000000000,0.000000000,0.000000000,0.000000000,0.000000000,0.000000000,1.105332502,0.000000000,4.006451607
1772424940.609647989,0.016176000,0.009617000,0.053754000,0.002506760,-0.006444750,-0.013652670,-0.999882890,-0.004837000,0.012957000,0.027276000,0.000523077,-0.000240851,0.000315288,-0.012974227,-0.012675899,-0.001043486,0.008553183,-0.003488043,0.999564121,-0.000291647,-0.000420066,-0.000396091,0.000000000,0.000000000,0.000000000,0.000000000,0.016513472,0.009685611,0.053696388,0.018408812,0.002590324,-0.001908974,0.003471761,0.001194553,-0.000798343,-0.169470238,0.248907386,1.104700446,-0.001457893,-0.002186281,0.009636927,0.999949152,0.000000000,0.000000000,0.000000000,0.000000000,0.000000000,0.000000000,1.104236581,0.000000000,4.006451607
1772424940.619647980,0.016171000,0.009630000,0.053738000,0.002580570,-0.006267360,-0.013679150,-0.999883460,-0.004989000,0.012604000,0.027328000,-0.000100699,0.000219270,-0.000038675,-0.009235061,-0.007141331,0.000604248,0.006967268,-0.002114847,1.000417098,0.000436922,-0.001073926,-0.002470301,0.000000000,0.000000000,0.000000000,0.000000000,0.016516001,0.009682889,0.053694197,0.018326720,0.002465944,-0.001874851,0.002418822,0.001658032,-0.000326234,-0.170331189,0.248057268,1.103313324,-0.001465504,-0.002178917,0.009624816,0.999949291,0.000000000,0.000000000,0.000000000,0.000000000,0.000000000,0.000000000,1.102507322,0.000000000,4.006451607
1772424940.629648209,0.016172000,0.009630000,0.053740000,0.002601640,-0.006319490,-0.013715330,-0.999882590,-0.005030000,0.012709000,0.027400000,-0.000310723,0.000351088,-0.000180284,-0.003160013,0.000597971,0.001025063,0.006296338,-0.000123220,1.000359325,-0.002097136,-0.000736539,0.000517422,0.000000000,0.000000000,0.000000000,0.000000000,0.016522952,0.009675313,0.053696711,0.018137399,0.002483605,-0.001768496,0.003542297,0.001206050,-0.001373280,-0.170538882,0.247006280,1.101449337,-0.001467440,-0.002169740,0.009608560,0.999949455,0.000000000,0.000000000,0.000000000,0.000000000,0.000000000,0.000000000,1.100679919,0.000000000,4.006451607
1772424940.639648676,0.016182000,0.009621000,0.053737000,0.002579080,-0.006405400,-0.013730420,-0.999881890,-0.004982000,0.012880000,0.027430000,-0.000363850,0.000104410,-0.000045727,0.004168058,0.008917865,0.005218853,0.011237505,-0.002801610,0.996425103,0.000523154,0.002807313,-0.000126725,0.000000000,0.000000000,0.000000000,0.000000000,0.016407245,0.009659818,0.053714555,0.015442472,0.002447496,-0.001620693,0.005467020,0.000417040,-0.002979609,-0.169269885,0.255969423,1.109779361,-0.001455441,-0.002247952,0.009681159,0.999949262,0.000000000,0.000000000,0.000000000,0.000000000,0.000000000,0.000000000,1.108390094,0.000000000,4.006451607
1772424940.649648905,0.016164000,0.009635000,0.053733000,0.002551700,-0.006471200,-0.013736490,-0.999881450,-0.004925000,0.013011000,0.027442000,-0.000297825,-0.000021348,0.000079759,0.010421968,0.011813228,0.005716763,0.008735100,-0.003279794,0.998532235,-0.003244166,-0.005539787,0.000498317,0.000000000,0.000000000,0.000000000,0.000000000,0.016340354,0.009654004,0.053724298,0.014709978,0.002440952,-0.001773967,0.005570813,0.000119629,-0.002340039,-0.167526281,0.269560986,1.122429259,-0.001438825,-0.002366568,0.009791401,0.999947488,0.000000000,0.000000000,0.000000000,0.000000000,0.000000000,0.000000000,1.118999120,0.000000000,4.006451607
1772424940.659649611,0.016156000,0.009633000,0.053740000,0.002486130,-0.006428050,-0.013755000,-0.999881640,-0.004795000,0.012923000,0.027481000,-0.000355770,0.000046212,0.000180789,0.010538526,0.012044721,0.003916447,0.010126014,-0.002761041,0.999763527,-0.002933623,0.005212214,0.000139559,0.000000000,0.000000000,0.000000000,0.000000000,0.016382983,0.009662102,0.053717917,0.015299874,0.002453326,-0.001942342,0.005196104,-0.000003502,-0.001135530,-0.168406951,0.269346535,1.120935940,-0.001446559,-0.002364753,0.009778354,0.999947372,0.000000000,0.000000000,0.000000000,0.000000000,0.000000000,0.000000000,1.120538580,0.000000000,4.006451607
1772424940.669649601,0.016166000,0.009621000,0.053750000,0.002463130,-0.006570980,-0.013732680,-0.999881080,-0.004746000,0.013208000,0.027436000,-0.000222475,-0.000054701,0.000003982,0.007671926,0.012466761,0.002028551,0.009738397,-0.002478022,0.997879683,0.001836459,-0.002459716,-0.003737852,0.000000000,0.000000000,0.000000000,0.000000000,0.016429032,0.009671908,0.053708522,0.015733858,0.002434963,-0.001998814,0.004922986,0.000108857,-0.001405868,-0.169149916,0.268736194,1.119782861,-0.001453118,-0.002359476,0.009768284,0.999947559,0.000000000,0.000000000,0.000000000,0.000000000,0.000000000,0.000000000,1.118981855,0.000000000,4.006451607
1772424940.679649830,0.016161000,0.009626000,0.053744000,0.002349520,-0.006666670,-0.013863660,-0.999878910,-0.004514000,0.013397000,0.027699000,-0.000003555,-0.000286461,0.000103594,0.005808448,0.012410529,-0.001433860,0.010822802,-0.002162855,0.998202148,-0.002364181,-0.000888651,0.000261793,0.000000000,0.000000000,0.000000000,0.000000000,0.016449038,0.009674042,0.053702048,0.015974305,0.002405044,-0.002105842,0.006493239,0.000900101,-0.002181094,-0.169170486,0.268824839,1.117715849,-0.001453333,-0.002360225,0.009750246,0.999947727,0.000000000,0.000000000,0.000000000,0.000000000,0.000000000,0.000000000,1.116496282,0.000000000,4.006451607
1772424940.689650297,0.016159000,0.009633000,0.053738000,0.002383000,-0.006539960,-0.013781360,-0.999880800,-0.004586000,0.013144000,0.027534000,0.000068629,-0.000351088,0.000035917,0.002293547,0.007529160,-0.003993947,0.008809406,-0.000654505,0.999910931,-0.000990989,0.001797133,-0.001025232,0.000000000,0.000000000,0.000000000,0.000000000,0.016467055,0.009664974,0.053702027,0.016327201,0.002414756,-0.002230767,0.004339434,0.001750458,-0.000012225,-0.168857752,0.270120905,1.116188830,-0.001450525,-0.002371489,0.009736910,0.999947742,0.000000000,0.000000000,0.000000000,0.000000000,0.000000000,0.000000000,1.115869910,0.000000000,4.006451607
1772424940.699651003,0.016159000,0.009628000,0.053735000,0.002440900,-0.006735000,-0.013718850,-0.999880230,-0.004697000,0.013536000,0.027407000,0.000124845,-0.000131799,-0.000042832,-0.001054081,0.001334864,-0.005818668,0.007550419,-0.002591757,1.001224401,0.000075729,-0.001738067,0.000018801,0.000000000,0.000000000,0.000000000,0.000000000,0.016474349,0.009665126,0.053705163,0.016398702,0.002530207,-0.002119882,0.002932012,0.000604181,0.000327441,-0.168898788,0.270342869,1.115431761,-0.001450880,-0.002373419,0.009730300,0.999947906,0.000000000,0.000000000,0.000000000,0.000000000,0.000000000,0.000000000,1.114814211,0.000000000,4.006451607
1772424940.709650755,0.016169000,0.009607000,0.053745000,0.002401920,-0.006783930,-0.013700700,-0.999880240,-0.004618000,0.013632000,0.027371000,0.000141667,-0.000027195,0.000011869,-0.002492367,-0.012937047,-0.006289709,0.007198331,-0.004293751,0.998893988,0.000130257,0.001276870,0.001452230,0.000000000,0.000000000,0.000000000,0.000000000,0.016476605,0.009670979,0.053703043,0.016328729,0.002536549,-0.002004178,0.003044224,-0.000365603,-0.000545927,-0.168486224,0.270061886,1.114496212,-0.001447323,-0.002370921,0.009722150,0.999947906,0.000000000,0.000000000,0.000000000,0.000000000,0.000000000,0.000000000,1.114186273,0.000000000,4.006451607
1772424940.719650745,0.016162000,0.009619000,0.053751000,0.002366790,-0.006578740,-0.013659670,-0.999882260,-0.004554000,0.013221000,0.027291000,0.000281566,0.000236422,-0.000098990,-0.002969259,-0.017813740,-0.004510557,0.009336937,-0.000734100,1.000620772,0.000238927,0.000467155,-0.002254986,0.000000000,0.000000000,0.000000000,0.000000000,0.016483632,0.009675244,0.053701049,0.016269592,0.002467508,-0.001973373,0.003844995,0.000810406,0.000278687,-0.167414374,0.270037872,1.113780218,-0.001437987,-0.002370611,0.009715924,0.999948011,0.000000000,0.000000000,0.000000000,0.000000000,0.000000000,0.000000000,1.113367509,0.000000000,4.006451607
1772424940.729650497,0.016160000,0.009631000,0.053737000,0.002455810,-0.006456670,-0.013698780,-0.999882300,-0.004735000,0.012979000,0.027368000,0.000160295,0.000615521,-0.000315346,-0.002338666,-0.015141692,0.000613564,0.008181385,-0.001743098,1.001632058,-0.002974288,-0.000463877,-0.000516206,0.000000000,0.000000000,0.000000000,0.000000000,0.016486308,0.009678848,0.053699710,0.016280327,0.002516910,-0.001862257,0.003572356,0.001727205,0.001197417,-0.166250457,0.269003538,1.112936593,-0.001427935,-0.002361476,0.009708600,0.999948125,0.000000000,0.000000000,0.000000000,0.000000000,0.000000000,0.000000000,1.112384748,0.000000000,4.006451607
1772424940.739650011,0.016180000,0.009631000,0.053737000,0.002446630,-0.006435030,-0.013673380,-0.999882810,-0.004717000,0.012936000,0.027318000,0.000098155,0.000673388,-0.000473388,-0.005607974,-0.006869387,0.001191635,0.008534059,-0.000541623,0.999975048,-0.000571456,0.001414541,-0.002642932,0.000000000,0.000000000,0.000000000,0.000000000,0.016485933,0.009685694,0.053696836,0.016259870,0.002635175,-0.001692814,0.003466353,0.001946882,0.000258688,-0.165512793,0.268134303,1.112058504,-0.001421590,-0.002353817,0.009700964,0.999948186,0.000000000,0.000000000,0.000000000,0.000000000,0.000000000,0.000000000,1.111773860,0.000000000,4.006451607
1772424940.749650002,0.016167000,0.009636000,0.053733000,0.002452270,-0.006256560,-0.013673630,-0.999883930,-0.004733000,0.012579000,0.027319000,0.000120435,0.000366434,-0.000336092,-0.008284242,0.008057370,-0.000950016,0.008914253,-0.000445467,0.999498138,-0.000017995,0.002500445,-0.003058632,0.000000000,0.000000000,0.000000000,0.000000000,0.016486344,0.009690986,0.053694823,0.016223179,0.002709424,-0.001605245,0.005282813,0.003127901,-0.001047529,-0.165340801,0.268293077,1.111942589,-0.001420078,-0.002355187,0.009699954,0.999948224,0.000000000,0.000000000,0.000000000,0.000000000,0.000000000,0.000000000,1.111407936,0.000000000,4.006451607
1772424940.759649515,0.016171000,0.009649000,0.053723000,0.002494380,-0.006529410,-0.013698330,-0.999881740,-0.004810000,0.013126000,0.027367000,0.000398913,-0.000410548,0.000167075,-0.006747370,0.013268181,-0.003212285,0.009292120,-0.000745247,0.999446375,-0.000141939,0.003292872,-0.002857955,0.000000000,0.000000000,0.000000000,0.000000000,0.016486136,0.009691019,0.053695554,0.016239490,0.002746569,-0.001603725,0.005381143,0.002577937,-0.000846673,-0.165168816,0.268451844,1.111826680,-0.001418567,-0.002356556,0.009698944,0.999948256,0.000000000,0.000000000,0.000000000,0.000000000,0.000000000,0.000000000,1.111084543,0.000000000,4.006451607
1772424940.769649506,0.016168000,0.009637000,0.053733000,0.002554310,-0.006640690,-0.013683150,-0.999881070,-0.004927000,0.013350000,0.027335000,0.000202681,-0.000635393,0.000607868,-0.001768362,0.006878776,-0.001767774,0.009670005,-0.001045042,0.999394609,-0.000265889,0.004085337,-0.002657268,0.000000000,0.000000000,0.000000000,0.000000000,0.016485929,0.009691051,0.053696285,0.016255803,0.002783715,-0.001602206,0.005479477,0.002027947,-0.000645808,-0.164996824,0.268610619,1.111710765,-0.001417055,-0.002357926,0.009697933,0.999948288,0.000000000,0.000000000,0.000000000,0.000000000,0.000000000,0.000000000,1.110761134,0.000000000,4.006451607
1772424940.779649496,0.016178000,0.009622000,0.053738000,0.002592940,-0.006676410,-0.013642040,-0.999881290,-0.005004000,0.013422000,0.027252000,-0.000070746,-0.000441415,0.000457207,0.000936935,0.000285101,0.000495719,0.010047889,-0.001344837,0.999342843,-0.000389840,0.004877801,-0.002456582,0.000000000,0.000000000,0.000000000,0.000000000,0.016485722,0.009691084,0.053697016,0.016272115,0.002820862,-0.001600686,0.005577812,0.001477957,-0.000444942,-0.164824831,0.268769394,1.111594850,-0.001415543,-0.002359296,0.009696923,0.999948320,0.000000000,0.000000000,0.000000000,0.000000000,0.000000000,0.000000000,1.110437726,0.000000000,4.006451607
1772424940.789649963,0.016181000,0.009620000,0.053750000,0.002540280,-0.006544030,-0.013608200,-0.999882760,-0.004902000,0.013156000,0.027186000,-0.000089899,-0.000154177,0.000281139,0.006529858,-0.005870624,0.002276694,0.010425792,-0.001644646,0.999291075,-0.000513796,0.005670304,-0.002255886,0.000000000,0.000000000,0.000000000,0.000000000,0.016485514,0.009691116,0.053697748,0.016288429,0.002858010,-0.001599166,0.005676152,0.000927940,-0.000244067,-0.165141897,0.268228618,1.110913918,-0.001418369,-0.002354595,0.009690982,0.999948351,0.000000000,0.000000000,0.000000000,0.000000000,0.000000000,0.000000000,1.110114302,0.000000000,4.006451607
1772424940.799650908,0.016183000,0.009611000,0.053754000,0.002469130,-0.006393440,-0.013674100,-0.999883020,-0.004763000,0.012853000,0.027319000,-0.000428691,0.000258858,-0.000037821,0.008663956,-0.014646311,0.006523012,0.010483574,-0.001880534,0.999414243,-0.000646202,0.005777259,-0.001355707,0.000000000,0.000000000,0.000000000,0.000000000,0.016485307,0.009691149,0.053698479,0.016304743,0.002895161,-0.001597647,0.005774496,0.000377898,-0.000043183,-0.165493121,0.267638980,1.110193509,-0.001421499,-0.002349471,0.009684697,0.999948387,0.000000000,0.000000000,0.000000000,0.000000000,0.000000000,0.000000000,1.109790862,0.000000000,4.006451607
1772424940.809651136,0.016156000,0.009636000,0.053744000,0.002401750,-0.006411320,-0.013785700,-0.999881530,-0.004627000,0.012888000,0.027543000,-0.000586753,0.000731605,-0.000411014,0.006740725,-0.007340033,0.010004016,0.009110429,-0.001983706,1.000243191,-0.000492984,0.001821596,0.002735947,0.000000000,0.000000000,0.000000000,0.000000000,0.016490231,0.009685292,0.053702694,0.016469934,0.002881939,-0.001552415,0.004546988,0.000827037,0.000640860,-0.165662986,0.266025079,1.108967039,-0.001423143,-0.002335386,0.009674011,0.999948571,0.000000000,0.000000000,0.000000000,0.000000000,0.000000000,0.000000000,1.108154390,0.000000000,4.006451607
1772424940.819651127,0.016159000,0.009644000,0.053727000,0.002437730,-0.006499910,-0.013733040,-0.999881600,-0.004697000,0.013066000,0.027437000,-0.000414608,0.000576263,-0.000457965,0.001928474,0.002452793,0.009408644,0.009672372,-0.003258252,0.999716229,0.001464452,-0.003362415,0.002024463,0.000000000,0.000000000,0.000000000,0.000000000,0.016496103,0.009680473,0.053712121,0.016536527,0.002876464,-0.001405888,0.005157696,0.000201587,-0.000484320,-0.165257561,0.264178466,1.107093758,-0.001419799,-0.002319215,0.009657696,0.999948750,0.000000000,0.000000000,0.000000000,0.000000000,0.000000000,0.000000000,1.106364311,0.000000000,4.006451607
1772424940.829651117,0.016165000,0.009639000,0.053737000,0.002381650,-0.006445680,-0.013799480,-0.999881170,-0.004585000,0.012956000,0.027571000,0.000102622,-0.000025253,-0.000307285,-0.004424525,0.007317435,0.002892701,0.010296102,-0.003309372,0.999822086,0.001487685,-0.001667679,0.001252727,0.000000000,0.000000000,0.000000000,0.000000000,0.016500546,0.009673389,0.053720761,0.016687516,0.002749037,-0.001352273,0.005491871,-0.000842153,-0.000004388,-0.163834351,0.265072665,1.105749909,-0.001407331,-0.002326881,0.009645988,0.999948778,0.000000000,0.000000000,0.000000000,0.000000000,0.000000000,0.000000000,1.105551838,0.000000000,4.006451607
1772424940.839650869,0.016157000,0.009639000,0.053734000,0.002467340,-0.006399800,-0.013868910,-0.999880300,-0.004757000,0.012867000,0.027709000,0.000518493,-0.000391007,0.000066531,-0.004679543,0.006163047,-0.002023165,0.011562558,-0.002034646,0.998936383,-0.000423416,-0.001764090,-0.000226144,0.000000000,0.000000000,0.000000000,0.000000000,0.016490549,0.009683155,0.053716888,0.016853624,0.002651546,-0.001328850,0.006632790,0.000597124,-0.000912275,-0.163329510,0.266524166,1.105710630,-0.001402805,-0.002339505,0.009645636,0.999948836,0.000000000,0.000000000,0.000000000,0.000000000,0.000000000,0.000000000,1.105028946,0.000000000,4.006451607
1772424940.849650383,0.016165000,0.009638000,0.053733000,0.002486710,-0.006601810,-0.013816840,-0.999879660,-0.004791000,0.013271000,0.027603000,0.000472805,-0.000505750,0.000282129,-0.005050511,-0.000633582,-0.004743087,0.011985364,-0.001617110,0.998565186,-0.000646755,0.002583257,-0.001718178,0.000000000,0.000000000,0.000000000,0.000000000,0.016491138,0.009688804,0.053710143,0.017121281,0.002667123,-0.001393991,0.007346352,0.001022762,-0.001528707,-0.162920765,0.266927121,1.104029258,-0.001399238,-0.002342966,0.009630968,0.999948992,0.000000000,0.000000000,0.000000000,0.000000000,0.000000000,0.000000000,1.103261449,0.000000000,4.006451607
1772424940.859649420,0.016181000,0.009619000,0.053738000,0.002500920,-0.006560600,-0.013754480,-0.999880750,-0.004821000,0.013189000,0.027479000,0.000043260,-0.000247572,0.000229449,0.000533756,-0.000079351,-0.000563472,0.011366727,-0.002926515,0.998968798,-0.000273236,0.001177666,-0.001683597,0.000000000,0.000000000,0.000000000,0.000000000,0.016494622,0.009689736,0.053709355,0.017413067,0.002701287,-0.001471687,0.007107457,0.001322577,-0.001336741,-0.163328535,0.267109870,1.102394258,-0.001402815,-0.002344575,0.009616688,0.999949148,0.000000000,0.000000000,0.000000000,0.000000000,0.000000000,0.000000000,1.101404198,0.000000000,4.006451607
1772424940.869649410,0.016179000,0.009617000,0.053741000,0.002514100,-0.006459560,-0.013697980,-0.999882150,-0.004851000,0.012987000,0.027366000,-0.000106294,-0.000058800,0.000010781,0.004155102,0.002453355,0.001462130,0.009749576,-0.002921931,0.999004299,-0.000395650,0.000944585,0.000519320,0.000000000,0.000000000,0.000000000,0.000000000,0.016497739,0.009690339,0.053707186,0.017651512,0.002705711,-0.001525534,0.005353944,-0.000393590,-0.000840689,-0.163682120,0.265506177,1.100422203,-0.001406075,-0.002330586,0.009599493,0.999949328,0.000000000,0.000000000,0.000000000,0.000000000,0.000000000,0.000000000,1.099576825,0.000000000,4.006451607
1772424940.879649162,0.016168000,0.009636000,0.053742000,0.002408680,-0.006487560,-0.013809720,-0.999880690,-0.004638000,0.013040000,0.027591000,-0.000262141,0.000110159,-0.000073873,0.006006234,0.001388142,0.005741392,0.008431088,-0.003008811,0.999391739,0.002002518,0.001572230,-0.000013307,0.000000000,0.000000000,0.000000000,0.000000000,0.016505499,0.009687272,0.053706356,0.017749778,0.002616246,-0.001545720,0.004164806,0.000064890,-0.000884434,-0.163676651,0.264960825,1.099000755,-0.001406102,-0.002325809,0.009587096,0.999949396,0.000000000,0.000000000,0.000000000,0.000000000,0.000000000,0.000000000,1.098798400,0.000000000,4.006451607
1772424940.889649630,0.016155000,0.009635000,0.053736000,0.002479980,-0.006454890,-0.013810930,-0.999880710,-0.004781000,0.012977000,0.027592000,-0.000416026,0.000174184,-0.000206585,0.003874676,0.002815317,0.008418505,0.007504786,-0.003244367,1.000610881,-0.000163096,0.001690375,-0.000176192,0.000000000,0.000000000,0.000000000,0.000000000,0.016514637,0.009678999,0.053707612,0.017760559,0.002538451,-0.001560234,0.003379669,-0.000208762,0.000353636,-0.163427635,0.264476797,1.098795493,-0.001403973,-0.002321562,0.009585317,0.999949435,0.000000000,0.000000000,0.000000000,0.000000000,0.000000000,0.000000000,1.098521580,0.000000000,4.006451607
1772424940.899649620,0.016164000,0.009626000,0.053735000,0.002314270,-0.006657520,-0.013955630,-0.999877770,-0.004443000,0.013378000,0.027883000,-0.000100408,0.000043085,-0.000209849,0.001041285,0.006272696,0.004954394,0.007677619,-0.002469850,1.001059564,-0.001680535,0.000971728,0.001280095,0.000000000,0.000000000,0.000000000,0.000000000,0.016518137,0.009672365,0.053710433,0.017632489,0.002419068,-0.001439333,0.003015848,0.000240413,0.000937610,-0.162037169,0.264487002,1.097815551,-0.001391859,-0.002321523,0.009576794,0.999949534,0.000000000,0.000000000,0.000000000,0.000000000,0.000000000,0.000000000,1.097266560,0.000000000,4.006451607
1772424940.909649611,0.016168000,0.009628000,0.053732000,0.002429370,-0.006595200,-0.013856250,-0.999879300,-0.004676000,0.013257000,0.027683000,0.000288345,-0.000037840,-0.000165326,-0.001537819,0.007519791,-0.001430229,0.009839224,-0.001604551,0.999177648,-0.000208980,-0.003083442,0.000771684,0.000000000,0.000000000,0.000000000,0.000000000,0.016510703,0.009678317,0.053713039,0.017452118,0.002405607,-0.001271941,0.004538646,0.001148633,-0.000151929,-0.162109265,0.264750104,1.096759110,-0.001392487,-0.002323812,0.009567571,0.999949603,0.000000000,0.000000000,0.000000000,0.000000000,0.000000000,0.000000000,1.096248682,0.000000000,4.006451607
1772424940.919649839,0.016163000,0.009632000,0.053731000,0.002465150,-0.006569390,-0.013864450,-0.999879260,-0.004748000,0.013206000,0.027699000,0.000309713,-0.000066900,0.000090093,-0.003708955,0.001332241,-0.006656694,0.009797182,-0.001875990,0.998552699,-0.002544989,0.000023412,-0.000706492,0.000000000,0.000000000,0.000000000,0.000000000,0.016503374,0.009678895,0.053712025,0.017489036,0.002489619,-0.001302480,0.005690884,0.001423805,-0.001585376,-0.161419476,0.265060504,1.095553724,-0.001386467,-0.002326449,0.009557061,0.999949759,0.000000000,0.000000000,0.000000000,0.000000000,0.000000000,0.000000000,1.094756082,0.000000000,4.006451607
1772424940.929650307,0.016169000,0.009625000,0.053735000,0.002448030,-0.006630660,-0.013824780,-0.999879450,-0.004713000,0.013328000,0.027620000,0.000130886,0.000000311,0.000189375,-0.003947333,0.000370454,-0.006204599,0.009563274,-0.004023483,1.000473071,-0.002699662,-0.007738026,0.001693320,0.000000000,0.000000000,0.000000000,0.000000000,0.016505215,0.009677172,0.053709687,0.017602767,0.002506543,-0.001390765,0.004894581,-0.000667303,0.000052424,-0.161570235,0.265875667,1.093894871,-0.001387748,-0.002333554,0.009542574,0.999949859,0.000000000,0.000000000,0.000000000,0.000000000,0.000000000,0.000000000,1.093299688,0.000000000,4.006451607
1772424940.939650297,0.016178000,0.009628000,0.053737000,0.002464520,-0.006590870,-0.013761560,-0.999880550,-0.004747000,0.013248000,0.027493000,-0.000238229,0.000053438,0.000230983,-0.005264573,-0.000045725,-0.004744365,0.011008484,-0.004368512,0.999885501,-0.003941257,-0.000535163,-0.001399946,0.000000000,0.000000000,0.000000000,0.000000000,0.016506196,0.009677395,0.053707409,0.017674620,0.002331287,-0.001320293,0.005296887,-0.000986731,0.000144742,-0.162904036,0.266256130,1.093079424,-0.001399372,-0.002336976,0.009535426,0.999949815,0.000000000,0.000000000,0.000000000,0.000000000,0.000000000,0.000000000,1.093289161,0.000000000,4.006451607
1772424940.949650764,0.016166000,0.009640000,0.053735000,0.002463270,-0.006670170,-0.013761920,-0.999880020,-0.004743000,0.013407000,0.027494000,-0.000297436,0.000028399,0.000079817,-0.001687110,-0.002541602,-0.001051672,0.008085296,-0.002863415,0.998733564,0.000932748,-0.001986276,-0.000033563,0.000000000,0.000000000,0.000000000,0.000000000,0.016509636,0.009672444,0.053709231,0.017784888,0.002116080,-0.001244928,0.003823764,0.000184993,-0.001267617,-0.163323324,0.267109404,1.093211585,-0.001402957,-0.002344458,0.009536560,0.999949833,0.000000000,0.000000000,0.000000000,0.000000000,0.000000000,0.000000000,1.092997176,0.000000000,4.006451607
1772424940.959650755,0.016159000,0.009623000,0.053746000,0.002503750,-0.006514960,-0.013788390,-0.999880580,-0.004828000,0.013098000,0.027547000,-0.000349884,0.000040851,-0.000045707,-0.000958318,-0.002624928,-0.000838474,0.007781027,-0.003539540,0.999677701,-0.002025140,-0.001021142,0.003192765,0.000000000,0.000000000,0.000000000,0.000000000,0.016514665,0.009670800,0.053710951,0.017715534,0.002085477,-0.001268945,0.003657703,-0.000665978,-0.000660952,-0.163406872,0.267596609,1.092057445,-0.001403669,-0.002348702,0.009526480,0.999949975,0.000000000,0.000000000,0.000000000,0.000000000,0.000000000,0.000000000,1.091305184,0.000000000,4.006451607
1772424940.969650745,0.016161000,0.009625000,0.053734000,0.002524440,-0.006682940,-0.013802990,-0.999879210,-0.004864000,0.013434000,0.027575000,-0.000314608,0.000114588,-0.000236655,0.000131882,0.002220125,0.000306540,0.009160415,-0.003739669,1.000231564,-0.001469883,-0.003223199,-0.001060349,0.000000000,0.000000000,0.000000000,0.000000000,0.016513165,0.009674081,0.053711156,0.017608610,0.001987814,-0.001250525,0.004038191,-0.000961879,0.000138573,-0.162945258,0.268145843,1.090782966,-0.001399622,-0.002353441,0.009515361,0.999949996,0.000000000,0.000000000,0.000000000,0.000000000,0.000000000,0.000000000,1.090570870,0.000000000,4.006451607
1772424940.979650736,0.016154000,0.009637000,0.053738000,0.002501870,-0.006579340,-0.013775810,-0.999880330,-0.004822000,0.013226000,0.027521000,0.000202059,-0.000114783,-0.000134402,0.002199643,0.006182303,-0.000602988,0.007448282,-0.003614592,0.999920301,0.002894768,0.003207715,0.002226744,0.000000000,0.000000000,0.000000000,0.000000000,0.016506850,0.009668466,0.053716457,0.017535056,0.001841084,-0.001157970,0.002949057,-0.001116488,0.000186324,-0.163241854,0.268111860,1.090060874,-0.001402227,-0.002353160,0.009509055,0.999950113,0.000000000,0.000000000,0.000000000,0.000000000,0.000000000,0.000000000,1.089360988,0.000000000,4.006451607
1772424940.989650488,0.016164000,0.009631000,0.053728000,0.002457900,-0.006492730,-0.013754740,-0.999881300,-0.004737000,0.013052000,0.027480000,0.000602040,-0.000270921,0.000090909,0.004179693,0.011393759,0.000489783,0.007452637,-0.003563204,1.000501982,0.001590628,-0.001660302,0.001200592,0.000000000,0.000000000,0.000000000,0.000000000,0.016503018,0.009663233,0.053715351,0.017354062,0.001677856,-0.001103995,0.002752104,-0.000826250,0.000475645,-0.163764142,0.268187971,1.089030238,-0.001406800,-0.002353855,0.009500050,0.999950168,0.000000000,0.000000000,0.000000000,0.000000000,0.000000000,0.000000000,1.088715188,0.000000000,4.006451607
1772424940.999650240,0.016163000,0.009628000,0.053737000,0.002431830,-0.006807760,-0.013777620,-0.999878950,-0.004676000,0.013681000,0.027525000,0.000465599,-0.000137626,0.000299398,0.004907943,0.011230994,0.002693791,0.007828632,-0.002568052,1.000338322,-0.001973420,-0.001566465,-0.001536025,0.000000000,0.000000000,0.000000000,0.000000000,0.016496442,0.009664910,0.053716284,0.017163103,0.001569132,-0.001012157,0.002972621,0.000106035,0.000594253,-0.162954839,0.268717394,1.088908360,-0.001399696,-0.002358406,0.009498996,0.999950115,0.000000000,0.000000000,0.000000000,0.000000000,0.000000000,0.000000000,1.089097901,0.000000000,4.006451607
1772424941.009650707,0.016174000,0.009628000,0.053734000,0.002457620,-0.006803980,-0.013782200,-0.999878850,-0.004728000,0.013674000,0.027534000,0.000077486,-0.000047922,0.000436306,0.004436372,-0.002778692,0.005042019,0.009042560,-0.000942539,0.997867504,0.001229095,-0.004173143,-0.003447177,0.000000000,0.000000000,0.000000000,0.000000000,0.016495070,0.009663462,0.053713737,0.017004735,0.001548757,-0.000934254,0.004024154,0.001535142,-0.001650927,-0.162694437,0.269376361,1.088753688,-0.001397372,-0.002364133,0.009497643,0.999950180,0.000000000,0.000000000,0.000000000,0.000000000,0.000000000,0.000000000,1.088375899,0.000000000,4.006451607
1772424941.019651175,0.016187000,0.009614000,0.053751000,0.002414580,-0.006699190,-0.013801010,-0.999879400,-0.004644000,0.013464000,0.027572000,-0.000081294,0.000009926,0.000171523,0.003315974,-0.012259774,0.003066146,0.010425825,-0.001100765,0.996618253,0.001276451,-0.000504267,-0.003528524,0.000000000,0.000000000,0.000000000,0.000000000,0.016494208,0.009661499,0.053715251,0.016979830,0.001664783,-0.001067503,0.005029955,0.001971608,-0.002559465,-0.162616086,0.269959033,1.087294085,-0.001396671,-0.002369194,0.009484901,0.999950298,0.000000000,0.000000000,0.000000000,0.000000000,0.000000000,0.000000000,1.086395425,0.000000000,4.006451607
1772424941.029650688,0.016167000,0.009624000,0.053749000,0.002383890,-0.006744510,-0.013888040,-0.999877970,-0.004580000,0.013554000,0.027747000,-0.000336733,0.000244250,-0.000097611,0.002039804,-0.021896229,0.000731769,0.010518090,-0.001496778,0.997604583,-0.002538552,0.002913687,-0.001216891,0.000000000,0.000000000,0.000000000,0.000000000,0.016498385,0.009661723,0.053713688,0.017060302,0.001809935,-0.001332246,0.005834235,0.001945378,-0.002492520,-0.162293582,0.270768632,1.085542606,-0.001393826,-0.002376210,0.009469614,0.999950402,0.000000000,0.000000000,0.000000000,0.000000000,0.000000000,0.000000000,1.084836648,0.000000000,4.006451607
1772424941.039650917,0.016156000,0.009639000,0.053743000,0.002392860,-0.006436240,-0.013837180,-0.999880680,-0.004607000,0.012938000,0.027646000,-0.000219250,0.000172766,-0.000362024,0.000811464,-0.022425163,-0.002538313,0.010292947,-0.002668420,0.999347505,0.000229277,0.002913351,-0.001027178,0.000000000,0.000000000,0.000000000,0.000000000,0.016526380,0.009663994,0.053716260,0.015904916,0.002024665,-0.001284051,0.006045869,0.001103682,-0.002094947,-0.162512018,0.280906363,1.083458972,-0.001394939,-0.002464667,0.009451299,0.999950300,0.000000000,0.000000000,0.000000000,0.000000000,0.000000000,0.000000000,1.083554311,0.000000000,4.006451607
1772424941.049651146,0.016159000,0.009636000,0.053735000,0.002368070,-0.006240390,-0.013804010,-0.999882440,-0.004564000,0.012545000,0.027581000,0.000189433,-0.000124553,-0.000257440,-0.001840987,-0.013081676,-0.006570005,0.010479604,-0.002343406,0.999300565,-0.000675514,-0.000407468,0.001107066,0.000000000,0.000000000,0.000000000,0.000000000,0.016233153,0.009636133,0.053729425,0.014822909,0.002015652,-0.001273224,0.005947735,-0.000164204,-0.001524579,-0.163273138,0.289819107,1.092750297,-0.001400638,-0.002542618,0.009532248,0.999949902,0.000000000,0.000000000,0.000000000,0.000000000,0.000000000,0.000000000,1.084485055,0.000000000,4.006451607
1772424941.059651136,0.016176000,0.009620000,0.053730000,0.002402910,-0.006374600,-0.013714250,-0.999882750,-0.004631000,0.012814000,0.027400000,0.000534966,-0.000268085,-0.000115054,-0.004630738,-0.009246962,-0.010439851,0.010083815,-0.003892350,0.999486464,0.001521764,-0.000316669,0.003727543,0.000000000,0.000000000,0.000000000,0.000000000,0.016363796,0.009648224,0.053722786,0.015499293,0.002165359,-0.001330022,0.005849603,-0.001432060,-0.000954225,-0.163433965,0.289127328,1.094116249,-0.001402069,-0.002536612,0.009544173,0.999949318,0.000000000,0.000000000,0.000000000,0.000000000,0.000000000,0.000000000,1.093455919,0.000000000,4.006451607
1772424941.069651604,0.016169000,0.009630000,0.053734000,0.002430830,-0.006400420,-0.013770650,-0.999881740,-0.004685000,0.012867000,0.027513000,0.000478244,-0.000272475,0.000218473,-0.006032566,-0.007444529,-0.008352760,0.010207205,-0.003716927,0.999970957,0.000912684,0.001043065,0.003242328,0.000000000,0.000000000,0.000000000,0.000000000,0.016427748,0.009653180,0.053721445,0.015951241,0.002051672,-0.001358671,0.004469391,-0.000562129,-0.000097499,-0.163144317,0.288348366,1.093215050,-0.001399626,-0.002529779,0.009536325,0.999949409,0.000000000,0.000000000,0.000000000,0.000000000,0.000000000,0.000000000,1.092861288,0.000000000,4.006451607
1772424941.079651117,0.016184000,0.009618000,0.053742000,0.002453990,-0.006392230,-0.013685210,-0.999882910,-0.004733000,0.012850000,0.027342000,-0.000215754,0.000163345,0.000172358,-0.004283298,0.000574642,-0.002573762,0.010451590,-0.003084325,1.000318831,-0.001245959,0.000419118,0.000651385,0.000000000,0.000000000,0.000000000,0.000000000,0.016450537,0.009663825,0.053717572,0.016167964,0.001998968,-0.001324239,0.005779470,0.000105685,-0.000252644,-0.162921250,0.288246605,1.092365062,-0.001397707,-0.002528862,0.009528914,0.999949463,0.000000000,0.000000000,0.000000000,0.000000000,0.000000000,0.000000000,1.091811972,0.000000000,4.006451607
1772424941.089651823,0.016187000,0.009617000,0.053746000,0.002491770,-0.006251640,-0.013628920,-0.999884470,-0.004813000,0.012570000,0.027229000,-0.000634383,0.000493804,-0.000116123,-0.001396576,0.002981418,0.002239686,0.009453413,-0.004169657,0.999817646,0.001321536,-0.003097794,-0.003482275,0.000000000,0.000000000,0.000000000,0.000000000,0.016459624,0.009672327,0.053713616,0.016411212,0.001984748,-0.001286113,0.004859048,-0.000811634,-0.000061537,-0.163639875,0.287437373,1.091632684,-0.001404061,-0.002521851,0.009522517,0.999949520,0.000000000,0.000000000,0.000000000,0.000000000,0.000000000,0.000000000,1.091438258,0.000000000,4.006451607
1772424941.099652052,0.016161000,0.009637000,0.053739000,0.002477840,-0.006210170,-0.013663930,-0.999884290,-0.004786000,0.012487000,0.027299000,-0.000536228,0.000422339,-0.000391648,0.002453249,0.009529372,0.006230755,0.009911413,-0.003811554,0.998653355,-0.002435664,-0.001570332,0.000680718,0.000000000,0.000000000,0.000000000,0.000000000,0.016466005,0.009676138,0.053706617,0.016542243,0.001875596,-0.001262649,0.004694608,-0.000920425,-0.001367766,-0.164676315,0.287018484,1.090528681,-0.001413164,-0.002518269,0.009512866,0.999949634,0.000000000,0.000000000,0.000000000,0.000000000,0.000000000,0.000000000,1.089502813,0.000000000,4.006451607
1772424941.109652758,0.016149000,0.009643000,0.053734000,0.002483240,-0.006335720,-0.013791830,-0.999881730,-0.004792000,0.012739000,0.027555000,-0.000090618,0.000128982,-0.000467794,0.002074065,0.012387814,0.006403306,0.009637122,-0.001498168,0.998208486,-0.002009152,0.000544788,-0.000622155,0.000000000,0.000000000,0.000000000,0.000000000,0.016481031,0.009670139,0.053702065,0.016699076,0.001745078,-0.001356965,0.004370183,0.000796328,-0.001599236,-0.165146930,0.288679420,1.089124385,-0.001417164,-0.002532784,0.009500580,0.999949643,0.000000000,0.000000000,0.000000000,0.000000000,0.000000000,0.000000000,1.088916138,0.000000000,4.006451607
1772424941.119652748,0.016151000,0.009642000,0.053722000,0.002407120,-0.006581470,-0.013788990,-0.999880370,-0.004633000,0.013228000,0.027549000,0.000013636,-0.000022650,-0.000042890,0.001866758,0.011707475,0.006709695,0.010275842,-0.002245442,0.999332602,0.000003524,-0.002334788,-0.000483221,0.000000000,0.000000000,0.000000000,0.000000000,0.016492830,0.009664624,0.053704436,0.016793499,0.001779506,-0.001438269,0.005472227,0.001267207,-0.000597189,-0.165879202,0.289385094,1.088509660,-0.001423509,-0.002538995,0.009495192,0.999949766,0.000000000,0.000000000,0.000000000,0.000000000,0.000000000,0.000000000,1.088100827,0.000000000,4.006451607
1772424941.129652262,0.016174000,0.009627000,0.053724000,0.002418310,-0.006589670,-0.013813580,-0.999879950,-0.004654000,0.013245000,0.027598000,0.000223874,-0.000280808,0.000358120,0.000548857,0.008882883,0.003216585,0.009898244,-0.000910103,0.998859444,-0.000380530,-0.000565706,0.000289362,0.000000000,0.000000000,0.000000000,0.000000000,0.016496275,0.009663941,0.053709774,0.016932125,0.001842139,-0.001415540,0.005053163,0.001682454,-0.001250411,-0.166348338,0.289197938,1.087267924,-0.001427646,-0.002537385,0.009484348,0.999949932,0.000000000,0.000000000,0.000000000,0.000000000,0.000000000,0.000000000,1.086115698,0.000000000,4.006451607
1772424941.139652491,0.016179000,0.009625000,0.053735000,0.002438870,-0.006602650,-0.013801360,-0.999879980,-0.004695000,0.013271000,0.027573000,0.000204759,-0.000267114,0.000436558,-0.000442704,0.005660616,-0.000308534,0.008424192,-0.002432014,0.997927871,0.000709629,0.000993138,-0.002251476,0.000000000,0.000000000,0.000000000,0.000000000,0.016492489,0.009665367,0.053716052,0.016993005,0.001953813,-0.001438300,0.003766516,0.000420004,-0.001394238,-0.166358011,0.289123619,1.085719548,-0.001427771,-0.002536718,0.009470836,0.999949980,0.000000000,0.000000000,0.000000000,0.000000000,0.000000000,0.000000000,1.085325056,0.000000000,4.006451607
1772424941.149652719,0.016170000,0.009629000,0.053744000,0.002496720,-0.006378010,-0.013769050,-0.999881740,-0.004818000,0.012824000,0.027509000,-0.000011733,-0.000072941,0.000131138,0.001650596,0.005833204,-0.000966251,0.009633165,-0.004333059,1.000499577,-0.001727627,0.002709796,-0.002054827,0.000000000,0.000000000,0.000000000,0.000000000,0.016489636,0.009667069,0.053716307,0.016983508,0.001979108,-0.001488619,0.003498331,-0.001135161,-0.000412597,-0.165811193,0.288912301,1.085061399,-0.001423031,-0.002534821,0.009465109,0.999950077,0.000000000,0.000000000,0.000000000,0.000000000,0.000000000,0.000000000,1.084249711,0.000000000,4.006451607
1772424941.159652233,0.016152000,0.009631000,0.053754000,0.002414480,-0.006592330,-0.013806090,-0.999880040,-0.004647000,0.013250000,0.027583000,-0.000162724,-0.000050291,-0.000085800,0.003851735,0.014124834,0.001024588,0.009911790,-0.004398025,1.001055233,-0.001918858,0.003047086,-0.001441037,0.000000000,0.000000000,0.000000000,0.000000000,0.016490031,0.009668179,0.053711100,0.016947890,0.001906909,-0.001524522,0.004730690,-0.001070272,0.000934124,-0.165740459,0.288978785,1.084783400,-0.001422415,-0.002535392,0.009462683,0.999950125,0.000000000,0.000000000,0.000000000,0.000000000,0.000000000,0.000000000,1.083368527,0.000000000,4.006451607
1772424941.169651985,0.016160000,0.009632000,0.053733000,0.002421570,-0.006721260,-0.013817340,-0.999879010,-0.004657000,0.013508000,0.027605000,-0.000150117,-0.000122281,-0.000145299,0.006747017,0.020847259,0.003219474,0.009914647,-0.004057227,1.001078403,-0.001527421,0.003083134,-0.000814589,0.000000000,0.000000000,0.000000000,0.000000000,0.016490623,0.009667962,0.053709747,0.016959824,0.001880118,-0.001503356,0.004815018,-0.000846337,0.000804447,-0.165669723,0.289045271,1.084505394,-0.001421798,-0.002535963,0.009460258,0.999950145,0.000000000,0.000000000,0.000000000,0.000000000,0.000000000,0.000000000,1.083219454,0.000000000,4.006451607
1772424941.179652214,0.016166000,0.009630000,0.053724000,0.002365140,-0.006858580,-0.013822170,-0.999878150,-0.004541000,0.013781000,0.027615000,0.000024087,-0.000154915,-0.000034538,0.005829732,0.019003471,0.004549888,0.009917503,-0.003716413,1.001101574,-0.001135966,0.003119184,-0.000188110,0.000000000,0.000000000,0.000000000,0.000000000,0.016491214,0.009667745,0.053708395,0.016971759,0.001853326,-0.001482190,0.004899351,-0.000622390,0.000674765,-0.165598983,0.289111761,1.084227375,-0.001421181,-0.002536534,0.009457832,0.999950165,0.000000000,0.000000000,0.000000000,0.000000000,0.000000000,0.000000000,1.083070375,0.000000000,4.006451607
1772424941.189651251,0.016174000,0.009620000,0.053728000,0.002316810,-0.006895110,-0.013841370,-0.999877750,-0.004443000,0.013853000,0.027654000,-0.000045377,0.000063423,0.000132071,0.001692138,0.009014371,0.004646899,0.009920359,-0.003375640,1.001124741,-0.000744557,0.003155229,0.000438294,0.000000000,0.000000000,0.000000000,0.000000000,0.016491806,0.009667527,0.053707042,0.016983692,0.001826537,-0.001461026,0.004983673,-0.000398471,0.000545097,-0.165528252,0.289178242,1.083949389,-0.001420565,-0.002537104,0.009455407,0.999950184,0.000000000,0.000000000,0.000000000,0.000000000,0.000000000,0.000000000,1.082921312,0.000000000,4.006451607
1772424941.199651957,0.016164000,0.009620000,0.053748000,0.002355880,-0.006958060,-0.013867340,-0.999876860,-0.004519000,0.013980000,0.027705000,-0.000113539,0.000194794,0.000286073,-0.003730365,-0.007492010,0.002594639,0.009923216,-0.003034810,1.001147913,-0.000353084,0.003191281,0.001064802,0.000000000,0.000000000,0.000000000,0.000000000,0.016492398,0.009667310,0.053705690,0.016995628,0.001799744,-0.001439858,0.005068009,-0.000174514,0.000415408,-0.165457509,0.289244735,1.083671357,-0.001419948,-0.002537675,0.009452982,0.999950204,0.000000000,0.000000000,0.000000000,0.000000000,0.000000000,0.000000000,1.082772226,0.000000000,4.006451607
1772424941.209651470,0.016158000,0.009629000,0.053752000,0.002369550,-0.006797670,-0.013917640,-0.999877230,-0.004550000,0.013660000,0.027806000,-0.000102778,0.000241337,0.000187121,-0.005721010,-0.016282733,0.002110248,0.009926072,-0.002694021,1.001171082,0.000038344,0.003227328,0.001691235,0.000000000,0.000000000,0.000000000,0.000000000,0.016492989,0.009667093,0.053704337,0.017007562,0.001772954,-0.001418693,0.005152335,0.000049416,0.000285735,-0.165562179,0.288918325,1.083323049,-0.001420896,-0.002534831,0.009449944,0.999950224,0.000000000,0.000000000,0.000000000,0.000000000,0.000000000,0.000000000,1.082623156,0.000000000,4.006451607
1772424941.219650745,0.016155000,0.009640000,0.053741000,0.002417800,-0.006748130,-0.013877120,-0.999878010,-0.004648000,0.013562000,0.027724000,0.000194328,0.000090987,-0.000119503,-0.004890784,-0.017530351,0.001067683,0.009508522,-0.002328828,0.999461364,0.003299210,0.002179306,0.003777362,0.000000000,0.000000000,0.000000000,0.000000000,0.016496297,0.009663887,0.053703075,0.017059057,0.001739930,-0.001370275,0.005041606,0.000464465,-0.000121991,-0.166760652,0.286057508,1.082539000,-0.001431608,-0.002509956,0.009443114,0.999950275,0.000000000,0.000000000,0.000000000,0.000000000,0.000000000,0.000000000,1.082404863,0.000000000,4.006451607
1772424941.229651213,0.016159000,0.009638000,0.053735000,0.002450800,-0.006623040,-0.013894680,-0.999878530,-0.004717000,0.013313000,0.027760000,0.000259654,-0.000047824,-0.000228497,-0.001802358,-0.013226633,-0.000089174,0.009238406,-0.002247500,1.000081967,-0.003633018,-0.000675464,-0.002221568,0.000000000,0.000000000,0.000000000,0.000000000,0.016499033,0.009658163,0.053709405,0.017137760,0.001751527,-0.001313388,0.004441254,0.000493125,-0.000097422,-0.166666430,0.284508802,1.082124710,-0.001430922,-0.002496429,0.009439520,0.999950392,0.000000000,0.000000000,0.000000000,0.000000000,0.000000000,0.000000000,1.081707966,0.000000000,4.006451607
1772424941.239650726,0.016176000,0.009624000,0.053736000,0.002440610,-0.006569060,-0.013867310,-0.999879290,-0.004699000,0.013205000,0.027705000,0.000256741,-0.000233994,0.000037665,0.002562318,-0.007521151,-0.000591477,0.008399632,-0.002646039,0.998514271,0.001585186,0.001483881,-0.004609621,0.000000000,0.000000000,0.000000000,0.000000000,0.016495996,0.009659039,0.053718438,0.017142970,0.001766451,-0.001237478,0.003433625,0.000349115,-0.000659564,-0.166670398,0.283465836,1.081407091,-0.001431058,-0.002487319,0.009433272,0.999950409,0.000000000,0.000000000,0.000000000,0.000000000,0.000000000,0.000000000,1.081184368,0.000000000,4.006451607
1772424941.249651194,0.016177000,0.009625000,0.053733000,0.002404930,-0.006546350,-0.013907250,-0.999878970,-0.004628000,0.013158000,0.027786000,0.000189044,-0.000207945,0.000253458,0.005234004,-0.002633327,-0.001160509,0.008194297,-0.002369427,0.998513535,-0.001492763,0.001773410,0.001909756,0.000000000,0.000000000,0.000000000,0.000000000,0.016492159,0.009664617,0.053720056,0.017063076,0.001782206,-0.001267398,0.003101233,0.000429196,-0.001321093,-0.168370311,0.283759381,1.080774132,-0.001445882,-0.002490012,0.009427707,0.999950504,0.000000000,0.000000000,0.000000000,0.000000000,0.000000000,0.000000000,1.079879791,0.000000000,4.006451607
1772424941.259651899,0.016170000,0.009622000,0.053748000,0.002347630,-0.006647490,-0.013885600,-0.999878740,-0.004511000,0.013359000,0.027743000,-0.000104390,0.000115385,0.000098116,0.002598056,-0.002088272,-0.000839167,0.008636330,-0.004177920,0.999791005,-0.000028251,0.000591812,0.000497542,0.000000000,0.000000000,0.000000000,0.000000000,0.016434268,0.009663652,0.053720682,0.016543694,0.001745211,-0.001317719,0.003558827,-0.000821456,-0.000211378,-0.168891260,0.283804858,1.079119159,-0.001450460,-0.002490431,0.009413254,0.999950628,0.000000000,0.000000000,0.000000000,0.000000000,0.000000000,0.000000000,1.078583855,0.000000000,4.006451607
1772424941.269652843,0.016157000,0.009633000,0.053749000,0.002384820,-0.006580920,-0.013875560,-0.999879230,-0.004587000,0.013227000,0.027722000,-0.000183761,0.000357790,-0.000248718,-0.002120549,-0.000508285,-0.001628167,0.008480985,-0.004635920,1.002206690,0.000745592,0.000549967,0.000607548,0.000000000,0.000000000,0.000000000,0.000000000,0.016438094,0.009659027,0.053717273,0.016404051,0.001566950,-0.001268717,0.003608232,-0.001208575,0.001489180,-0.168736977,0.283676443,1.077928737,-0.001449150,-0.002489283,0.009402871,0.999950706,0.000000000,0.000000000,0.000000000,0.000000000,0.000000000,0.000000000,1.077486992,0.000000000,4.006451607
1772424941.279652834,0.016168000,0.009632000,0.053747000,0.002360080,-0.006538740,-0.013864800,-0.999879710,-0.004539000,0.013142000,0.027701000,-0.000074942,0.000267405,-0.000446465,-0.006874465,-0.004144378,-0.003046489,0.009009273,-0.001889777,0.999346014,0.001068955,-0.000147479,0.000153018,0.000000000,0.000000000,0.000000000,0.000000000,0.016474266,0.009655907,0.053713380,0.016554587,0.001404500,-0.001052990,0.003535748,0.001263574,-0.000062217,-0.168558453,0.283221567,1.077825087,-0.001447632,-0.002485298,0.009401976,0.999950679,0.000000000,0.000000000,0.000000000,0.000000000,0.000000000,0.000000000,1.078073050,0.000000000,4.006451607
1772424941.289653540,0.016175000,0.009636000,0.053725000,0.002413530,-0.006497710,-0.013841490,-0.999880180,-0.004647000,0.013061000,0.027654000,0.000298116,-0.000143668,-0.000144328,-0.007243550,-0.005763684,-0.001672273,0.011130629,-0.003641890,0.998570953,0.002994572,-0.002591005,-0.000486690,0.000000000,0.000000000,0.000000000,0.000000000,0.016484410,0.009652895,0.053721312,0.016596785,0.001495166,-0.001018077,0.005716668,-0.000166721,-0.001387441,-0.168568519,0.283058960,1.077128886,-0.001447748,-0.002483871,0.009395904,0.999950860,0.000000000,0.000000000,0.000000000,0.000000000,0.000000000,0.000000000,1.076235135,0.000000000,4.006451607
1772424941.299654245,0.016162000,0.009638000,0.053724000,0.002545770,-0.006519450,-0.013858810,-0.999879470,-0.004911000,0.013108000,0.027687000,0.000328108,-0.000350486,0.000171620,-0.006489993,-0.004684849,0.001268858,0.012599414,-0.004338875,0.998656159,0.000122960,-0.000340217,0.001066082,0.000000000,0.000000000,0.000000000,0.000000000,0.016483085,0.009657072,0.053725095,0.016756960,0.001448317,-0.001080809,0.007415112,-0.000500702,-0.001189856,-0.168252245,0.282556594,1.075323939,-0.001445068,-0.002479438,0.009380167,0.999950961,0.000000000,0.000000000,0.000000000,0.000000000,0.000000000,0.000000000,1.074542785,0.000000000,4.006451607
1772424941.309654236,0.016178000,0.009625000,0.053735000,0.002498900,-0.006510810,-0.013842950,-0.999879860,-0.004817000,0.013090000,0.027656000,0.000111733,-0.000423291,0.000514764,-0.002707027,-0.004279037,-0.000056520,0.012297544,-0.004364620,0.998465328,0.000273055,-0.000958584,0.001254988,0.000000000,0.000000000,0.000000000,0.000000000,0.016491035,0.009658452,0.053724963,0.017157829,0.001339580,-0.001166177,0.008475343,-0.001639217,-0.000994658,-0.167580786,0.283510319,1.073655053,-0.001439167,-0.002487685,0.009365605,0.999951019,0.000000000,0.000000000,0.000000000,0.000000000,0.000000000,0.000000000,1.073223749,0.000000000,4.006451607
1772424941.319653988,0.016175000,0.009619000,0.053748000,0.002495890,-0.006407780,-0.013818950,-0.999880870,-0.004815000,0.012883000,0.027608000,-0.000237510,-0.000165152,0.000518804,0.000229022,-0.004527681,-0.002333798,0.009584400,-0.003175028,0.998174540,0.003047897,-0.006485409,-0.000577261,0.000000000,0.000000000,0.000000000,0.000000000,0.016500841,0.009659441,0.053714011,0.017507033,0.001192511,-0.001275028,0.004797839,-0.000903877,-0.002271907,-0.167649322,0.283464466,1.073121913,-0.001439781,-0.002487284,0.009360952,0.999951065,0.000000000,0.000000000,0.000000000,0.000000000,0.000000000,0.000000000,1.073028062,0.000000000,4.006451607
1772424941.329653978,0.016177000,0.009617000,0.053763000,0.002445620,-0.006469520,-0.013911390,-0.999879310,-0.004711000,0.013006000,0.027794000,-0.000209868,0.000036888,0.000085295,0.005488604,-0.004472089,-0.004561216,0.009408886,-0.000735761,0.998305923,0.001258557,-0.003276348,-0.000063662,0.000000000,0.000000000,0.000000000,0.000000000,0.016501953,0.009660193,0.053705437,0.017519429,0.001117652,-0.001487454,0.004189817,0.001963466,-0.001452159,-0.166649567,0.284824423,1.072794313,-0.001430953,-0.002499065,0.009358098,0.999951092,0.000000000,0.000000000,0.000000000,0.000000000,0.000000000,0.000000000,1.072457038,0.000000000,4.006451607
1772424941.339654207,0.016163000,0.009628000,0.053744000,0.002502380,-0.006435510,-0.013830820,-0.999880510,-0.004827000,0.012939000,0.027632000,-0.000083916,0.000247650,-0.000542172,0.006119465,-0.002733971,-0.004923390,0.010100056,-0.001266483,0.998820724,-0.000059610,0.000072011,0.000063905,0.000000000,0.000000000,0.000000000,0.000000000,0.016510418,0.009654277,0.053705574,0.017521365,0.001294616,-0.001582559,0.005104027,0.002067768,-0.001965333,-0.165509658,0.287427346,1.071268421,-0.001420826,-0.002521667,0.009344774,0.999951231,0.000000000,0.000000000,0.000000000,0.000000000,0.000000000,0.000000000,1.070326246,0.000000000,4.006451607
1772424941.349653959,0.016164000,0.009630000,0.053736000,0.002425850,-0.006343760,-0.013728160,-0.999882700,-0.004677000,0.012753000,0.027428000,-0.000142910,0.000327992,-0.000674204,0.002391964,-0.000871963,-0.002680740,0.009710622,-0.002304906,1.000994937,0.001033586,0.000093192,-0.000033125,0.000000000,0.000000000,0.000000000,0.000000000,0.016509617,0.009649403,0.053712659,0.017557365,0.001428037,-0.001644137,0.004180163,0.001248277,0.000785525,-0.165926034,0.286730932,1.069358881,-0.001424558,-0.002515600,0.009328110,0.999951379,0.000000000,0.000000000,0.000000000,0.000000000,0.000000000,0.000000000,1.068707195,0.000000000,4.006451607
1772424941.359653950,0.016165000,0.009634000,0.053729000,0.002417590,-0.006444890,-0.013761180,-0.999881620,-0.004658000,0.012955000,0.027494000,0.000155672,0.000091259,-0.000215404,0.002429974,0.000293144,0.002487098,0.009663158,-0.001492965,1.002079033,-0.001390357,0.000087593,-0.001810504,0.000000000,0.000000000,0.000000000,0.000000000,0.016422888,0.009639983,0.053731523,0.016877365,0.001428503,-0.001360200,0.005176993,0.001437393,0.001773069,-0.165752149,0.285769739,1.068461209,-0.001423139,-0.002507187,0.009320294,0.999951451,0.000000000,0.000000000,0.000000000,0.000000000,0.000000000,0.000000000,1.068109378,0.000000000,4.006451607
1772424941.369653463,0.016176000,0.009628000,0.053723000,0.002361440,-0.006423120,-0.013793010,-0.999881450,-0.004546000,0.012910000,0.027558000,0.000320222,-0.000135800,0.000252895,0.001804198,0.006269704,0.005527652,0.008320700,-0.000570961,1.000102005,-0.002430256,0.002474868,-0.000250775,0.000000000,0.000000000,0.000000000,0.000000000,0.016448480,0.009646164,0.053727797,0.017074565,0.001531432,-0.001202157,0.003145072,0.002084556,0.000141271,-0.165972709,0.285090546,1.067535394,-0.001425139,-0.002501267,0.009312219,0.999951579,0.000000000,0.000000000,0.000000000,0.000000000,0.000000000,0.000000000,1.066810665,0.000000000,4.006451607
1772424941.379653215,0.016175000,0.009628000,0.053737000,0.002439320,-0.006458760,-0.013856820,-0.999880150,-0.004699000,0.012984000,0.027685000,0.000163967,-0.000121989,0.000482693,0.001090664,0.010855981,0.008063608,0.006937019,-0.002370289,0.998979916,-0.000746751,-0.002664362,-0.004715596,0.000000000,0.000000000,0.000000000,0.000000000,0.016470675,0.009652566,0.053722901,0.017139987,0.001669237,-0.001166121,0.001642517,0.001287941,-0.000828213,-0.166790991,0.284301245,1.066379091,-0.001432369,-0.002494431,0.009302121,0.999951643,0.000000000,0.000000000,0.000000000,0.000000000,0.000000000,0.000000000,1.066101230,0.000000000,4.006451607
1772424941.389653683,0.016169000,0.009627000,0.053751000,0.002440170,-0.006449210,-0.013898500,-0.999879640,-0.004701000,0.012965000,0.027768000,-0.000068959,0.000016006,0.000128264,-0.000802944,0.009788831,0.004890931,0.007644491,-0.002455673,0.999142878,-0.001627888,-0.002740662,-0.000805695,0.000000000,0.000000000,0.000000000,0.000000000,0.016483319,0.009658365,0.053717390,0.017052172,0.001756218,-0.001209475,0.001899540,-0.000180902,-0.000542062,-0.167155659,0.284376822,1.065923327,-0.001435555,-0.002495115,0.009298135,0.999951795,0.000000000,0.000000000,0.000000000,0.000000000,0.000000000,0.000000000,1.064393698,0.000000000,4.006451607
1772424941.399653435,0.016178000,0.009624000,0.053754000,0.002367870,-0.006553490,-0.013944310,-0.999878490,-0.004553000,0.013172000,0.027860000,-0.000117269,0.000110276,-0.000228516,-0.001360128,0.000487592,0.000117019,0.007845460,-0.001900215,0.999529160,-0.001285966,-0.001456252,0.000492383,0.000000000,0.000000000,0.000000000,0.000000000,0.016490031,0.009662689,0.053711263,0.016931985,0.001740514,-0.001238591,0.003188514,0.001381448,-0.000433974,-0.166900257,0.285031786,1.063023357,-0.001433336,-0.002500773,0.009272826,0.999951925,0.000000000,0.000000000,0.000000000,0.000000000,0.000000000,0.000000000,1.062321187,0.000000000,4.006451607
1772424941.409653187,0.016172000,0.009630000,0.053732000,0.002403990,-0.006706340,-0.013838560,-0.999878860,-0.004622000,0.013478000,0.027648000,-0.000140365,0.000110684,-0.000377914,0.002012813,-0.002704541,-0.001702233,0.007689415,-0.001914142,0.999824961,-0.000393088,-0.001542006,0.001021986,0.000000000,0.000000000,0.000000000,0.000000000,0.016497209,0.009662617,0.053705649,0.016882516,0.001815192,-0.001257632,0.002289057,0.000650522,0.000105257,-0.166777611,0.285346510,1.062150064,-0.001432260,-0.002503498,0.009265204,0.999951997,0.000000000,0.000000000,0.000000000,0.000000000,0.000000000,0.000000000,1.061791886,0.000000000,4.006451607
