t,px,py,pz,qx,qy,qz,qw,roll,pitch,yaw,vx,vy,vz,wx_vicon,wy_vicon,wz_vicon,imu_acc_x,imu_acc_y,imu_acc_z,imu_gyro_x,imu_gyro_y,imu_gyro_z,motor_motor_m1,motor_motor_m2,motor_motor_m3,motor_motor_m4,est_stateEstimate_x,est_stateEstimate_y,est_stateEstimate_z,est_stateEstimate_vx,est_stateEstimate_vy,est_stateEstimate_vz,est_stateEstimate_ax,est_stateEstimate_ay,est_stateEstimate_az,att_stateEstimate_roll,att_stateEstimate_pitch,att_stateEstimate_yaw,att_stateEstimate_qx,att_stateEstimate_qy,att_stateEstimate_qz,att_stateEstimate_qw,sp_ctrltarget_x,sp_ctrltarget_y,sp_ctrltarget_z,sp_ctrltarget_yaw,pid_controller_roll,pid_controller_pitch,pid_controller_yaw,pid_controller_cmd_thrust,pwr_pm_vbat
1772684138.621172667,0.013418000,0.004148000,0.071576000,-0.009517880,-0.020901530,0.000479430,-0.999736120,0.019028000,0.041813000,-0.000561000,0.002361832,-0.003159074,0.001656451,-0.036523452,-0.040634089,-0.006848550,0.020037611,-0.005270801,0.999377748,0.001442712,0.000905648,0.001231299,0.000000000,0.000000000,0.000000000,0.000000000,0.013916664,0.003967825,0.071585348,0.050701638,-0.018258664,0.000041939,0.016061022,-0.007378017,-0.000760157,0.121510251,0.208897718,-0.030460095,0.001059889,-0.001823258,-0.000263881,0.999996723,0.000000000,0.000000000,0.000000000,0.000000000,0.000000000,0.000000000,-0.030471451,0.000000000,4.185924053
1772684138.631171942,0.013420000,0.004134000,0.071584000,-0.009309270,-0.020891890,0.000600960,-0.999738220,0.018606000,0.041796000,-0.000813000,0.000769406,-0.000841706,0.000916823,-0.013559964,-0.003609217,-0.015641410,0.019458212,-0.004465998,1.000490624,0.002664668,-0.000122874,0.000657169,0.000000000,0.000000000,0.000000000,0.000000000,0.013917575,0.003962021,0.071587922,0.050774407,-0.018486145,0.000023209,0.016140373,-0.006727021,0.000278862,0.122681980,0.209030767,-0.030636155,0.001070112,-0.001824424,-0.000265397,0.999996722,0.000000000,0.000000000,0.000000000,0.000000000,0.000000000,0.000000000,-0.030514110,0.000000000,4.185924053
1772684138.641171932,0.013432000,0.004128000,0.071594000,-0.009320810,-0.020853020,0.000645710,-0.999738890,0.018627000,0.041719000,-0.000903000,-0.000121970,0.000370649,0.000361578,-0.000237304,0.015823875,-0.017188201,0.017668486,-0.003436350,1.000618231,0.001313476,-0.002008456,-0.000701205,0.000000000,0.000000000,0.000000000,0.000000000,0.013923206,0.003955495,0.071586086,0.050898554,-0.018658373,-0.000005235,0.014340593,-0.005828119,0.000721784,0.122361323,0.209155989,-0.032176873,0.001067288,-0.001825530,-0.000278846,0.999996722,0.000000000,0.000000000,0.000000000,0.000000000,0.000000000,0.000000000,-0.031886669,0.000000000,4.185924053
1772684138.651171446,0.013431000,0.004139000,0.071594000,-0.009373470,-0.020907410,0.000706720,-0.999737220,0.018730000,0.041829000,-0.001022000,-0.000468241,0.000744426,-0.000024670,0.005664400,0.021673019,-0.013488577,0.017678346,-0.001539407,1.000011396,-0.001496297,-0.000284050,-0.000236946,0.000000000,0.000000000,0.000000000,0.000000000,0.013930269,0.003956767,0.071582208,0.050868026,-0.018728633,0.000067682,0.013961940,-0.003858530,-0.000123964,0.123134553,0.209031659,-0.033797298,0.001074010,-0.001824462,-0.000292976,0.999996722,0.000000000,0.000000000,0.000000000,0.000000000,0.000000000,0.000000000,-0.033827908,0.000000000,4.185924053
1772684138.661170721,0.013429000,0.004133000,0.071599000,-0.009465100,-0.021061670,0.000706520,-0.999733120,0.018913000,0.042138000,-0.001015000,-0.000425350,0.000546057,-0.000257304,0.006359252,0.017948718,-0.006531683,0.017844807,-0.001594145,0.998109699,0.000477351,0.002611102,0.002890544,0.000000000,0.000000000,0.000000000,0.000000000,0.013925502,0.003961437,0.071581431,0.050702564,-0.018636365,0.000115903,0.014242828,-0.003733321,-0.001516495,0.123073911,0.207542666,-0.034159908,0.001073479,-0.001811471,-0.000296155,0.999996722,0.000000000,0.000000000,0.000000000,0.000000000,0.000000000,0.000000000,-0.034037701,0.000000000,4.185924053
1772684138.671170235,0.013422000,0.004147000,0.071590000,-0.009379850,-0.021214550,0.000829810,-0.999730600,0.018737000,0.042446000,-0.001262000,-0.000149243,0.000041978,-0.000351710,0.004054945,0.008663100,0.001693640,0.019154122,-0.003059882,0.999101425,0.000697130,-0.001307662,0.002228704,0.000000000,0.000000000,0.000000000,0.000000000,0.013916717,0.003963548,0.071580539,0.050604742,-0.018394275,0.000021377,0.015142427,-0.004915740,-0.001259808,0.122497637,0.206480076,-0.033576569,0.001068463,-0.001802192,-0.000291084,0.999996736,0.000000000,0.000000000,0.000000000,0.000000000,0.000000000,0.000000000,-0.033844354,0.000000000,4.185924053
1772684138.681170464,0.013418000,0.004145000,0.071583000,-0.009332290,-0.021072620,0.000753340,-0.999734110,0.018646000,0.042161000,-0.001114000,0.000056138,-0.000212821,-0.000341550,0.001358762,-0.002319811,0.006602643,0.018535262,-0.001987336,1.000078752,-0.002521252,-0.001727902,0.000456492,0.000000000,0.000000000,0.000000000,0.000000000,0.013912785,0.003965332,0.071581113,0.050595779,-0.018301609,-0.000111606,0.015167705,-0.004777691,-0.000143037,0.121852374,0.206274679,-0.032730795,0.001062846,-0.001800390,-0.000283715,0.999996781,0.000000000,0.000000000,0.000000000,0.000000000,0.000000000,0.000000000,-0.032667995,0.000000000,4.185924053
1772684138.691170692,0.013414000,0.004142000,0.071580000,-0.009439550,-0.021115990,0.000732590,-0.999732200,0.018861000,0.042247000,-0.001067000,0.000236325,-0.000381760,-0.000024204,0.003016585,-0.003697853,0.011015902,0.017815079,-0.003171853,0.999527812,0.000861181,-0.002038508,0.000506807,0.000000000,0.000000000,0.000000000,0.000000000,0.013914123,0.003965772,0.071583213,0.050609919,-0.018220014,-0.000155637,0.014426588,-0.004970259,-0.000036062,0.121105560,0.206106538,-0.032989345,0.001056325,-0.001798923,-0.000285985,0.999996781,0.000000000,0.000000000,0.000000000,0.000000000,0.000000000,0.000000000,-0.033016360,0.000000000,4.185924053
1772684138.701170683,0.013431000,0.004123000,0.071590000,-0.009427670,-0.021172640,0.000611750,-0.999731200,0.018842000,0.042358000,-0.000825000,0.000325214,-0.000365657,0.000126360,0.006660925,-0.000473005,0.014316285,0.017593217,-0.003939618,1.000242096,-0.000081175,-0.000863233,-0.000196205,0.000000000,0.000000000,0.000000000,0.000000000,0.013917123,0.003965521,0.071586389,0.050595361,-0.018149550,-0.000152217,0.013977248,-0.006134893,-0.000183822,0.121169397,0.205667851,-0.032979666,0.001056883,-0.001795095,-0.000285903,0.999996781,0.000000000,0.000000000,0.000000000,0.000000000,0.000000000,0.000000000,-0.032826473,0.000000000,4.185924053
1772684138.711170912,0.013444000,0.004124000,0.071584000,-0.009482390,-0.020882490,0.000531700,-0.999736830,0.018955000,0.041776000,-0.000668000,0.000186189,-0.000098232,0.000142541,0.008252514,0.002659961,0.008435872,0.018486104,-0.003740845,1.000768392,-0.002106462,-0.000386168,-0.001582728,0.000000000,0.000000000,0.000000000,0.000000000,0.013921198,0.003963400,0.071588440,0.050535560,-0.018197738,-0.000148406,0.014562979,-0.005746377,0.001309547,0.121293602,0.205443475,-0.034704259,0.001057941,-0.001793153,-0.000300953,0.999996781,0.000000000,0.000000000,0.000000000,0.000000000,0.000000000,0.000000000,-0.034539790,0.000000000,4.185924053
1772684138.721170902,0.013426000,0.004139000,0.071590000,-0.009505270,-0.021078190,0.000585770,-0.999732470,0.018999000,0.042169000,-0.000771000,-0.000093027,0.000438870,0.000019833,0.005422736,0.011088069,-0.002584074,0.018814295,-0.004302769,0.999834783,-0.000845957,-0.000468699,-0.000561323,0.000000000,0.000000000,0.000000000,0.000000000,0.013925756,0.003958842,0.071588518,0.050498973,-0.018266002,-0.000065165,0.015538766,-0.006178506,0.000031096,0.120904043,0.204208811,-0.035825475,0.001054527,-0.001782388,-0.000310755,0.999996781,0.000000000,0.000000000,0.000000000,0.000000000,0.000000000,0.000000000,-0.035875856,0.000000000,4.185924053
1772684138.731170416,0.013423000,0.004133000,0.071596000,-0.009551000,-0.021361540,0.000539070,-0.999726050,0.019092000,0.042735000,-0.000670000,-0.000379507,0.000493163,-0.000011092,0.000361945,0.007489537,-0.006916361,0.018487168,-0.004579808,1.000846263,-0.000861765,0.001457551,0.000682575,0.000000000,0.000000000,0.000000000,0.000000000,0.013923555,0.003957002,0.071589649,0.050495030,-0.018334682,0.000006707,0.014718240,-0.006370676,0.000337543,0.121085411,0.205466468,-0.035509561,0.001056111,-0.001793361,-0.000307984,0.999996781,0.000000000,0.000000000,0.000000000,0.000000000,0.000000000,0.000000000,-0.035471576,0.000000000,4.185924053
1772684138.741170645,0.013428000,0.004138000,0.071581000,-0.009553580,-0.021195600,0.000564200,-0.999729540,0.019096000,0.042403000,-0.000724000,-0.000375797,0.000267366,-0.000069134,-0.002392446,0.003528903,-0.006950343,0.018672104,-0.003526085,1.002017841,0.000305669,0.002197100,0.000092807,0.000000000,0.000000000,0.000000000,0.000000000,0.013919666,0.003956554,0.071590623,0.050531803,-0.018466264,0.000012587,0.015088605,-0.006433356,0.002846264,0.121207896,0.205311909,-0.036260986,0.001057169,-0.001792019,-0.000314541,0.999996781,0.000000000,0.000000000,0.000000000,0.000000000,0.000000000,0.000000000,-0.036175098,0.000000000,4.185924053
1772684138.751170635,0.013419000,0.004154000,0.071581000,-0.009498650,-0.021130780,0.000788020,-0.999731290,0.018977000,0.042278000,-0.001175000,0.000150194,-0.000113054,-0.000082187,0.000367081,-0.001930623,-0.001182985,0.019321675,-0.001397584,1.000427447,0.001178413,0.000452898,-0.001203599,0.000000000,0.000000000,0.000000000,0.000000000,0.013923439,0.003959941,0.071583151,0.050512018,-0.018510590,0.000112489,0.015609273,-0.003236097,0.000637771,0.121678001,0.204570269,-0.035938381,0.001061278,-0.001785545,-0.000311725,0.999996781,0.000000000,0.000000000,0.000000000,0.000000000,0.000000000,0.000000000,-0.036004400,0.000000000,4.185924053
1772684138.761170864,0.013422000,0.004145000,0.071589000,-0.009514260,-0.021295250,0.000691040,-0.999727720,0.019012000,0.042605000,-0.000977000,0.000476147,-0.000162083,-0.000166259,0.003853212,-0.011482993,0.001344070,0.019467925,-0.002122664,0.999344090,0.001134451,0.000766503,0.000329853,0.000000000,0.000000000,0.000000000,0.000000000,0.013950426,0.003980158,0.071536002,0.050633064,-0.018431113,0.000074942,0.016276644,-0.003494229,-0.000615384,0.121698305,0.203980933,-0.036720433,0.001061445,-0.001780410,-0.000318555,0.999996781,0.000000000,0.000000000,0.000000000,0.000000000,0.000000000,0.000000000,-0.036613674,0.000000000,4.185924053
1772684138.771171093,0.013425000,0.004127000,0.071591000,-0.009480760,-0.021017180,0.000572180,-0.999734000,0.018950000,0.042046000,-0.000746000,0.000230070,-0.000029429,-0.000153516,0.008045491,-0.009584585,0.002243520,0.018138340,-0.004662461,0.999291305,0.002655335,-0.001071724,0.001287688,0.000000000,0.000000000,0.000000000,0.000000000,0.013937667,0.003975217,0.071557676,0.050702307,-0.018241298,0.000161102,0.014572022,-0.007530551,-0.000752648,0.122852108,0.203296478,-0.036403224,0.001071520,-0.001774437,-0.000315775,0.999996781,0.000000000,0.000000000,0.000000000,0.000000000,0.000000000,0.000000000,-0.036449709,0.000000000,4.185924053
1772684138.781171560,0.013438000,0.004134000,0.071580000,-0.009582440,-0.021077280,0.000557440,-0.999731770,0.019154000,0.042166000,-0.000711000,-0.000087782,0.000047358,-0.000131255,0.009810557,-0.003333564,0.004635082,0.018696475,-0.002775878,0.999679495,0.001786853,-0.002490205,-0.002448435,0.000000000,0.000000000,0.000000000,0.000000000,0.013924729,0.003971086,0.071574021,0.050693341,-0.018312276,0.000109946,0.014875164,-0.005647066,0.000208811,0.124632634,0.204022198,-0.038864927,0.001087018,-0.001780798,-0.000337223,0.999996781,0.000000000,0.000000000,0.000000000,0.000000000,0.000000000,0.000000000,-0.038532930,0.000000000,4.185924053
1772684138.791172266,0.013441000,0.004143000,0.071578000,-0.009769440,-0.021089130,0.000584350,-0.999729700,0.019528000,0.042191000,-0.000757000,-0.000217891,0.000194891,-0.000193279,0.010510518,-0.003836025,0.003232305,0.020165645,-0.000996755,0.998326627,-0.000155028,0.001171232,-0.001584069,0.000000000,0.000000000,0.000000000,0.000000000,0.013918441,0.003969537,0.071584455,0.050621980,-0.018459891,0.000148551,0.016837834,-0.002737567,-0.001990177,0.124924947,0.203078103,-0.039367176,0.001089564,-0.001772565,-0.000341610,0.999996781,0.000000000,0.000000000,0.000000000,0.000000000,0.000000000,0.000000000,-0.039323501,0.000000000,4.185924053
1772684138.801172018,0.013421000,0.004149000,0.071580000,-0.009660050,-0.021059140,0.000690060,-0.999731320,0.019304000,0.042133000,-0.000974000,-0.000467600,0.000416065,0.000016434,0.007564658,-0.000698648,-0.001038155,0.018950561,-0.003168912,1.000009384,-0.000581053,0.005631884,0.000412699,0.000000000,0.000000000,0.000000000,0.000000000,0.013911605,0.003966276,0.071588632,0.050680767,-0.018391441,0.000097420,0.015480277,-0.005095580,-0.000203423,0.125355360,0.201931264,-0.038490599,0.001093337,-0.001762550,-0.000333965,0.999996781,0.000000000,0.000000000,0.000000000,0.000000000,0.000000000,0.000000000,-0.038625685,0.000000000,4.185924053
1772684138.811171532,0.013412000,0.004146000,0.071579000,-0.009719890,-0.021056580,0.000588780,-0.999730860,0.019428000,0.042126000,-0.000769000,-0.000245474,0.000170222,0.000261850,0.003121054,0.004109198,0.000591479,0.016725004,-0.003653691,1.000150651,-0.001229553,-0.001363382,0.001067976,0.000000000,0.000000000,0.000000000,0.000000000,0.013910988,0.003961965,0.071588250,0.050826259,-0.018276068,0.000009466,0.013786658,-0.005844723,0.000206802,0.125705137,0.201067773,-0.038144146,0.001096397,-0.001755012,-0.000330945,0.999996781,0.000000000,0.000000000,0.000000000,0.000000000,0.000000000,0.000000000,-0.038143485,0.000000000,4.185924053
1772684138.821171284,0.013416000,0.004147000,0.071584000,-0.009687190,-0.021076800,0.000554510,-0.999730770,0.019364000,0.042165000,-0.000701000,0.000118920,-0.000247630,0.000376535,-0.003808649,0.001318759,0.004753517,0.017658119,-0.004437539,1.000585407,0.002293872,0.001015829,0.004235647,0.000000000,0.000000000,0.000000000,0.000000000,0.013916464,0.003960573,0.071585101,0.050798795,-0.018294891,0.000007710,0.013920607,-0.006308262,0.000389046,0.125782232,0.200302063,-0.037878235,0.001097076,-0.001748328,-0.000328630,0.999996796,0.000000000,0.000000000,0.000000000,0.000000000,0.000000000,0.000000000,-0.037953134,0.000000000,4.185924053
1772684138.831170797,0.013428000,0.004142000,0.071590000,-0.009753800,-0.021078870,0.000563720,-0.999730080,0.019497000,0.042170000,-0.000717000,0.000415463,-0.000388307,0.000273194,-0.005619822,0.002422883,0.008795017,0.018026074,-0.004791762,0.999600416,0.002742198,-0.000797070,0.000549140,0.000000000,0.000000000,0.000000000,0.000000000,0.013917184,0.003961547,0.071585966,0.050720069,-0.018373882,0.000058831,0.014484637,-0.007001155,-0.000233877,0.125914885,0.199852823,-0.037167964,0.001098246,-0.001744401,-0.000322434,0.999996841,0.000000000,0.000000000,0.000000000,0.000000000,0.000000000,0.000000000,-0.037307447,0.000000000,4.185924053
1772684138.841170311,0.013425000,0.004143000,0.071594000,-0.009680590,-0.021137780,0.000515980,-0.999729570,0.019353000,0.042287000,-0.000623000,0.000050214,-0.000627079,0.000867075,-0.023504914,0.029865724,0.002223988,0.018868517,-0.003733384,1.000579774,-0.000505248,0.001343967,0.000939434,0.000000000,0.000000000,0.000000000,0.000000000,0.013916610,0.003960652,0.071588373,0.050673891,-0.018469820,0.000085343,0.015137555,-0.006367412,0.000132876,0.126176766,0.199365052,-0.036790407,0.001100538,-0.001740142,-0.000319140,0.999996841,0.000000000,0.000000000,0.000000000,0.000000000,0.000000000,0.000000000,-0.036626899,0.000000000,4.185924053
1772684138.851170301,0.013442000,0.004132000,0.071589000,-0.009625630,-0.021112450,0.000497620,-0.999730650,0.019243000,0.042236000,-0.000589000,0.000438229,-0.000012451,-0.000489375,-0.003120697,-0.002478586,0.006488704,0.019229168,-0.002771247,1.002015892,-0.001691742,0.002149525,0.002766922,0.000000000,0.000000000,0.000000000,0.000000000,0.013917282,0.003959810,0.071588777,0.050693750,-0.018579567,0.000074395,0.015882008,-0.004822153,0.001972485,0.125860128,0.197770021,-0.037445442,0.001097770,-0.001726228,-0.000324877,0.999996841,0.000000000,0.000000000,0.000000000,0.000000000,0.000000000,0.000000000,-0.037698597,0.000000000,4.185924053
1772684138.861170292,0.013431000,0.004133000,0.071591000,-0.009561850,-0.021144300,0.000424640,-0.999730620,0.019119000,0.042298000,-0.000445000,0.000647514,0.000441997,-0.001338230,0.028800373,-0.042412104,0.015950500,0.018412359,-0.004507428,1.001473675,-0.001492819,-0.000274019,0.001238064,0.000000000,0.000000000,0.000000000,0.000000000,0.013917177,0.003963457,0.071587638,0.050752733,-0.018614028,0.000142873,0.015493530,-0.005927599,0.001860008,0.124725285,0.196639855,-0.035788991,0.001087895,-0.001716346,-0.000310449,0.999996890,0.000000000,0.000000000,0.000000000,0.000000000,0.000000000,0.000000000,-0.035987304,0.000000000,4.185924053
1772684138.871169567,0.013422000,0.004135000,0.071591000,-0.009591490,-0.021168710,0.000387360,-0.999729830,0.019180000,0.042346000,-0.000369000,0.000513345,0.000644600,-0.001408665,0.049809638,-0.070989888,0.020797490,0.017091001,-0.005361536,0.999776716,-0.001536951,-0.002962882,-0.001555717,0.000000000,0.000000000,0.000000000,0.000000000,0.013914792,0.003966520,0.071587940,0.050817288,-0.018565907,0.000339327,0.013627540,-0.008610985,-0.000238401,0.123722904,0.195394021,-0.034520149,0.001079169,-0.001705460,-0.000299403,0.999996901,0.000000000,0.000000000,0.000000000,0.000000000,0.000000000,0.000000000,-0.034620894,0.000000000,4.185924053
1772684138.881169319,0.013425000,0.004137000,0.071592000,-0.009535380,-0.021259390,0.000469450,-0.999728410,0.019064000,0.042529000,-0.000534000,0.000279254,0.000632013,-0.000866007,0.051924485,-0.073680185,0.015903474,0.017570404,-0.003442000,0.999809148,0.000143409,-0.001033818,-0.000118368,0.000000000,0.000000000,0.000000000,0.000000000,0.013913247,0.003962004,0.071589753,0.050790374,-0.018768033,0.000388642,0.013798890,-0.005435850,-0.000387496,0.124079964,0.196798669,-0.034924174,0.001082276,-0.001717722,-0.000302910,0.999996854,0.000000000,0.000000000,0.000000000,0.000000000,0.000000000,0.000000000,-0.034947361,0.000000000,4.185924053
1772684138.891169548,0.013493000,0.004186000,0.071473000,-0.011093740,-0.019069480,-0.000013800,-0.999756610,0.022201000,0.038139000,0.000451000,-0.000250214,0.000431119,-0.000039860,0.034472562,-0.048288658,0.010210374,0.018383503,-0.003381847,1.001062185,0.002660685,0.000997825,0.000920315,0.000000000,0.000000000,0.000000000,0.000000000,0.013914835,0.003962758,0.071589028,0.050663987,-0.018911078,0.000329592,0.015202516,-0.005502964,0.001115220,0.123922387,0.196332654,-0.034260647,0.001080912,-0.001713649,-0.000297127,0.999996884,0.000000000,0.000000000,0.000000000,0.000000000,0.000000000,0.000000000,-0.034343979,0.000000000,4.185924053
1772684138.901169538,0.013437000,0.004151000,0.071573000,-0.010603970,-0.019810510,0.000123060,-0.999747510,0.021216000,0.039624000,0.000174000,-0.000655459,-0.000073757,0.000726458,0.002449026,-0.005918430,0.002107690,0.018059547,-0.003365491,1.002165830,0.004100500,-0.001543545,-0.002290655,0.000000000,0.000000000,0.000000000,0.000000000,0.013918605,0.003964152,0.071579591,0.050649188,-0.018904336,0.000232420,0.014400277,-0.005660305,0.002190950,0.124410302,0.195822924,-0.035504085,0.001085152,-0.001709214,-0.000307975,0.999996901,0.000000000,0.000000000,0.000000000,0.000000000,0.000000000,0.000000000,-0.035377080,0.000000000,4.185924053
1772684138.911169529,0.013417000,0.004145000,0.071589000,-0.010219610,-0.020163960,0.000236160,-0.999744430,0.020443000,0.040333000,-0.000060000,-0.000907382,-0.000504468,0.001174807,-0.032069725,0.039240581,-0.005650545,0.019277002,-0.003703878,1.001040110,0.003659615,0.000469893,-0.003375288,0.000000000,0.000000000,0.000000000,0.000000000,0.013947877,0.003982276,0.071527863,0.050678044,-0.018831965,0.000177660,0.016109936,-0.005952524,0.001554004,0.124091156,0.195782956,-0.035787265,0.001082363,-0.001708867,-0.000310452,0.999996901,0.000000000,0.000000000,0.000000000,0.000000000,0.000000000,0.000000000,-0.035812378,0.000000000,4.185924053
1772684138.921169996,0.013418000,0.004148000,0.071594000,-0.009908720,-0.020622910,0.000358510,-0.999738160,0.019816000,0.041254000,-0.000308000,-0.000942328,-0.000625700,0.001254197,-0.055988446,0.073810936,-0.012667417,0.017686642,-0.003111435,0.998907305,0.001263307,-0.000140459,0.002583398,0.000000000,0.000000000,0.000000000,0.000000000,0.013930417,0.003977167,0.071550783,0.050622175,-0.018941543,0.000410948,0.013706234,-0.004976560,-0.001601520,0.124998857,0.195197140,-0.036526855,0.001090275,-0.001703764,-0.000316898,0.999996901,0.000000000,0.000000000,0.000000000,0.000000000,0.000000000,0.000000000,-0.036422008,0.000000000,4.185924053
1772684138.931170225,0.013409000,0.004142000,0.071592000,-0.009780330,-0.020920060,0.000253440,-0.999733280,0.019563000,0.041846000,-0.000098000,-0.000464433,-0.000536073,0.000750642,-0.058936045,0.080574679,-0.018556070,0.019286102,-0.003379806,0.999953229,-0.000210567,0.001744011,-0.001169996,0.000000000,0.000000000,0.000000000,0.000000000,0.013923430,0.003968386,0.071571481,0.050586221,-0.018992400,0.000480264,0.016140551,-0.005794322,0.000381425,0.126267970,0.194329039,-0.036464276,0.001101353,-0.001696191,-0.000316341,0.999996901,0.000000000,0.000000000,0.000000000,0.000000000,0.000000000,0.000000000,-0.036485938,0.000000000,4.185924053
1772684138.941170692,0.013416000,0.004136000,0.071587000,-0.009580900,-0.021062080,0.000337600,-0.999732200,0.019161000,0.042132000,-0.000272000,0.000549515,-0.000031896,-0.000670358,-0.022046027,0.029904960,-0.011486505,0.019290588,-0.002637750,0.997966118,0.001739079,-0.001339818,-0.002830227,0.000000000,0.000000000,0.000000000,0.000000000,0.013920207,0.003958360,0.071585501,0.050535279,-0.019014968,0.000491379,0.016158922,-0.004790054,-0.001676527,0.126377607,0.194401118,-0.037450760,0.001102295,-0.001696830,-0.000324948,0.999996901,0.000000000,0.000000000,0.000000000,0.000000000,0.000000000,0.000000000,-0.037328449,0.000000000,4.185924053
1772684138.951171160,0.013430000,0.004138000,0.071580000,-0.009529040,-0.021113210,0.000406700,-0.999731600,0.019054000,0.042235000,-0.000411000,0.000367327,0.000107692,-0.000212588,-0.013311888,0.015913040,-0.014197895,0.018207988,-0.003918200,0.998107335,0.000033182,0.001207226,0.000731684,0.000000000,0.000000000,0.000000000,0.000000000,0.013914419,0.003958435,0.071590895,0.050646329,-0.018931254,0.000402721,0.014685266,-0.005823479,-0.002699368,0.126078944,0.193381876,-0.037306156,0.001099694,-0.001687933,-0.000323700,0.999996901,0.000000000,0.000000000,0.000000000,0.000000000,0.000000000,0.000000000,-0.037344462,0.000000000,4.185924053
1772684138.961171865,0.013419000,0.004144000,0.071590000,-0.009453080,-0.021272770,0.000495360,-0.999728890,0.018898000,0.042556000,-0.000589000,0.000077739,0.000145999,-0.000034479,-0.009296394,0.003430391,-0.012781891,0.018735830,-0.004162000,0.999906503,0.002902423,0.000863674,-0.001861722,0.000000000,0.000000000,0.000000000,0.000000000,0.013914777,0.003957597,0.071594323,0.050649198,-0.018936326,0.000273668,0.015457456,-0.006346637,-0.000219678,0.125795767,0.190899306,-0.037365258,0.001097229,-0.001666269,-0.000324244,0.999996934,0.000000000,0.000000000,0.000000000,0.000000000,0.000000000,0.000000000,-0.037353403,0.000000000,4.185924053
1772684138.971171618,0.013423000,0.004136000,0.071590000,-0.009409980,-0.021306630,0.000610440,-0.999728520,0.018807000,0.042626000,-0.000820000,-0.000029779,0.000258819,0.000053730,-0.003494465,-0.003315107,-0.007262092,0.017503544,-0.002076315,0.999944712,0.002304989,-0.001478571,0.002826649,0.000000000,0.000000000,0.000000000,0.000000000,0.013914527,0.003953212,0.071591344,0.050658752,-0.019022458,0.000094074,0.014395380,-0.004650706,0.000055537,0.126090793,0.190462696,-0.036886593,0.001099812,-0.001662455,-0.000320066,0.999996960,0.000000000,0.000000000,0.000000000,0.000000000,0.000000000,0.000000000,-0.036969166,0.000000000,4.185924053
1772684138.981171131,0.013424000,0.004144000,0.071586000,-0.009449950,-0.021141360,0.000588440,-0.999731660,0.018888000,0.042295000,-0.000778000,-0.000602914,-0.000070591,0.000739900,-0.015057112,0.016480045,-0.003655844,0.020219225,-0.002037037,0.998409060,0.000597006,0.002116587,0.003109054,0.000000000,0.000000000,0.000000000,0.000000000,0.013917552,0.003952259,0.071592650,0.050593991,-0.018953323,0.000091030,0.016419162,-0.004387089,-0.001158601,0.126533392,0.189910566,-0.036733603,0.001103678,-0.001657636,-0.000318730,0.999996960,0.000000000,0.000000000,0.000000000,0.000000000,0.000000000,0.000000000,-0.036728537,0.000000000,4.185924053
1772684138.991171122,0.013419000,0.004158000,0.071584000,-0.009426100,-0.021105000,0.000565810,-0.999732670,0.018841000,0.042222000,-0.000734000,0.000222689,0.000206721,-0.000584325,0.012886689,-0.019793446,0.011797034,0.019334577,-0.003512268,1.001092352,0.002745454,-0.000018851,-0.001250483,0.000000000,0.000000000,0.000000000,0.000000000,0.013939584,0.003943450,0.071593652,0.050589796,-0.018811327,-0.000016735,0.016185973,-0.005390157,0.000562671,0.127949395,0.190135983,-0.036316964,0.001116040,-0.001659603,-0.000315072,0.999996960,0.000000000,0.000000000,0.000000000,0.000000000,0.000000000,0.000000000,-0.036394461,0.000000000,4.185924053
1772684139.001171112,0.013413000,0.004136000,0.071590000,-0.009432730,-0.021131110,0.000427360,-0.999732120,0.018860000,0.042272000,-0.000456000,0.000694018,0.000487161,-0.001437259,0.047467907,-0.063259540,0.024429717,0.018269535,-0.002354836,0.998584879,0.001014080,-0.000617750,-0.000736579,0.000000000,0.000000000,0.000000000,0.000000000,0.013956874,0.003968613,0.071542987,0.050677782,-0.018703679,-0.000248972,0.015254009,-0.004634074,-0.001049818,0.128535090,0.190755133,-0.036702260,0.001121144,-0.001665012,-0.000318419,0.999996934,0.000000000,0.000000000,0.000000000,0.000000000,0.000000000,0.000000000,-0.036595357,0.000000000,4.185924053
1772684139.011171103,0.013423000,0.004148000,0.071585000,-0.009608540,-0.021008720,0.000402530,-0.999733040,0.019213000,0.042026000,-0.000401000,0.000641473,0.000617075,-0.001440891,0.069171773,-0.087717548,0.028851144,0.017395257,-0.003191623,0.998790093,0.002016144,0.001400235,-0.000356790,0.000000000,0.000000000,0.000000000,0.000000000,0.013948328,0.003968082,0.071551015,0.050628486,-0.018663126,-0.000220887,0.014159870,-0.005043738,-0.001429195,0.128530760,0.190855931,-0.036807586,0.001121105,-0.001665892,-0.000319338,0.999996901,0.000000000,0.000000000,0.000000000,0.000000000,0.000000000,0.000000000,-0.036847093,0.000000000,4.185924053
1772684139.021171093,0.013418000,0.004143000,0.071586000,-0.009615120,-0.020967100,0.000403200,-0.999733850,0.019226000,0.041943000,-0.000403000,0.000561053,0.000230478,-0.000866842,0.065654250,-0.084517084,0.021163042,0.019538392,-0.001333243,0.999369472,-0.000878133,0.002202888,-0.003721770,0.000000000,0.000000000,0.000000000,0.000000000,0.013935054,0.003963806,0.071567950,0.050502944,-0.018600828,-0.000236774,0.015673505,-0.004000161,-0.000833891,0.128479967,0.189749822,-0.037190645,0.001120659,-0.001656243,-0.000322692,0.999996914,0.000000000,0.000000000,0.000000000,0.000000000,0.000000000,0.000000000,-0.037034913,0.000000000,4.185924053
1772684139.031171083,0.013488000,0.004187000,0.071467000,-0.011233940,-0.018787800,-0.000120630,-0.999760370,0.022485000,0.037573000,0.000664000,0.000146154,-0.000011810,-0.000081546,0.038546955,-0.057523737,0.009473545,0.019148999,-0.003980899,0.999688243,0.001008228,0.003338373,0.000251077,0.000000000,0.000000000,0.000000000,0.000000000,0.013926612,0.003955938,0.071583460,0.050390476,-0.018504625,-0.000246212,0.016050869,-0.005400153,-0.000045496,0.128279829,0.186652472,-0.037840537,0.001118912,-0.001629220,-0.000328397,0.999996974,0.000000000,0.000000000,0.000000000,0.000000000,0.000000000,0.000000000,-0.037834301,0.000000000,4.185924053
1772684139.041170835,0.013422000,0.004159000,0.071565000,-0.010729220,-0.019439550,0.000122430,-0.999753460,0.021466000,0.038882000,0.000172000,-0.000338501,-0.000204643,0.000839492,-0.004261773,-0.004264389,-0.005503115,0.018740606,-0.003971429,1.000404451,-0.000065640,0.001957935,-0.000144332,0.000000000,0.000000000,0.000000000,0.000000000,0.013923887,0.003949632,0.071588441,0.050441794,-0.018443018,-0.000274977,0.015408995,-0.006486317,0.000319170,0.128437776,0.183901403,-0.038155347,0.001120294,-0.001605216,-0.000331169,0.999997020,0.000000000,0.000000000,0.000000000,0.000000000,0.000000000,0.000000000,-0.038061937,0.000000000,4.185924053
1772684139.051170349,0.013423000,0.004148000,0.071585000,-0.010357550,-0.019910670,0.000231360,-0.999748080,0.020719000,0.039827000,-0.000050000,-0.000747767,-0.000676011,0.001471019,-0.047948056,0.050485963,-0.018046819,0.018204242,-0.004228887,0.999480437,-0.001949895,0.003182850,0.000896009,0.000000000,0.000000000,0.000000000,0.000000000,0.013919523,0.003949738,0.071590591,0.050464179,-0.018452729,-0.000216335,0.015167036,-0.006376273,-0.000236517,0.128494700,0.182461388,-0.038108165,0.001120796,-0.001592649,-0.000330770,0.999997024,0.000000000,0.000000000,0.000000000,0.000000000,0.000000000,0.000000000,-0.038292625,0.000000000,4.185924053
1772684139.061170340,0.013426000,0.004132000,0.071595000,-0.009879150,-0.020390400,0.000400470,-0.999743200,0.019755000,0.040790000,-0.000398000,-0.000692930,-0.000710801,0.001555246,-0.071817072,0.082442554,-0.027379874,0.018927024,-0.004108596,0.997905349,-0.001564248,0.002819827,0.001445885,0.000000000,0.000000000,0.000000000,0.000000000,0.013911638,0.003953873,0.071592989,0.050377180,-0.018526154,-0.000171151,0.015794577,-0.006287437,-0.001693688,0.127799750,0.181406008,-0.037309076,0.001114745,-0.001583429,-0.000323817,0.999997079,0.000000000,0.000000000,0.000000000,0.000000000,0.000000000,0.000000000,-0.037278156,0.000000000,4.185924053
1772684139.071170330,0.013415000,0.004144000,0.071591000,-0.009593180,-0.020694790,0.000433160,-0.999739720,0.019181000,0.041399000,-0.000469000,-0.000719115,-0.000852798,0.001628595,-0.087478534,0.108584534,-0.034954401,0.018957030,-0.004315619,0.998194153,0.001603945,-0.005312568,-0.000687930,0.000000000,0.000000000,0.000000000,0.000000000,0.013906002,0.003959091,0.071592809,0.050321018,-0.018589708,-0.000282911,0.015819688,-0.006363865,-0.001875723,0.127483811,0.180488471,-0.037812011,0.001111984,-0.001575426,-0.000328219,0.999997079,0.000000000,0.000000000,0.000000000,0.000000000,0.000000000,0.000000000,-0.037688991,0.000000000,4.185924053
1772684139.081170321,0.013422000,0.004141000,0.071595000,-0.009437880,-0.021020420,0.000541790,-0.999734350,0.018866000,0.042052000,-0.000687000,0.000708625,0.000234888,-0.001047320,-0.020580011,0.022216153,-0.012729974,0.017083098,-0.001335117,1.000538984,0.000380443,-0.000307975,-0.000164575,0.000000000,0.000000000,0.000000000,0.000000000,0.013908994,0.003954363,0.071587737,0.050445256,-0.018663165,-0.000475597,0.014388437,-0.004324011,0.000017779,0.127647292,0.179920340,-0.037849810,0.001113411,-0.001570469,-0.000328552,0.999997079,0.000000000,0.000000000,0.000000000,0.000000000,0.000000000,0.000000000,-0.038003886,0.000000000,4.185924053
1772684139.091170311,0.013421000,0.004134000,0.071587000,-0.009356660,-0.020941420,0.000606120,-0.999736740,0.018700000,0.041895000,-0.000821000,0.000783489,0.000498233,-0.001326361,0.025867352,-0.033109462,0.001807496,0.017533735,-0.001514881,1.001052898,-0.002135359,0.002677293,0.002033902,0.000000000,0.000000000,0.000000000,0.000000000,0.013911691,0.003951687,0.071585276,0.050431061,-0.018644052,-0.000527554,0.014270429,-0.003666903,0.001163316,0.128149285,0.179391395,-0.037241419,0.001117802,-0.001565849,-0.000323241,0.999997079,0.000000000,0.000000000,0.000000000,0.000000000,0.000000000,0.000000000,-0.037207843,0.000000000,4.185924053
1772684139.101170063,0.013428000,0.004136000,0.071593000,-0.009424570,-0.020947680,0.000654250,-0.999735940,0.018834000,0.041909000,-0.000914000,0.000843610,0.000590016,-0.001332771,0.056894898,-0.069554958,0.015366268,0.019261894,-0.003043501,0.999448883,0.001503857,0.003744966,0.003998799,0.000000000,0.000000000,0.000000000,0.000000000,0.013914801,0.003951423,0.071584619,0.050345223,-0.018489544,-0.000453490,0.015683443,-0.005149833,0.000053741,0.127663469,0.178679610,-0.037152968,0.001113566,-0.001559635,-0.000322483,0.999997079,0.000000000,0.000000000,0.000000000,0.000000000,0.000000000,0.000000000,-0.037326028,0.000000000,4.185924053
1772684139.111169100,0.013425000,0.004135000,0.071594000,-0.009378770,-0.021135510,0.000686500,-0.999732390,0.018741000,0.042285000,-0.000977000,0.000594717,0.000324748,-0.000711520,0.058595196,-0.072583553,0.018935947,0.019404439,-0.002853952,0.996819616,0.003735540,0.003311677,0.001396752,0.000000000,0.000000000,0.000000000,0.000000000,0.013917251,0.003951460,0.071587052,0.050325310,-0.018384205,-0.000341089,0.016736208,-0.005185699,-0.002929295,0.127252980,0.177446797,-0.036176874,0.001110000,-0.001548866,-0.000313982,0.999997136,0.000000000,0.000000000,0.000000000,0.000000000,0.000000000,0.000000000,-0.036159648,0.000000000,4.185924053
1772684139.121168852,0.013483000,0.004183000,0.071484000,-0.010931570,-0.018945790,0.000151460,-0.999760740,0.021870000,0.037895000,0.000111000,0.000165443,-0.000059324,-0.000002312,0.039296533,-0.040447104,0.018179376,0.018208204,-0.002361994,0.995787535,0.000630680,0.001640494,0.000001021,0.000000000,0.000000000,0.000000000,0.000000000,0.013916595,0.003953652,0.071591668,0.050400634,-0.018428167,-0.000388267,0.015062753,-0.004301270,-0.004582899,0.128635997,0.175583842,-0.036324317,0.001122072,-0.001532614,-0.000315269,0.999997139,0.000000000,0.000000000,0.000000000,0.000000000,0.000000000,0.000000000,-0.036307025,0.000000000,4.185924053
1772684139.131168604,0.013439000,0.004144000,0.071576000,-0.010488230,-0.019736810,0.000274260,-0.999750160,0.020978000,0.039480000,-0.000134000,-0.000213501,-0.000483159,0.000741667,0.006245460,0.012839079,0.005030195,0.018223492,-0.003346178,0.998401593,-0.002333361,0.000640604,0.001916299,0.000000000,0.000000000,0.000000000,0.000000000,0.013915500,0.003956170,0.071592478,0.050480528,-0.018329911,-0.000754587,0.014861701,-0.005581353,-0.002627375,0.127692033,0.174888737,-0.036245394,0.001113838,-0.001526545,-0.000314599,0.999997139,0.000000000,0.000000000,0.000000000,0.000000000,0.000000000,0.000000000,-0.036251479,0.000000000,4.185924053
1772684139.141168118,0.013427000,0.004140000,0.071590000,-0.010130660,-0.020217550,0.000340610,-0.999744220,0.020260000,0.040443000,-0.000272000,-0.000687627,-0.000783509,0.001244290,-0.031675743,0.065931864,-0.009348731,0.019251564,-0.003990872,0.999119045,-0.002864689,0.002201707,0.000157474,0.000000000,0.000000000,0.000000000,0.000000000,0.013914557,0.003953089,0.071592364,0.050440368,-0.018321098,-0.001017013,0.015872024,-0.005921649,-0.000317092,0.126964739,0.174161633,-0.036047222,0.001107496,-0.001520196,-0.000312887,0.999997139,0.000000000,0.000000000,0.000000000,0.000000000,0.000000000,0.000000000,-0.036176307,0.000000000,4.185924053
1772684139.151168108,0.013428000,0.004126000,0.071603000,-0.009813570,-0.020737540,0.000475350,-0.999736680,0.019620000,0.041485000,-0.000544000,-0.001000856,-0.000513462,0.001443241,-0.057243836,0.097823722,-0.021058271,0.019932906,-0.004439338,0.997745907,-0.002592485,0.001345939,-0.001223341,0.000000000,0.000000000,0.000000000,0.000000000,0.013921571,0.003953091,0.071588963,0.050529412,-0.018347556,-0.001080306,0.017030919,-0.007102429,-0.002183686,0.125920635,0.173935111,-0.034938644,0.001098399,-0.001518205,-0.000303228,0.999997190,0.000000000,0.000000000,0.000000000,0.000000000,0.000000000,0.000000000,-0.034915296,0.000000000,4.185924053
1772684139.161167145,0.013430000,0.004120000,0.071594000,-0.009651730,-0.021258470,0.000492160,-0.999727300,0.019296000,0.042528000,-0.000574000,-0.000821077,-0.000247805,0.000813831,-0.056975886,0.090924270,-0.021478027,0.020982227,-0.003218603,0.997781479,-0.001460649,0.001007268,0.001696883,0.000000000,0.000000000,0.000000000,0.000000000,0.013925442,0.003953815,0.071585840,0.050672328,-0.018429843,-0.001184045,0.017398032,-0.005828070,-0.002347125,0.125150806,0.172893563,-0.036083665,0.001091669,-0.001509125,-0.000313241,0.999997199,0.000000000,0.000000000,0.000000000,0.000000000,0.000000000,0.000000000,-0.036204268,0.000000000,4.185924053
1772684139.171167135,0.013419000,0.004135000,0.071596000,-0.009491580,-0.021449190,0.000677610,-0.999724650,0.018967000,0.042913000,-0.000949000,-0.000091434,0.000410606,-0.000668532,-0.019119394,0.027107281,-0.007340215,0.021537675,-0.002321644,0.998462527,-0.000497000,0.000662914,0.002864580,0.000000000,0.000000000,0.000000000,0.000000000,0.013924424,0.003952360,0.071587004,0.050920164,-0.018556371,-0.001328118,0.019158100,-0.004335671,-0.001806087,0.124453166,0.171620972,-0.033522803,0.001085618,-0.001497993,-0.000290914,0.999997247,0.000000000,0.000000000,0.000000000,0.000000000,0.000000000,0.000000000,-0.033722562,0.000000000,4.185924053
1772684139.181166649,0.013410000,0.004139000,0.071598000,-0.009367150,-0.021560030,0.000589470,-0.999723500,0.018722000,0.043133000,-0.000775000,-0.000020901,0.000203497,-0.000416745,-0.009147980,0.004244324,-0.003119580,0.018937302,-0.002088570,0.998967102,-0.004009867,-0.002654773,0.000771020,0.000000000,0.000000000,0.000000000,0.000000000,0.013921944,0.003955252,0.071583102,0.051264097,-0.018464402,-0.001484116,0.016654622,-0.004407602,-0.000936303,0.123976232,0.171580005,-0.034425217,0.001081444,-0.001497643,-0.000298796,0.999997199,0.000000000,0.000000000,0.000000000,0.000000000,0.000000000,0.000000000,-0.034632775,0.000000000,4.185924053
1772684139.191166401,0.013411000,0.004148000,0.071593000,-0.009420280,-0.021298210,0.000606860,-0.999728600,0.018828000,0.042609000,-0.000813000,0.000144950,0.000035645,-0.000263112,-0.001909510,-0.014929947,-0.000123624,0.019740548,-0.002966632,0.999760418,0.002435898,0.000073770,0.004660152,0.000000000,0.000000000,0.000000000,0.000000000,0.013919241,0.003961787,0.071578618,0.051477301,-0.018338916,-0.001529510,0.015998217,-0.004711148,-0.000438816,0.123112679,0.172249368,-0.032291698,0.001073935,-0.001503462,-0.000280183,0.999997258,0.000000000,0.000000000,0.000000000,0.000000000,0.000000000,0.000000000,-0.032555880,0.000000000,4.185924053
1772684139.201166868,0.013426000,0.004124000,0.071584000,-0.009491080,-0.021229970,0.000556650,-0.999729410,0.018972000,0.042472000,-0.000711000,0.000414355,-0.000075117,-0.000046076,0.003686788,-0.023791744,0.001491280,0.020688350,-0.003794299,0.999848695,0.001274633,0.002231632,0.004556305,0.000000000,0.000000000,0.000000000,0.000000000,0.013948955,0.003984293,0.071525906,0.051643766,-0.018171590,-0.001773619,0.017743114,-0.005822128,-0.000060813,0.123826277,0.172004724,-0.030740960,0.001080183,-0.001501314,-0.000266643,0.999997258,0.000000000,0.000000000,0.000000000,0.000000000,0.000000000,0.000000000,-0.030869673,0.000000000,4.185924053
1772684139.211165905,0.013423000,0.004134000,0.071589000,-0.009397870,-0.021276430,0.000627120,-0.999729260,0.018782000,0.042566000,-0.000855000,0.000294911,-0.000179313,0.000101787,0.007882728,-0.019483666,0.001653777,0.021570955,-0.005948264,0.996640959,-0.002700053,0.005791926,0.004301180,0.000000000,0.000000000,0.000000000,0.000000000,0.013955256,0.003977596,0.071529423,0.051830326,-0.018280589,-0.001671534,0.018169558,-0.008090100,-0.003144713,0.123861521,0.171630323,-0.030428175,0.001080495,-0.001498044,-0.000263916,0.999997288,0.000000000,0.000000000,0.000000000,0.000000000,0.000000000,0.000000000,-0.030428175,0.000000000,4.185924053
1772684139.221166611,0.013433000,0.004130000,0.071588000,-0.009440550,-0.021155320,0.000624530,-0.999731430,0.018868000,0.042324000,-0.000850000,0.000100369,-0.000093784,0.000318163,0.011186110,-0.012489419,-0.000711502,0.019130319,-0.005527387,0.997493777,-0.001588883,-0.001843221,-0.000565738,0.000000000,0.000000000,0.000000000,0.000000000,0.013951567,0.003958840,0.071561640,0.052176587,-0.018554655,-0.001657906,0.016037328,-0.007921145,-0.002446941,0.122697865,0.169004273,-0.029470720,0.001070359,-0.001475116,-0.000255601,0.999997318,0.000000000,0.000000000,0.000000000,0.000000000,0.000000000,0.000000000,-0.029592972,0.000000000,4.185924053
1772684139.231166601,0.013425000,0.004133000,0.071601000,-0.009525280,-0.021047680,0.000612710,-0.999732910,0.019038000,0.042108000,-0.000825000,0.000022494,0.000062121,0.000306197,0.009606035,-0.007198980,0.000430198,0.019454350,-0.003225725,0.998694517,-0.000118705,-0.000919383,-0.003494654,0.000000000,0.000000000,0.000000000,0.000000000,0.013955763,0.003962288,0.071557051,0.052299559,-0.018886410,-0.001943504,0.016565133,-0.005403294,-0.001528912,0.123053414,0.168967526,-0.030084917,0.001073454,-0.001474802,-0.000260956,0.999997318,0.000000000,0.000000000,0.000000000,0.000000000,0.000000000,0.000000000,-0.030006192,0.000000000,4.185924053
1772684139.241167307,0.013427000,0.004142000,0.071597000,-0.009603600,-0.021003700,0.000573740,-0.999733110,0.019196000,0.042020000,-0.000744000,0.000085451,0.000084577,0.000157343,0.005946422,-0.001312053,-0.000581748,0.020825681,-0.001644835,0.999642516,-0.000705246,-0.000750851,0.000561053,0.000000000,0.000000000,0.000000000,0.000000000,0.013960631,0.003974931,0.071532561,0.052376475,-0.018921874,-0.002119521,0.017490170,-0.004045962,-0.000585388,0.122081798,0.167699323,-0.030685287,0.001064970,-0.001463738,-0.000266220,0.999997318,0.000000000,0.000000000,0.000000000,0.000000000,0.000000000,0.000000000,-0.030697016,0.000000000,4.185924053
1772684139.251167536,0.013415000,0.004128000,0.071602000,-0.009609300,-0.021117970,0.000620810,-0.999730620,0.019206000,0.042249000,-0.000836000,0.000187238,-0.000120299,0.000101787,-0.003838271,0.010301383,-0.000652944,0.021110340,-0.003513050,1.001741301,-0.001176926,-0.001894567,0.002024389,0.000000000,0.000000000,0.000000000,0.000000000,0.013945268,0.003972668,0.071548987,0.052491206,-0.018808876,-0.002045133,0.018291813,-0.004987667,0.001470116,0.122204375,0.167363897,-0.030193555,0.001066047,-0.001460807,-0.000261930,0.999997318,0.000000000,0.000000000,0.000000000,0.000000000,0.000000000,0.000000000,-0.030372779,0.000000000,4.185924053
1772684139.261167049,0.013436000,0.004130000,0.071598000,-0.009634470,-0.021126610,0.000597140,-0.999730210,0.019257000,0.042266000,-0.000788000,0.000140404,-0.000087354,-0.000091065,-0.013424745,0.019045451,-0.001090683,0.020037388,-0.003940595,1.002209943,0.001216013,0.001919603,-0.003116010,0.000000000,0.000000000,0.000000000,0.000000000,0.013940810,0.003965769,0.071560246,0.052732644,-0.018740617,-0.001860917,0.017412119,-0.006301953,0.002234198,0.122502554,0.167355679,-0.030209360,0.001068649,-0.001460736,-0.000262064,0.999997318,0.000000000,0.000000000,0.000000000,0.000000000,0.000000000,0.000000000,-0.029878122,0.000000000,4.185924053
1772684139.271167278,0.013438000,0.004136000,0.071591000,-0.009445570,-0.021171060,0.000632850,-0.999731050,0.018877000,0.042355000,-0.000866000,-0.000395805,-0.000189841,0.000491259,-0.034050234,0.051315748,-0.008854159,0.019604994,-0.005403394,0.999953019,0.000315670,0.002304981,-0.000461021,0.000000000,0.000000000,0.000000000,0.000000000,0.013945921,0.003958967,0.071568030,0.052955008,-0.018831717,-0.001482276,0.016731432,-0.007114286,0.000515725,0.123250983,0.167630894,-0.032135589,0.001075155,-0.001463157,-0.000278862,0.999997318,0.000000000,0.000000000,0.000000000,0.000000000,0.000000000,0.000000000,-0.031969670,0.000000000,4.185924053
1772684139.281166792,0.013431000,0.004129000,0.071599000,-0.009337210,-0.021455210,0.000639720,-0.999726000,0.018660000,0.042924000,-0.000879000,-0.000068162,0.000535684,-0.000635218,-0.007997029,0.008686771,0.002381179,0.018980030,-0.004155842,0.999277066,-0.000966340,0.001378918,-0.001151601,0.000000000,0.000000000,0.000000000,0.000000000,0.013946596,0.003951144,0.071580449,0.053086721,-0.019023360,-0.001284118,0.016226270,-0.006392074,-0.000543138,0.123635252,0.167672878,-0.033061478,0.001078497,-0.001463533,-0.000286936,0.999997318,0.000000000,0.000000000,0.000000000,0.000000000,0.000000000,0.000000000,-0.032965159,0.000000000,4.185924053
1772684139.291166306,0.013423000,0.004137000,0.071602000,-0.009253160,-0.021465660,0.000598800,-0.999726590,0.018494000,0.042944000,-0.000801000,0.000343338,0.001015871,-0.001623448,0.031749092,-0.053751268,0.017425026,0.019128212,-0.001968261,1.000000041,0.000461728,-0.003165673,-0.000842916,0.000000000,0.000000000,0.000000000,0.000000000,0.013947333,0.003943095,0.071589978,0.053164812,-0.019231058,-0.001219200,0.016054563,-0.004776422,-0.000123028,0.124173439,0.168160727,-0.032932403,0.001083193,-0.001467791,-0.000285798,0.999997318,0.000000000,0.000000000,0.000000000,0.000000000,0.000000000,0.000000000,-0.033068381,0.000000000,4.185924053
1772684139.301166058,0.013421000,0.004139000,0.071583000,-0.009392690,-0.021391000,0.000572130,-0.999726900,0.018774000,0.042794000,-0.000743000,0.000575253,0.000703614,-0.001644563,0.060245667,-0.099868634,0.026549880,0.019002927,-0.003055715,1.000364803,0.000297327,0.002524120,0.004099962,0.000000000,0.000000000,0.000000000,0.000000000,0.013950587,0.003941412,0.071592633,0.053226081,-0.019158147,-0.001172442,0.016305131,-0.004726043,0.000210675,0.124430470,0.168525741,-0.032497577,0.001085441,-0.001470973,-0.000281997,0.999997318,0.000000000,0.000000000,0.000000000,0.000000000,0.000000000,0.000000000,-0.032497577,0.000000000,4.185924053
1772684139.311165810,0.013413000,0.004151000,0.071594000,-0.009412750,-0.021422790,0.000620130,-0.999726000,0.018812000,0.042859000,-0.000837000,0.000472864,-0.000060781,-0.000239472,0.051370542,-0.081113463,0.017713748,0.019259591,-0.003477428,0.998898755,0.001912607,-0.001133221,-0.002033734,0.000000000,0.000000000,0.000000000,0.000000000,0.013946974,0.003945953,0.071585781,0.053231096,-0.019102239,-0.001122970,0.016348663,-0.005564772,-0.000680958,0.125172506,0.168512941,-0.031631906,0.001091928,-0.001470854,-0.000274433,0.999997318,0.000000000,0.000000000,0.000000000,0.000000000,0.000000000,0.000000000,-0.031867716,0.000000000,4.185924053
1772684139.321165085,0.013487000,0.004189000,0.071473000,-0.010999810,-0.018706100,-0.000021990,-0.999764520,0.022012000,0.037412000,0.000456000,0.000910646,-0.000081702,-0.000443998,0.054129149,-0.082936600,0.014186216,0.019379732,-0.004435030,0.998700488,-0.000115944,0.001406122,0.000077103,0.000000000,0.000000000,0.000000000,0.000000000,0.013939424,0.003950119,0.071581082,0.053285315,-0.019037848,-0.001138226,0.016390622,-0.006348371,-0.001198877,0.126194522,0.168495312,-0.030439606,0.001100862,-0.001470692,-0.000264016,0.999997318,0.000000000,0.000000000,0.000000000,0.000000000,0.000000000,0.000000000,-0.030439606,0.000000000,4.185924053
1772684139.331165075,0.013452000,0.004144000,0.071560000,-0.010630900,-0.019326930,0.000178090,-0.999756680,0.021267000,0.038658000,0.000055000,0.000670883,-0.000172417,-0.000105905,0.052283262,-0.062281184,0.009919319,0.019216222,-0.003428346,0.999554952,-0.001557214,-0.000160903,-0.000069592,0.000000000,0.000000000,0.000000000,0.000000000,0.013940035,0.003950633,0.071581762,0.053362052,-0.019077243,-0.001204847,0.016354282,-0.006065365,-0.000461998,0.126215739,0.168416403,-0.030538517,0.001101046,-0.001470004,-0.000264879,0.999997318,0.000000000,0.000000000,0.000000000,0.000000000,0.000000000,0.000000000,-0.030495028,0.000000000,4.185924053
1772684139.341165066,0.013443000,0.004123000,0.071602000,-0.010273130,-0.019941120,0.000347450,-0.999748320,0.020545000,0.039890000,-0.000285000,-0.000060742,0.000013772,0.000372941,0.033495823,-0.029496862,0.001909296,0.019424258,-0.003865656,0.999920395,0.002065290,-0.000013396,-0.000587569,0.000000000,0.000000000,0.000000000,0.000000000,0.013942029,0.003948807,0.071582099,0.053424122,-0.019129764,-0.001256960,0.016428445,-0.005850190,0.000177839,0.126625088,0.168186865,-0.030518645,0.001104619,-0.001468002,-0.000264703,0.999997318,0.000000000,0.000000000,0.000000000,0.000000000,0.000000000,0.000000000,-0.030698849,0.000000000,4.177431890
1772684139.351164341,0.013432000,0.004129000,0.071614000,-0.010070910,-0.020625340,0.000567560,-0.999736390,0.020132000,0.041263000,-0.000720000,-0.000771893,0.000048446,0.000624398,0.006435933,0.013878883,-0.006912882,0.020050299,-0.004226671,1.000647162,0.002747214,0.002545426,-0.000716893,0.000000000,0.000000000,0.000000000,0.000000000,0.013942793,0.003945301,0.071580997,0.053488978,-0.019165827,-0.001229492,0.017027033,-0.006694074,0.000279105,0.128396383,0.167839025,-0.029350964,0.001120092,-0.001464959,-0.000254494,0.999997262,0.000000000,0.000000000,0.000000000,0.000000000,0.000000000,0.000000000,-0.029316479,0.000000000,4.168406693
1772684139.361164808,0.013484000,0.004184000,0.071488000,-0.011368150,-0.018646600,0.000082770,-0.999761500,0.022746000,0.037295000,0.000259000,-0.000887044,0.000234072,0.000531858,-0.017794373,0.036613865,-0.011709864,0.019958862,-0.004056321,1.000502206,0.000037540,0.002810179,0.001853766,0.000000000,0.000000000,0.000000000,0.000000000,0.013950130,0.003940608,0.071583549,0.053632286,-0.019275968,-0.001102772,0.017003604,-0.006165756,0.000728332,0.129370836,0.166840229,-0.029479937,0.001128596,-0.001456246,-0.000255617,0.999997258,0.000000000,0.000000000,0.000000000,0.000000000,0.000000000,0.000000000,-0.029555819,0.000000000,4.159380421
1772684139.371164322,0.013425000,0.004156000,0.071578000,-0.010897840,-0.019556800,0.000270520,-0.999749320,0.021798000,0.039120000,-0.000115000,-0.000281488,0.000323757,-0.000287860,-0.018226191,0.014929110,-0.003935949,0.020027965,-0.003294754,0.999048219,-0.000480929,0.000322740,0.000568440,0.000000000,0.000000000,0.000000000,0.000000000,0.013956521,0.003938670,0.071584205,0.053789070,-0.019354566,-0.000977304,0.016871239,-0.006046820,-0.000602830,0.130028074,0.166963312,-0.028878284,0.001134339,-0.001457316,-0.000250357,0.999997258,0.000000000,0.000000000,0.000000000,0.000000000,0.000000000,0.000000000,-0.028900168,0.000000000,4.150355009
1772684139.381165028,0.013418000,0.004155000,0.071586000,-0.010338280,-0.019951400,0.000433940,-0.999747400,0.020672000,0.039912000,-0.000455000,-0.000461539,-0.000549340,0.000839298,-0.046745235,0.048900105,-0.012967725,0.020824102,-0.003227133,0.998703404,0.000901583,-0.003272279,-0.001274097,0.000000000,0.000000000,0.000000000,0.000000000,0.013953161,0.003943409,0.071580222,0.053860561,-0.019341457,-0.000985707,0.017532452,-0.005267693,-0.001317767,0.130167555,0.165582881,-0.028782742,0.001135561,-0.001445269,-0.000249535,0.999997258,0.000000000,0.000000000,0.000000000,0.000000000,0.000000000,0.000000000,-0.028720112,0.000000000,4.141328521
1772684139.391165257,0.013427000,0.004136000,0.071591000,-0.010002840,-0.020460010,0.000483790,-0.999740510,0.019999000,0.040931000,-0.000558000,-0.000243027,-0.001168086,0.001681606,-0.064223680,0.082361684,-0.019843167,0.020467568,-0.004681831,0.999202465,0.001023804,-0.003037119,-0.001819721,0.000000000,0.000000000,0.000000000,0.000000000,0.013948759,0.003949310,0.071581158,0.053974814,-0.019305687,-0.001062724,0.018054474,-0.006352137,-0.000730592,0.130149383,0.166094578,-0.029966059,0.001135386,-0.001449746,-0.000259856,0.999997258,0.000000000,0.000000000,0.000000000,0.000000000,0.000000000,0.000000000,-0.029855172,0.000000000,4.132302464
1772684139.401164293,0.013440000,0.004136000,0.071591000,-0.009785340,-0.020567780,0.000548490,-0.999740420,0.019561000,0.041147000,-0.000695000,0.000002273,-0.000984150,0.001326516,-0.062811290,0.092752104,-0.021743655,0.019494727,-0.004546757,0.999493288,0.000415315,-0.001336373,-0.003870406,0.000000000,0.000000000,0.000000000,0.000000000,0.013948314,0.003950849,0.071580396,0.054126364,-0.019382684,-0.001107877,0.016372243,-0.007609417,-0.000526536,0.130276922,0.165322793,-0.030563694,0.001136493,-0.001443017,-0.000265078,0.999997258,0.000000000,0.000000000,0.000000000,0.000000000,0.000000000,0.000000000,-0.030420255,0.000000000,4.123277482
1772684139.411164284,0.013426000,0.004125000,0.071611000,-0.009578880,-0.021067350,0.000632960,-0.999731970,0.019144000,0.042148000,-0.000863000,0.000296970,-0.000105148,-0.000351593,-0.027595117,0.039921097,-0.008518369,0.019742022,-0.002731346,0.999746434,0.001983007,-0.002787278,-0.003859410,0.000000000,0.000000000,0.000000000,0.000000000,0.013947248,0.003948117,0.071575328,0.054235730,-0.019484418,-0.001144271,0.016764428,-0.005081628,-0.000196967,0.131755796,0.165890784,-0.032362184,0.001149375,-0.001447995,-0.000280748,0.999997258,0.000000000,0.000000000,0.000000000,0.000000000,0.000000000,0.000000000,-0.032164414,0.000000000,4.114251640
1772684139.421164036,0.013431000,0.004121000,0.071611000,-0.009543230,-0.021248510,0.000693250,-0.999728440,0.019070000,0.042512000,-0.000981000,-0.000225544,0.000144658,-0.000146271,-0.018479901,0.024421504,-0.005737143,0.020414397,-0.002919560,0.999158540,0.002118527,0.001162093,-0.003055268,0.000000000,0.000000000,0.000000000,0.000000000,0.013946826,0.003948126,0.071576867,0.054294428,-0.019526767,-0.001122238,0.017457796,-0.005316444,-0.000586250,0.133174667,0.166616818,-0.033436438,0.001161741,-0.001454345,-0.000290097,0.999997225,0.000000000,0.000000000,0.000000000,0.000000000,0.000000000,0.000000000,-0.033334725,0.000000000,4.105226013
1772684139.431163549,0.013437000,0.004129000,0.071605000,-0.009536250,-0.021296530,0.000635280,-0.999727520,0.019059000,0.042606000,-0.000865000,-0.000447475,0.000391667,-0.000348913,-0.015890863,0.004863349,-0.006766764,0.020443451,-0.002285387,0.996608498,0.000963211,0.001423759,-0.002166702,0.000000000,0.000000000,0.000000000,0.000000000,0.013947304,0.003942091,0.071577349,0.054411717,-0.019515391,-0.001066773,0.017449722,-0.004668741,-0.003013063,0.133638510,0.166333281,-0.034575284,0.001165775,-0.001451884,-0.000300033,0.999997199,0.000000000,0.000000000,0.000000000,0.000000000,0.000000000,0.000000000,-0.034443443,0.000000000,4.096200601
1772684139.441162825,0.013419000,0.004141000,0.071583000,-0.009296270,-0.021269200,0.000698440,-0.999730320,0.018576000,0.042553000,-0.001002000,-0.000441861,0.000298174,-0.000505517,-0.009659166,-0.007272411,-0.006604517,0.019151733,-0.004482500,0.999585081,0.000612263,-0.001898879,-0.000474414,0.000000000,0.000000000,0.000000000,0.000000000,0.013952954,0.003940931,0.071578418,0.054600887,-0.019404350,-0.001260002,0.016385191,-0.006848090,-0.000785465,0.133891993,0.166024147,-0.035241679,0.001167980,-0.001449193,-0.000305848,0.999997199,0.000000000,0.000000000,0.000000000,0.000000000,0.000000000,0.000000000,-0.035192122,0.000000000,4.090650944
1772684139.451162338,0.013410000,0.004140000,0.071589000,-0.009296340,-0.021077310,0.000723310,-0.999734370,0.018575000,0.042169000,-0.001055000,0.000007032,0.000025641,-0.000240171,-0.001662371,-0.009588748,-0.004134886,0.018641131,-0.003218316,1.002433336,-0.000671811,0.001626179,-0.001726575,0.000000000,0.000000000,0.000000000,0.000000000,0.013961548,0.003950371,0.071569769,0.054693105,-0.019441398,-0.001369595,0.015380555,-0.005338892,0.003035578,0.134121612,0.164642165,-0.036317264,0.001169974,-0.001437145,-0.000315245,0.999997199,0.000000000,0.000000000,0.000000000,0.000000000,0.000000000,0.000000000,-0.036201560,0.000000000,4.090027123
1772684139.461162090,0.013428000,0.004135000,0.071597000,-0.009309910,-0.021115020,0.000744390,-0.999733430,0.018601000,0.042245000,-0.001096000,0.000269658,-0.000333508,0.000040035,0.008343884,-0.005329021,0.000845865,0.018995537,-0.002790360,1.001186311,0.001932118,0.001426967,-0.001852208,0.000000000,0.000000000,0.000000000,0.000000000,0.013984326,0.003965670,0.071526007,0.054654678,-0.019460267,-0.001258097,0.016297904,-0.005273186,0.001419385,0.133663367,0.163568217,-0.038107077,0.001165956,-0.001427790,-0.000330881,0.999997255,0.000000000,0.000000000,0.000000000,0.000000000,0.000000000,0.000000000,-0.038086161,0.000000000,4.089403286
1772684139.471162081,0.013419000,0.004131000,0.071591000,-0.009369260,-0.021093410,0.000814790,-0.999733280,0.018717000,0.042203000,-0.001235000,0.000397902,-0.000378205,0.000126593,0.016873974,-0.005090047,0.006033768,0.019860784,-0.003574582,1.001646062,0.002338678,0.002993373,0.003509280,0.000000000,0.000000000,0.000000000,0.000000000,0.013971391,0.003950779,0.071547328,0.054548927,-0.019499539,-0.000897822,0.016701305,-0.005539767,0.001616920,0.134778104,0.162363740,-0.037493429,0.001175695,-0.001417276,-0.000325525,0.999997258,0.000000000,0.000000000,0.000000000,0.000000000,0.000000000,0.000000000,-0.037728049,0.000000000,4.088779435
1772684139.481162310,0.013427000,0.004126000,0.071592000,-0.009532050,-0.021156130,0.000714910,-0.999730490,0.019047000,0.042327000,-0.001027000,0.000374981,-0.000053458,0.000163190,0.014600234,-0.005444775,0.011880768,0.017670344,-0.003790678,1.003344526,0.003209276,-0.000183300,0.000497610,0.000000000,0.000000000,0.000000000,0.000000000,0.013957855,0.003944787,0.071564170,0.054568472,-0.019465616,-0.000624045,0.015096148,-0.006289557,0.003173013,0.135107569,0.161090426,-0.036843753,0.001178581,-0.001406158,-0.000319864,0.999997258,0.000000000,0.000000000,0.000000000,0.000000000,0.000000000,0.000000000,-0.036777956,0.000000000,4.088155569
1772684139.491162300,0.013446000,0.004120000,0.071604000,-0.009596000,-0.021260650,0.000587240,-0.999727740,0.019180000,0.042534000,-0.000767000,-0.000006954,0.000237665,-0.000180575,0.008706730,-0.007708858,0.011965185,0.016730909,-0.002719106,1.000863943,-0.000696113,0.000904382,0.003134244,0.000000000,0.000000000,0.000000000,0.000000000,0.013958940,0.003945371,0.071573039,0.054539684,-0.019527577,-0.000247344,0.013724062,-0.004443888,0.000974182,0.135358063,0.162322447,-0.036674922,0.001180766,-0.001416908,-0.000318375,0.999997258,0.000000000,0.000000000,0.000000000,0.000000000,0.000000000,0.000000000,-0.036722675,0.000000000,4.087531718
1772684139.501162291,0.013430000,0.004133000,0.071582000,-0.009666430,-0.020919800,0.000529090,-0.999734290,0.019324000,0.041851000,-0.000654000,-0.000335373,0.000449301,-0.000219076,0.005219772,-0.000068702,0.009127316,0.017727609,-0.004053099,1.000189608,0.001869365,0.000018210,0.002367479,0.000000000,0.000000000,0.000000000,0.000000000,0.013953307,0.003947119,0.071588261,0.054279490,-0.019509111,0.000006100,0.014989930,-0.006519068,-0.000171075,0.135401279,0.162456498,-0.036631998,0.001181143,-0.001418078,-0.000317998,0.999997258,0.000000000,0.000000000,0.000000000,0.000000000,0.000000000,0.000000000,-0.036631998,0.000000000,4.086907867
1772684139.511162758,0.013417000,0.004144000,0.071591000,-0.009555940,-0.020966210,0.000557950,-0.999734360,0.019101000,0.041944000,-0.000716000,-0.000422805,0.000334965,-0.000188442,0.004762913,0.014245650,0.002821458,0.017714956,-0.003715314,1.000884216,0.001077407,0.001568877,0.001544339,0.000000000,0.000000000,0.000000000,0.000000000,0.013950237,0.003946481,0.071589184,0.054105521,-0.019488476,0.000013188,0.014926028,-0.006324640,0.000863718,0.136099167,0.161771201,-0.035354907,0.001187251,-0.001412086,-0.000306852,0.999997206,0.000000000,0.000000000,0.000000000,0.000000000,0.000000000,0.000000000,-0.035730981,0.000000000,4.086283986
1772684139.521162748,0.013422000,0.004144000,0.071594000,-0.009482590,-0.021095800,0.000542850,-0.999732340,0.018955000,0.042203000,-0.000686000,-0.000439763,0.000039355,-0.000212452,0.005385075,0.021455709,-0.003671679,0.018683061,-0.002830626,0.998280712,-0.002603332,0.002250719,0.003385441,0.000000000,0.000000000,0.000000000,0.000000000,0.013948635,0.003947149,0.071584337,0.053977234,-0.019520441,0.000066531,0.015660191,-0.005334539,-0.001603669,0.135670125,0.162036342,-0.032224254,0.001181712,-0.001414366,-0.000279537,0.999997261,0.000000000,0.000000000,0.000000000,0.000000000,0.000000000,0.000000000,-0.032342168,0.000000000,4.085660135
