t,px,py,pz,qx,qy,qz,qw,roll,pitch,yaw,vx,vy,vz,wx_vicon,wy_vicon,wz_vicon,imu_acc_x,imu_acc_y,imu_acc_z,imu_gyro_x,imu_gyro_y,imu_gyro_z,motor_motor_m1,motor_motor_m2,motor_motor_m3,motor_motor_m4,est_stateEstimate_x,est_stateEstimate_y,est_stateEstimate_z,est_stateEstimate_vx,est_stateEstimate_vy,est_stateEstimate_vz,est_stateEstimate_ax,est_stateEstimate_ay,est_stateEstimate_az,att_stateEstimate_roll,att_stateEstimate_pitch,att_stateEstimate_yaw,att_stateEstimate_qx,att_stateEstimate_qy,att_stateEstimate_qz,att_stateEstimate_qw,sp_ctrltarget_x,sp_ctrltarget_y,sp_ctrltarget_z,sp_ctrltarget_yaw,pid_controller_roll,pid_controller_pitch,pid_controller_yaw,pid_controller_cmd_thrust,pwr_pm_vbat
1772660065.756538868,0.016621000,0.006592000,0.074204000,-0.007402390,0.010244720,-0.009058370,0.999879090,-0.014992000,0.020354000,-0.018271000,0.001817776,-0.003909211,0.002368145,-0.065984677,0.075317387,0.011718511,0.014703294,0.000565146,0.999862076,-0.000452113,-0.004332088,-0.000957959,0.000000000,0.000000000,0.000000000,0.000000000,0.017253750,0.006790999,0.074240138,0.032862942,0.010621528,0.001310836,0.009635423,0.003797906,-0.000553571,-0.184213344,0.291705090,-0.722393758,-0.001623573,-0.002535419,-0.006308090,0.999974549,0.000000000,0.000000000,0.000000000,0.000000000,0.000000000,0.000000000,-0.722211287,0.000000000,4.180645466
1772660065.766539097,0.016638000,0.006563000,0.074221000,-0.007759140,0.010775860,-0.009031670,0.999871040,-0.015715000,0.021410000,-0.018233000,0.000448660,-0.001232402,0.000955673,-0.037544630,0.045439764,-0.001533096,0.013419737,0.001747544,1.001247434,0.000209112,-0.000267783,0.000130159,0.000000000,0.000000000,0.000000000,0.000000000,0.017265372,0.006799822,0.074237041,0.032796093,0.010727760,0.001268097,0.009029947,0.004176753,0.000512562,-0.184476284,0.292645941,-0.722194120,-0.001625915,-0.002543618,-0.006306367,0.999974568,0.000000000,0.000000000,0.000000000,0.000000000,0.000000000,0.000000000,-0.722151816,0.000000000,4.180645466
1772660065.776540041,0.016631000,0.006571000,0.074211000,-0.007771680,0.010599890,-0.009083390,0.999872360,-0.015738000,0.021057000,-0.018334000,-0.000301923,0.000270280,0.000101476,-0.016226585,0.022769095,-0.007848809,0.013728240,0.002998290,1.000539680,-0.002320056,0.000506396,-0.000702996,0.000000000,0.000000000,0.000000000,0.000000000,0.017281303,0.006802161,0.074236308,0.032688375,0.010892501,0.001288314,0.008244632,0.006209192,0.001625854,-0.184307972,0.291928028,-0.722003234,-0.001624402,-0.002537365,-0.006304688,0.999974608,0.000000000,0.000000000,0.000000000,0.000000000,0.000000000,0.000000000,-0.722059989,0.000000000,4.180645466
1772660065.786540031,0.016618000,0.006573000,0.074230000,-0.007876090,0.010809070,-0.009193560,0.999868300,-0.015953000,0.021472000,-0.018560000,-0.000547961,0.000872961,-0.000345494,0.000252157,0.004298194,-0.008216066,0.014890365,0.002613300,1.000154518,-0.003561743,-0.000043866,0.000060126,0.000000000,0.000000000,0.000000000,0.000000000,0.017272845,0.006789732,0.074240001,0.032518958,0.011089643,0.001300096,0.010202785,0.006254517,-0.001073854,-0.184110600,0.291410862,-0.722115438,-0.001622654,-0.002532861,-0.006305656,0.999974615,0.000000000,0.000000000,0.000000000,0.000000000,0.000000000,0.000000000,-0.722022535,0.000000000,4.180645466
1772660065.796540499,0.016634000,0.006564000,0.074234000,-0.007771960,0.010933620,-0.009003070,0.999869490,-0.015743000,0.021726000,-0.018179000,-0.000403439,0.000849768,-0.000536286,0.014164765,-0.012986652,-0.003596183,0.015499070,0.000713274,1.001412261,-0.001638231,0.001562754,0.003124528,0.000000000,0.000000000,0.000000000,0.000000000,0.017264837,0.006788566,0.074237832,0.032473598,0.011270796,0.001218177,0.010821249,0.003309679,0.001553023,-0.183734199,0.290731113,-0.721598498,-0.001619321,-0.002526957,-0.006301127,0.999974717,0.000000000,0.000000000,0.000000000,0.000000000,0.000000000,0.000000000,-0.722036339,0.000000000,4.180645466
1772660065.806540728,0.016630000,0.006587000,0.074197000,-0.007681470,0.010638170,-0.009107520,0.999872430,-0.015559000,0.021135000,-0.018381000,0.000017657,0.000474826,-0.000621951,0.027794603,-0.032086084,0.005030794,0.015535719,-0.000072273,1.000949289,0.000278572,-0.000193413,0.002782089,0.000000000,0.000000000,0.000000000,0.000000000,0.017255690,0.006789570,0.074245376,0.032483374,0.011236379,0.001351775,0.010893579,0.003521373,0.001136194,-0.183305527,0.289503015,-0.720081023,-0.001615479,-0.002516285,-0.006287858,0.999974817,0.000000000,0.000000000,0.000000000,0.000000000,0.000000000,0.000000000,-0.720365480,0.000000000,4.180645466
1772660065.816540718,0.016618000,0.006601000,0.074192000,-0.007479360,0.010291440,-0.009142540,0.999877270,-0.015149000,0.020445000,-0.018442000,0.000981644,0.000413578,-0.001536132,0.060858602,-0.083242620,0.023276808,0.015080158,0.000643575,0.998913959,-0.000835301,-0.003071032,-0.002211494,0.000000000,0.000000000,0.000000000,0.000000000,0.017256253,0.006787029,0.074250754,0.032511166,0.011264471,0.001332359,0.010678635,0.004023134,-0.000357293,-0.183952226,0.289091627,-0.719010967,-0.001621076,-0.002512675,-0.006278529,0.999974847,0.000000000,0.000000000,0.000000000,0.000000000,0.000000000,0.000000000,-0.719381061,0.000000000,4.180645466
1772660065.826541901,0.016617000,0.006569000,0.074232000,-0.007690420,0.010742830,-0.009115120,0.999871170,-0.015579000,0.021344000,-0.018398000,0.001290794,0.000408003,-0.001746505,0.084960815,-0.123243246,0.035511723,0.016856469,0.000130748,0.999097694,0.000786092,-0.001016672,-0.003790598,0.000000000,0.000000000,0.000000000,0.000000000,0.017257554,0.006790003,0.074245492,0.032588634,0.011298015,0.001210456,0.011024492,0.003756584,-0.001099116,-0.184079784,0.288100068,-0.718889035,-0.001622133,-0.002504017,-0.006277453,0.999974828,0.000000000,0.000000000,0.000000000,0.000000000,0.000000000,0.000000000,-0.718932179,0.000000000,4.180645466
1772660065.836541891,0.016671000,0.006607000,0.074142000,-0.006411040,0.008848730,-0.008608910,0.999903240,-0.012976000,0.017586000,-0.017333000,0.001243455,0.000093842,-0.001149632,0.081267110,-0.114884469,0.039741489,0.016470020,-0.000004749,1.000193690,0.000808219,-0.000028824,-0.001991511,0.000000000,0.000000000,0.000000000,0.000000000,0.017256181,0.006800013,0.074231449,0.032715736,0.011339700,0.001069889,0.013015170,0.003669498,0.000224851,-0.183590514,0.288239953,-0.719703598,-0.001617889,-0.002505253,-0.006284553,0.999974810,0.000000000,0.000000000,0.000000000,0.000000000,0.000000000,0.000000000,-0.719391730,0.000000000,4.180645466
1772660065.846542835,0.016660000,0.006571000,0.074185000,-0.006590610,0.009179690,-0.008554560,0.999899550,-0.013340000,0.018246000,-0.017232000,0.000891473,-0.000189860,-0.000492094,0.056981516,-0.073936592,0.038181772,0.015563601,0.000053317,1.001612065,0.000454765,0.001082469,0.001205560,0.000000000,0.000000000,0.000000000,0.000000000,0.017252489,0.006806631,0.074226237,0.032822674,0.011372248,0.001084526,0.010125556,0.002508973,0.000999997,-0.182754098,0.287283877,-0.719557883,-0.001610534,-0.002496958,-0.006283250,0.999974922,0.000000000,0.000000000,0.000000000,0.000000000,0.000000000,0.000000000,-0.719824841,0.000000000,4.180645466
1772660065.856543303,0.016693000,0.006612000,0.074115000,-0.005608340,0.007601430,-0.008182840,0.999921900,-0.011342000,0.015110000,-0.016452000,-0.000032653,-0.000163015,0.000316589,0.010496311,-0.012565759,0.017563881,0.015746222,-0.000076958,1.001751053,0.000661896,0.001806228,0.001381249,0.000000000,0.000000000,0.000000000,0.000000000,0.017252781,0.006798979,0.074236614,0.032847297,0.011297536,0.001229619,0.010613760,0.003345938,0.002044305,-0.182553508,0.286444899,-0.718184001,-0.001608708,-0.002489667,-0.006271245,0.999975022,0.000000000,0.000000000,0.000000000,0.000000000,0.000000000,0.000000000,-0.718698549,0.000000000,4.180645466
1772660065.866543055,0.016654000,0.006583000,0.074191000,-0.006262840,0.008729750,-0.008359250,0.999907340,-0.012673000,0.017354000,-0.016830000,-0.000981100,-0.000273854,0.001162841,-0.038298652,0.055145764,-0.002803055,0.015303701,0.000096397,1.000306104,0.000091039,-0.001176407,-0.001558841,0.000000000,0.000000000,0.000000000,0.000000000,0.017274630,0.006810354,0.074205222,0.032920057,0.011329628,0.001146495,0.010750159,0.003226683,0.001216556,-0.182721731,0.286174604,-0.716706158,-0.001610129,-0.002487320,-0.006258349,0.999975073,0.000000000,0.000000000,0.000000000,0.000000000,0.000000000,0.000000000,-0.716860633,0.000000000,4.180645466
1772660065.876543522,0.016652000,0.006575000,0.074192000,-0.006695990,0.009400350,-0.008407290,0.999898050,-0.013551000,0.018687000,-0.016943000,-0.001291979,-0.000662219,0.001917193,-0.074481021,0.105521910,-0.016730452,0.015574593,0.000385362,1.000832304,0.001766731,-0.005536258,-0.001658775,0.000000000,0.000000000,0.000000000,0.000000000,0.017286989,0.006800871,0.074203073,0.033004765,0.011292851,0.001181843,0.010195673,0.003250970,0.000131502,-0.182404631,0.286352495,-0.715801266,-0.001607352,-0.002488902,-0.006250448,0.999975085,0.000000000,0.000000000,0.000000000,0.000000000,0.000000000,0.000000000,-0.716060889,0.000000000,4.180645466
1772660065.886544466,0.016633000,0.006581000,0.074200000,-0.007001010,0.009763870,-0.008531490,0.999891430,-0.014170000,0.019407000,-0.017202000,-0.000769853,-0.000584577,0.001359481,-0.067307576,0.099422242,-0.021855954,0.014896350,-0.001420768,1.000485844,-0.001770715,0.002735487,-0.001333476,0.000000000,0.000000000,0.000000000,0.000000000,0.017307734,0.006814837,0.074168830,0.032972134,0.011242293,0.000991843,0.010147630,0.002048769,0.000770957,-0.181880472,0.287450873,-0.714854084,-0.001602817,-0.002498529,-0.006242186,0.999975132,0.000000000,0.000000000,0.000000000,0.000000000,0.000000000,0.000000000,-0.714950467,0.000000000,4.180645466
1772660065.896545649,0.016628000,0.006573000,0.074226000,-0.007394660,0.010253990,-0.008719550,0.999882070,-0.014970000,0.020378000,-0.017593000,-0.000429313,-0.000484519,0.000905790,-0.061751713,0.091877686,-0.029731340,0.015913283,-0.001575250,0.998886092,0.000866412,0.003997370,-0.000361349,0.000000000,0.000000000,0.000000000,0.000000000,0.017299326,0.006806851,0.074187587,0.032954581,0.011037214,0.001034521,0.010548223,0.001513335,-0.000616603,-0.181588855,0.287424971,-0.714529148,-0.001600264,-0.002498323,-0.006239344,0.999975145,0.000000000,0.000000000,0.000000000,0.000000000,0.000000000,0.000000000,-0.714575446,0.000000000,4.180645466
1772660065.906545639,0.016636000,0.006567000,0.074209000,-0.007433390,0.010423320,-0.008633280,0.999880780,-0.015049000,0.020717000,-0.017424000,0.000261073,0.000314860,-0.000397689,-0.023484658,0.040096198,-0.025348799,0.015806643,-0.001276977,0.999929029,-0.001538992,0.003665570,-0.001675782,0.000000000,0.000000000,0.000000000,0.000000000,0.017293899,0.006798032,0.074198248,0.032973813,0.010872011,0.000943081,0.010364908,0.002156977,-0.000225985,-0.180255839,0.287987269,-0.714305374,-0.001588657,-0.002503306,-0.006237370,0.999975222,0.000000000,0.000000000,0.000000000,0.000000000,0.000000000,0.000000000,-0.714374592,0.000000000,4.180645466
1772660065.916545153,0.016643000,0.006566000,0.074220000,-0.007484760,0.010467720,-0.008807910,0.999878410,-0.015156000,0.020803000,-0.017775000,0.000140055,0.000282498,-0.000280187,-0.015718576,0.025245272,-0.023736369,0.014709589,-0.000020674,1.000619143,-0.002273991,0.002881988,0.001894334,0.000000000,0.000000000,0.000000000,0.000000000,0.017284608,0.006793877,0.074206392,0.032927571,0.010815279,0.000965348,0.010086367,0.002393111,0.001166365,-0.180528424,0.285287942,-0.713816321,-0.001590878,-0.002479742,-0.006233072,0.999975264,0.000000000,0.000000000,0.000000000,0.000000000,0.000000000,0.000000000,-0.713964040,0.000000000,4.180645466
1772660065.926545858,0.016639000,0.006568000,0.074217000,-0.007633390,0.010905630,-0.009083680,0.999870130,-0.015467000,0.021671000,-0.018337000,0.000397961,0.000065851,-0.000363753,-0.008860789,0.008450208,-0.011605948,0.014719349,-0.000854946,1.001417430,-0.001533267,0.001380091,0.001079047,0.000000000,0.000000000,0.000000000,0.000000000,0.017162739,0.006753596,0.074212708,0.032535680,0.010697591,0.001012512,0.010175498,0.001886601,0.001419137,-0.181161055,0.284618124,-0.713422433,-0.001596354,-0.002473868,-0.006229639,0.999975298,0.000000000,0.000000000,0.000000000,0.000000000,0.000000000,0.000000000,-0.713591102,0.000000000,4.180645466
1772660065.936546803,0.016640000,0.006594000,0.074190000,-0.007692530,0.010739160,-0.009125040,0.999871110,-0.015583000,0.021337000,-0.018418000,0.000337258,-0.000059615,-0.000085509,-0.005598813,-0.004976997,0.000076129,0.014648262,-0.001130287,1.001992721,0.000369897,-0.000421180,0.000885581,0.000000000,0.000000000,0.000000000,0.000000000,0.016950113,0.006682187,0.074217939,0.031883841,0.010495983,0.001036542,0.010057074,0.001969057,0.002026584,-0.181377328,0.284077834,-0.712088230,-0.001598183,-0.002469160,-0.006217993,0.999975376,0.000000000,0.000000000,0.000000000,0.000000000,0.000000000,0.000000000,-0.713026901,0.000000000,4.180645466
1772660065.946546793,0.016643000,0.006581000,0.074205000,-0.007557530,0.010643920,-0.008980030,0.999874470,-0.015308000,0.021151000,-0.018124000,0.000154448,-0.000216026,0.000246348,-0.007115737,-0.008311781,0.008246662,0.014082556,0.000462785,1.001956674,0.004078126,-0.002302575,0.003372763,0.000000000,0.000000000,0.000000000,0.000000000,0.016946353,0.006676266,0.074218666,0.031871725,0.010381462,0.001120850,0.009546054,0.002647001,0.002089717,-0.181279092,0.283539077,-0.710381136,-0.001597260,-0.002464488,-0.006203087,0.999975454,0.000000000,0.000000000,0.000000000,0.000000000,0.000000000,0.000000000,-0.711098461,0.000000000,4.180645466
1772660065.956546307,0.016641000,0.006561000,0.074216000,-0.007785830,0.010535660,-0.008897820,0.999874600,-0.015761000,0.020932000,-0.017962000,-0.000023699,-0.000388501,0.000296756,-0.002438826,-0.009454878,0.017859051,0.014823029,-0.000305123,1.000761007,-0.001018726,0.003768130,0.001027648,0.000000000,0.000000000,0.000000000,0.000000000,0.016948803,0.006672049,0.074223974,0.031848326,0.010353627,0.001280374,0.009989280,0.003209751,0.001504455,-0.180805074,0.282799457,-0.708878852,-0.001593051,-0.002458080,-0.006189957,0.999975532,0.000000000,0.000000000,0.000000000,0.000000000,0.000000000,0.000000000,-0.709274860,0.000000000,4.180645466
1772660065.966546297,0.016660000,0.006557000,0.074219000,-0.007663820,0.010529920,-0.008721230,0.999877160,-0.015513000,0.020925000,-0.017606000,-0.000085101,-0.000221950,0.000171950,0.006480731,-0.014794049,0.012697793,0.015634845,0.000085001,1.000651974,-0.000401197,0.003685021,0.002247696,0.000000000,0.000000000,0.000000000,0.000000000,0.016949319,0.006670313,0.074227275,0.031819928,0.010338770,0.001384093,0.010559200,0.003002233,0.000373059,-0.180657430,0.282072846,-0.707717845,-0.001591699,-0.002451763,-0.006179813,0.999975594,0.000000000,0.000000000,0.000000000,0.000000000,0.000000000,0.000000000,-0.707964494,0.000000000,4.180645466
1772660065.976546288,0.016642000,0.006570000,0.074219000,-0.007687930,0.010564030,-0.008810750,0.999875830,-0.015564000,0.020991000,-0.017787000,-0.000361519,0.000265832,-0.000226982,0.012040930,-0.013643143,0.000534652,0.014794006,-0.000818732,0.998860787,0.000823949,0.001139247,-0.002670491,0.000000000,0.000000000,0.000000000,0.000000000,0.016949464,0.006677687,0.074220722,0.031867866,0.010396507,0.001397135,0.010003148,0.002033189,-0.000651476,-0.180837409,0.281802241,-0.707768258,-0.001593256,-0.002449392,-0.006180253,0.999975622,0.000000000,0.000000000,0.000000000,0.000000000,0.000000000,0.000000000,-0.707760253,0.000000000,4.180645466
1772660065.986546755,0.016632000,0.006575000,0.074207000,-0.007642850,0.010534980,-0.008840290,0.999876220,-0.015474000,0.020934000,-0.017844000,-0.000526555,0.000787239,-0.000485257,0.013107895,-0.017035601,-0.007287790,0.014996928,-0.002530517,1.000526890,-0.001525955,0.000126095,-0.000799313,0.000000000,0.000000000,0.000000000,0.000000000,0.016950627,0.006683021,0.074216041,0.031919142,0.010409908,0.001310608,0.009351133,0.000974278,-0.000427062,-0.181144106,0.280163437,-0.706659369,-0.001595821,-0.002435090,-0.006170560,0.999975669,0.000000000,0.000000000,0.000000000,0.000000000,0.000000000,0.000000000,-0.706987080,0.000000000,4.180645466
1772660065.996546268,0.016632000,0.006574000,0.074209000,-0.007493970,0.010405710,-0.008814920,0.999878920,-0.015173000,0.020678000,-0.017788000,-0.000343240,0.000355770,-0.000099281,0.010729411,-0.012734270,-0.005154606,0.014053859,-0.001745187,1.000996115,-0.000502829,0.000411493,0.000385331,0.000000000,0.000000000,0.000000000,0.000000000,0.016951657,0.006678640,0.074218679,0.031923009,0.010275632,0.001232794,0.009392481,0.000896215,0.000974093,-0.182064142,0.280018148,-0.707261146,-0.001603854,-0.002433764,-0.006175830,0.999975724,0.000000000,0.000000000,0.000000000,0.000000000,0.000000000,0.000000000,-0.707002132,0.000000000,4.180645466
1772660066.006546736,0.016637000,0.006590000,0.074192000,-0.007356050,0.010096480,-0.008966860,0.999881770,-0.014895000,0.020060000,-0.018085000,-0.000483722,-0.000128361,0.000625719,-0.008743543,0.012959590,-0.010304161,0.013424787,-0.000285759,0.999966226,0.001459093,0.001654535,0.000399011,0.000000000,0.000000000,0.000000000,0.000000000,0.016953908,0.006669843,0.074223243,0.031904921,0.010074014,0.001246162,0.008464427,0.002173511,-0.000145177,-0.182750584,0.279299720,-0.706297134,-0.001609785,-0.002427471,-0.006167422,0.999975687,0.000000000,0.000000000,0.000000000,0.000000000,0.000000000,0.000000000,-0.706793314,0.000000000,4.180645466
1772660066.016546488,0.016624000,0.006589000,0.074206000,-0.007463690,0.010194440,-0.008916480,0.999880420,-0.015111000,0.020255000,-0.017988000,0.000311714,0.000160762,-0.000299592,0.007813342,-0.010834082,-0.003258810,0.013700766,0.000760253,0.998784336,0.001333229,0.003494915,-0.000630126,0.000000000,0.000000000,0.000000000,0.000000000,0.016961187,0.006663233,0.074226787,0.031870063,0.009943895,0.001310622,0.009169416,0.003850790,-0.000866694,-0.182541769,0.277738938,-0.705834415,-0.001607869,-0.002413869,-0.006163358,0.999975737,0.000000000,0.000000000,0.000000000,0.000000000,0.000000000,0.000000000,-0.705737227,0.000000000,4.180645466
1772660066.026546240,0.016632000,0.006573000,0.074225000,-0.007564950,0.010367310,-0.008878370,0.999878230,-0.015316000,0.020599000,-0.017916000,0.000637374,0.000235742,-0.000742736,0.027042935,-0.034419705,0.005239652,0.014327522,0.001477466,0.998377980,-0.000662524,0.005123228,-0.001778083,0.000000000,0.000000000,0.000000000,0.000000000,0.016957416,0.006664766,0.074228422,0.031763546,0.009959940,0.001231033,0.009357102,0.004898815,-0.001634447,-0.181835175,0.276219058,-0.705920396,-0.001601623,-0.002400642,-0.006164072,0.999975781,0.000000000,0.000000000,0.000000000,0.000000000,0.000000000,0.000000000,-0.706010366,0.000000000,4.180645466
1772660066.036545992,0.016641000,0.006560000,0.074220000,-0.007526150,0.010456240,-0.008848570,0.999877860,-0.015239000,0.020778000,-0.017857000,0.000617522,0.000056915,-0.000740230,0.036701518,-0.046403005,0.012945190,0.013926573,0.002041329,0.999238737,0.000857639,0.003215574,0.002553203,0.000000000,0.000000000,0.000000000,0.000000000,0.016951803,0.006667587,0.074225648,0.031711626,0.010059023,0.001090564,0.009274480,0.005308156,-0.001627445,-0.181271079,0.275638100,-0.705612392,-0.001596663,-0.002395607,-0.006161365,0.999975828,0.000000000,0.000000000,0.000000000,0.000000000,0.000000000,0.000000000,-0.705719555,0.000000000,4.180645466
1772660066.046546459,0.016627000,0.006594000,0.074200000,-0.007375000,0.010329290,-0.009068980,0.999878330,-0.014939000,0.020524000,-0.018293000,0.000488481,-0.000039821,-0.000571834,0.036847398,-0.045723926,0.013492483,0.014676602,-0.000151748,0.998973129,-0.001053493,0.003181248,0.003463674,0.000000000,0.000000000,0.000000000,0.000000000,0.016947645,0.006672030,0.074220321,0.031679790,0.010196436,0.000926841,0.009372542,0.004389070,-0.000560611,-0.180829526,0.274325550,-0.703230039,-0.001592690,-0.002384210,-0.006140548,0.999975888,0.000000000,0.000000000,0.000000000,0.000000000,0.000000000,0.000000000,-0.704078038,0.000000000,4.180645466
1772660066.056545973,0.016682000,0.006613000,0.074119000,-0.006306330,0.008546270,-0.008585120,0.999906740,-0.012760000,0.016983000,-0.017280000,0.000222941,-0.000115793,-0.000165812,0.024081669,-0.026715200,0.008950571,0.015239790,-0.001882917,0.998590603,-0.001739296,0.001061517,-0.000171407,0.000000000,0.000000000,0.000000000,0.000000000,0.016945797,0.006677678,0.074214075,0.031647038,0.010340749,0.000763256,0.011147711,0.000795426,-0.001135950,-0.181515520,0.273308821,-0.700774638,-0.001598571,-0.002375335,-0.006119121,0.999975964,0.000000000,0.000000000,0.000000000,0.000000000,0.000000000,0.000000000,-0.701586223,0.000000000,4.180645466
1772660066.066545486,0.016647000,0.006565000,0.074211000,-0.006754110,0.009477230,-0.008595310,0.999895340,-0.013673000,0.018837000,-0.017321000,-0.000169173,-0.000225078,0.000427312,0.004902974,0.002620684,0.007889476,0.014405865,-0.000692413,0.999608243,-0.001940949,0.000382834,-0.000506170,0.000000000,0.000000000,0.000000000,0.000000000,0.016942860,0.006682813,0.074209898,0.031658988,0.010395114,0.000604980,0.009485674,0.001691248,-0.000515128,-0.181937497,0.273985842,-0.700523899,-0.001602284,-0.002381224,-0.006116951,0.999976040,0.000000000,0.000000000,0.000000000,0.000000000,0.000000000,0.000000000,-0.700384498,0.000000000,4.180645466
1772660066.076545715,0.016636000,0.006567000,0.074218000,-0.007102760,0.009848780,-0.008715210,0.999888290,-0.014379000,0.019573000,-0.017573000,-0.000361034,-0.000649437,0.001084655,-0.019370283,0.038434994,0.002577485,0.014323524,-0.000360026,1.000093107,-0.000390251,0.000823986,-0.001408276,0.000000000,0.000000000,0.000000000,0.000000000,0.016938722,0.006684525,0.074212636,0.031745818,0.010252389,0.000490991,0.009372627,0.002877214,0.000541230,-0.182767847,0.274014692,-0.699506845,-0.001609511,-0.002381446,-0.006108094,0.999976116,0.000000000,0.000000000,0.000000000,0.000000000,0.000000000,0.000000000,-0.699997103,0.000000000,4.180645466
1772660066.086545944,0.016640000,0.006575000,0.074206000,-0.007189130,0.010090560,-0.008823830,0.999884310,-0.014558000,0.020053000,-0.017795000,-0.000863812,-0.000746485,0.001590095,-0.052949753,0.082983161,-0.015308928,0.013958478,-0.000073598,0.999306951,-0.001162886,0.001058012,-0.003187129,0.000000000,0.000000000,0.000000000,0.000000000,0.016940928,0.006677492,0.074220725,0.031715380,0.010200327,0.000495174,0.009297339,0.002649520,-0.000790922,-0.182848676,0.274022506,-0.699230659,-0.001610211,-0.002381514,-0.006105685,0.999976191,0.000000000,0.000000000,0.000000000,0.000000000,0.000000000,0.000000000,-0.699099674,0.000000000,4.180645466
1772660066.096545458,0.016638000,0.006566000,0.074219000,-0.007264800,0.010352870,-0.008737120,0.999881840,-0.014712000,0.020578000,-0.017627000,-0.000532091,0.000250797,0.000179196,-0.038480961,0.049726807,-0.023874814,0.013332681,0.000929101,1.000375665,-0.001179974,-0.000170620,-0.001003884,0.000000000,0.000000000,0.000000000,0.000000000,0.016944143,0.006672148,0.074220624,0.031725157,0.010154220,0.000472455,0.008818426,0.004547731,-0.000803000,-0.182784231,0.273462350,-0.698444693,-0.001609602,-0.002376640,-0.006098817,0.999976267,0.000000000,0.000000000,0.000000000,0.000000000,0.000000000,0.000000000,-0.698867221,0.000000000,4.180645466
1772660066.106545687,0.016638000,0.006574000,0.074207000,-0.007225050,0.010206560,-0.008768050,0.999883370,-0.014631000,0.020285000,-0.017686000,0.000663987,0.000509499,-0.001383199,0.005685315,-0.029604181,-0.006415492,0.014303654,0.000806279,1.001496837,0.001558326,-0.001382958,0.001239565,0.000000000,0.000000000,0.000000000,0.000000000,0.016946898,0.006685992,0.074201066,0.031633913,0.010267588,0.000305606,0.009641191,0.004243400,0.002453211,-0.182704704,0.273268762,-0.697210903,-0.001608872,-0.002374972,-0.006088047,0.999976343,0.000000000,0.000000000,0.000000000,0.000000000,0.000000000,0.000000000,-0.697490367,0.000000000,4.180645466
1772660066.116545439,0.016630000,0.006562000,0.074221000,-0.007570260,0.010512660,-0.008999370,0.999875590,-0.015332000,0.020888000,-0.018161000,0.000524534,0.000187335,-0.000759053,0.015624024,-0.049172342,0.002046384,0.014683959,0.000498478,1.000488642,-0.001112593,0.001868965,0.001510274,0.000000000,0.000000000,0.000000000,0.000000000,0.016964137,0.006693754,0.074172586,0.031621162,0.010413110,0.000248173,0.010350289,0.003810098,0.000308642,-0.182026564,0.272927759,-0.695276948,-0.001602897,-0.002372059,-0.006071151,0.999976419,0.000000000,0.000000000,0.000000000,0.000000000,0.000000000,0.000000000,-0.695883651,0.000000000,4.180645466
1772660066.126545906,0.016622000,0.006582000,0.074215000,-0.007747640,0.010525750,-0.009186880,0.999872380,-0.015691000,0.020908000,-0.018540000,0.000246912,0.000312063,-0.000580051,0.019582120,-0.055052918,0.006036091,0.014641975,-0.000651872,0.999547043,-0.001789442,0.003413069,0.001912885,0.000000000,0.000000000,0.000000000,0.000000000,0.016958450,0.006680658,0.074194323,0.031620126,0.010449958,0.000495527,0.009747022,0.002898878,-0.000657855,-0.181379635,0.272320280,-0.693861578,-0.001597190,-0.002366812,-0.006058779,0.999976495,0.000000000,0.000000000,0.000000000,0.000000000,0.000000000,0.000000000,-0.694112070,0.000000000,4.180645466
1772660066.136545897,0.016679000,0.006600000,0.074137000,-0.006589180,0.008706240,-0.008691230,0.999902620,-0.013331000,0.017297000,-0.017499000,-0.000050660,0.000356721,-0.000239045,0.018999881,-0.044755081,0.004789279,0.014765979,-0.001801752,0.999606443,-0.000010630,0.000244113,0.001403036,0.000000000,0.000000000,0.000000000,0.000000000,0.016951724,0.006675830,0.074207641,0.031633959,0.010470975,0.000532668,0.010559460,0.000692663,-0.000434601,-0.181519785,0.271095788,-0.693254136,-0.001598335,-0.002356128,-0.006053464,0.999976570,0.000000000,0.000000000,0.000000000,0.000000000,0.000000000,0.000000000,-0.693365448,0.000000000,4.180645466
1772660066.146546602,0.016659000,0.006559000,0.074200000,-0.006948120,0.009292960,-0.008598380,0.999895710,-0.014057000,0.018466000,-0.017328000,-0.000232790,-0.000094833,0.000450486,0.010007782,-0.014481514,0.007644169,0.015776760,-0.002021149,0.999589250,0.000155443,-0.003037613,-0.000185379,0.000000000,0.000000000,0.000000000,0.000000000,0.016949661,0.006675879,0.074209879,0.031666283,0.010372910,0.000453364,0.009952511,0.001008849,-0.000821034,-0.181294312,0.271283373,-0.693412167,-0.001596381,-0.002357775,-0.006054841,0.999976632,0.000000000,0.000000000,0.000000000,0.000000000,0.000000000,0.000000000,-0.693247134,0.000000000,4.180645466
1772660066.156547308,0.016618000,0.006586000,0.074219000,-0.007283420,0.009774950,-0.008876100,0.999886300,-0.014742000,0.019420000,-0.017897000,-0.000626632,-0.000136713,0.000789900,-0.008918525,0.021613288,-0.000158308,0.015827494,0.000931305,0.999193817,-0.002548848,0.001010738,-0.001073404,0.000000000,0.000000000,0.000000000,0.000000000,0.016948626,0.006673374,0.074212428,0.031782972,0.010146193,0.000376771,0.012282732,0.003452983,-0.000223783,-0.180122316,0.272979797,-0.693762758,-0.001586251,-0.002372635,-0.006057899,0.999976611,0.000000000,0.000000000,0.000000000,0.000000000,0.000000000,0.000000000,-0.693648099,0.000000000,4.180645466
1772660066.166547537,0.016626000,0.006588000,0.074202000,-0.007190890,0.009773800,-0.008882940,0.999886920,-0.014557000,0.019419000,-0.017909000,-0.000712569,-0.000315327,0.001002954,-0.035867598,0.057835087,-0.013279586,0.016219809,0.003115633,0.999509196,0.001780244,0.000027928,0.002349961,0.000000000,0.000000000,0.000000000,0.000000000,0.016946439,0.006669378,0.074216290,0.031922317,0.010121063,0.000308747,0.010747635,0.006362369,-0.000073961,-0.181193741,0.271171770,-0.694213552,-0.001595514,-0.002356795,-0.006061831,0.999976590,0.000000000,0.000000000,0.000000000,0.000000000,0.000000000,0.000000000,-0.694062397,0.000000000,4.180645466
1772660066.176547527,0.016628000,0.006574000,0.074219000,-0.007347210,0.009933780,-0.008967870,0.999883450,-0.014874000,0.019735000,-0.018084000,-0.000672903,0.000162588,0.000590036,-0.047598816,0.066986649,-0.022968276,0.015453898,0.001784188,0.999993716,-0.000532193,0.003299619,0.002082308,0.000000000,0.000000000,0.000000000,0.000000000,0.016942613,0.006670221,0.074218664,0.032059112,0.010373810,0.000284101,0.011220002,0.005404159,-0.000798537,-0.179931029,0.270599296,-0.693924602,-0.001584459,-0.002351870,-0.006059275,0.999976593,0.000000000,0.000000000,0.000000000,0.000000000,0.000000000,0.000000000,-0.694013024,0.000000000,4.180645466
1772660066.186548233,0.016634000,0.006564000,0.074220000,-0.007539710,0.010310190,-0.008888300,0.999878920,-0.015265000,0.020485000,-0.017935000,0.000313248,0.000185470,-0.000543105,-0.024568858,0.024015701,-0.011111871,0.014709664,0.000018057,1.000699600,-0.003025511,0.002419247,0.002436094,0.000000000,0.000000000,0.000000000,0.000000000,0.016947285,0.006679573,0.074206779,0.032182288,0.010679114,0.000229992,0.010247215,0.003398241,0.000565387,-0.179424247,0.269021136,-0.693303180,-0.001579940,-0.002338134,-0.006053821,0.999976657,0.000000000,0.000000000,0.000000000,0.000000000,0.000000000,0.000000000,-0.693491236,0.000000000,4.180645466
1772660066.196547985,0.016617000,0.006590000,0.074210000,-0.007783090,0.010466750,-0.009128330,0.999873260,-0.015759000,0.020790000,-0.018422000,0.000429915,-0.000126166,-0.000320610,-0.015006710,0.013266154,-0.002324604,0.014108186,-0.000662885,1.001739988,-0.002745334,0.001142880,0.002322685,0.000000000,0.000000000,0.000000000,0.000000000,0.016966958,0.006688473,0.074179542,0.032313098,0.010847964,0.000089245,0.009569566,0.001357573,0.001664941,-0.179962151,0.268186084,-0.692988381,-0.001584584,-0.002330822,-0.006051074,0.999976757,0.000000000,0.000000000,0.000000000,0.000000000,0.000000000,0.000000000,-0.692975253,0.000000000,4.180645466
1772660066.206548452,0.016636000,0.006578000,0.074209000,-0.007826580,0.010450990,-0.009089920,0.999873440,-0.015845000,0.020759000,-0.018346000,-0.000116725,-0.000204779,0.000299534,-0.019506854,0.027380524,-0.005371982,0.014291780,0.000882359,1.002325152,-0.000093089,0.002954155,0.000324334,0.000000000,0.000000000,0.000000000,0.000000000,0.016968491,0.006677631,0.074191349,0.032336055,0.010766502,0.000232160,0.009261742,0.003974915,0.002485217,-0.180970125,0.266898980,-0.691736817,-0.001593287,-0.002319555,-0.006040154,0.999976839,0.000000000,0.000000000,0.000000000,0.000000000,0.000000000,0.000000000,-0.692440133,0.000000000,4.180645466
1772660066.216548443,0.016624000,0.006591000,0.074206000,-0.007775510,0.010442800,-0.009111250,0.999873730,-0.015743000,0.020743000,-0.018388000,0.000487122,0.000050641,-0.000586675,0.011082343,-0.008174418,0.002305717,0.015356086,0.001792240,1.001777821,0.000789817,0.002802361,0.000451384,0.000000000,0.000000000,0.000000000,0.000000000,0.016950715,0.006684489,0.074206795,0.032224797,0.010716083,0.000494200,0.010330352,0.004127518,0.001645099,-0.181397602,0.265036860,-0.690167855,-0.001596887,-0.002303304,-0.006026446,0.999976922,0.000000000,0.000000000,0.000000000,0.000000000,0.000000000,0.000000000,-0.690251000,0.000000000,4.180645466
1772660066.226548672,0.016649000,0.006562000,0.074200000,-0.007598460,0.010201380,-0.008926250,0.999879250,-0.015381000,0.020266000,-0.018010000,0.000725389,0.000196232,-0.000971155,0.041561062,-0.044515987,0.011516922,0.014463982,-0.000560458,1.001575994,-0.001996247,0.004802340,0.003136668,0.000000000,0.000000000,0.000000000,0.000000000,0.016945498,0.006689089,0.074207667,0.032262200,0.010943096,0.000689995,0.009967713,0.003030950,0.001014783,-0.181570482,0.263543431,-0.689581978,-0.001598306,-0.002290271,-0.006021317,0.999977005,0.000000000,0.000000000,0.000000000,0.000000000,0.000000000,0.000000000,-0.689832842,0.000000000,4.180645466
1772660066.236548901,0.016632000,0.006579000,0.074210000,-0.007495800,0.010370260,-0.008987820,0.999877740,-0.015180000,0.020605000,-0.018134000,0.000687996,0.000291745,-0.001150156,0.061015174,-0.069940989,0.021914391,0.014846534,-0.000647563,1.001174251,-0.001105304,0.005818811,0.002692157,0.000000000,0.000000000,0.000000000,0.000000000,0.016945825,0.006682489,0.074216389,0.032296269,0.010943929,0.000791316,0.010433554,0.002263879,-0.000334031,-0.181897935,0.261969705,-0.688115601,-0.001601052,-0.002276541,-0.006008505,0.999977087,0.000000000,0.000000000,0.000000000,0.000000000,0.000000000,0.000000000,-0.688636626,0.000000000,4.180645466
1772660066.246548891,0.016635000,0.006570000,0.074210000,-0.007601060,0.010478690,-0.009029190,0.999875440,-0.015393000,0.020819000,-0.018220000,0.000295261,0.000271931,-0.000722281,0.056646162,-0.063026132,0.023912445,0.015735514,0.000000888,1.001369911,-0.000590882,0.004467996,-0.000404926,0.000000000,0.000000000,0.000000000,0.000000000,0.016943841,0.006680868,0.074221924,0.032334207,0.010931326,0.000857133,0.011120238,0.002731520,0.000637957,-0.181826202,0.260068265,-0.685744692,-0.001600280,-0.002259986,-0.005987788,0.999977170,0.000000000,0.000000000,0.000000000,0.000000000,0.000000000,0.000000000,-0.687269254,0.000000000,4.180645466
1772660066.256549835,0.016686000,0.006610000,0.074122000,-0.006382950,0.008673110,-0.008639800,0.999904690,-0.012917000,0.017235000,-0.017392000,-0.000405187,-0.000116239,0.000501108,0.017486581,-0.012048514,0.014306063,0.015496625,0.000378667,1.001856780,-0.001448769,0.004018920,-0.000601008,0.000000000,0.000000000,0.000000000,0.000000000,0.016941104,0.006687129,0.074220138,0.032429669,0.010920235,0.000882255,0.011433184,0.003178852,0.001301948,-0.181946333,0.258489562,-0.685067342,-0.001601232,-0.002246212,-0.005981859,0.999977253,0.000000000,0.000000000,0.000000000,0.000000000,0.000000000,0.000000000,-0.685901752,0.000000000,4.180645466
1772660066.266549110,0.016639000,0.006591000,0.074181000,-0.006594370,0.009137500,-0.008607540,0.999899460,-0.013347000,0.018161000,-0.017338000,-0.000368532,0.000100505,0.000257032,-0.001701219,0.007682576,0.007553328,0.015123360,-0.000242747,1.001159171,-0.003379643,0.002575248,-0.000320564,0.000000000,0.000000000,0.000000000,0.000000000,0.016945259,0.006687741,0.074218824,0.032600067,0.010966719,0.000996282,0.010651010,0.003452236,0.001075101,-0.182419905,0.256585517,-0.684591823,-0.001605256,-0.002229578,-0.005977692,0.999977335,0.000000000,0.000000000,0.000000000,0.000000000,0.000000000,0.000000000,-0.684786729,0.000000000,4.180645466
1772660066.276550293,0.016637000,0.006577000,0.074197000,-0.006825280,0.009422060,-0.008583500,0.999895480,-0.013814000,0.018726000,-0.017298000,0.000093027,0.000076030,-0.000036247,-0.005236548,0.000552527,0.001314035,0.014117587,0.000358179,1.000728635,-0.004876117,0.005015777,0.002339285,0.000000000,0.000000000,0.000000000,0.000000000,0.016948729,0.006687353,0.074216046,0.032732887,0.010962692,0.001079358,0.010268181,0.003295831,0.000885691,-0.182600431,0.255148735,-0.683585783,-0.001606737,-0.002217045,-0.005968896,0.999977418,0.000000000,0.000000000,0.000000000,0.000000000,0.000000000,0.000000000,-0.683837261,0.000000000,4.180645466
1772660066.286550283,0.016631000,0.006564000,0.074224000,-0.007283710,0.010296790,-0.008680820,0.999882780,-0.014748000,0.020466000,-0.017514000,-0.000224631,0.000122475,0.000311694,-0.008575845,0.008342277,-0.008041531,0.015388328,0.000404228,1.000687703,0.000502572,0.002331738,0.000512114,0.000000000,0.000000000,0.000000000,0.000000000,0.016954765,0.006681744,0.074215566,0.032798070,0.010964300,0.001126024,0.010209389,0.003576673,0.000037192,-0.183675939,0.252437791,-0.682289949,-0.001615957,-0.002193351,-0.005957571,0.999977490,0.000000000,0.000000000,0.000000000,0.000000000,0.000000000,0.000000000,-0.682672691,0.000000000,4.180645466
1772660066.296550751,0.016621000,0.006584000,0.074214000,-0.007616820,0.010482550,-0.008955450,0.999875940,-0.015423000,0.020828000,-0.018073000,-0.000123563,-0.000216162,0.000397786,-0.014211350,0.013162217,-0.010888481,0.015161295,0.000242858,0.997997464,-0.001485842,0.000184444,0.003488741,0.000000000,0.000000000,0.000000000,0.000000000,0.016954054,0.006681814,0.074218487,0.032844089,0.011025929,0.001174446,0.010804561,0.003538849,-0.000805658,-0.183547332,0.251970442,-0.681950456,-0.001614804,-0.002189284,-0.005954600,0.999977545,0.000000000,0.000000000,0.000000000,0.000000000,0.000000000,0.000000000,-0.682039246,0.000000000,4.180645466
1772660066.306550264,0.016683000,0.006612000,0.074123000,-0.006497300,0.008784780,-0.008628970,0.999903070,-0.013147000,0.017457000,-0.017374000,0.000295649,-0.000073446,-0.000186675,0.002945367,-0.012094593,0.001110328,0.015132185,0.000279828,0.998894058,-0.002451641,-0.000573203,0.000116307,0.000000000,0.000000000,0.000000000,0.000000000,0.016973110,0.006693893,0.074188023,0.032997653,0.011092618,0.000923949,0.010366509,0.003001765,-0.000559583,-0.182505111,0.250970196,-0.679504021,-0.001605610,-0.002180643,-0.005933216,0.999977599,0.000000000,0.000000000,0.000000000,0.000000000,0.000000000,0.000000000,-0.680284200,0.000000000,4.180645466
1772660066.316550493,0.016646000,0.006589000,0.074191000,-0.006680970,0.009023010,-0.008767860,0.999898530,-0.013521000,0.017928000,-0.017658000,-0.000203283,-0.000466007,0.000521640,-0.003752468,0.008966519,0.010602911,0.013908286,-0.000596163,1.003547144,-0.003316445,-0.001103719,-0.001328473,0.000000000,0.000000000,0.000000000,0.000000000,0.016973033,0.006693384,0.074188565,0.033020689,0.011102946,0.000950207,0.009181942,0.003503561,0.004128547,-0.183428355,0.249730066,-0.677351439,-0.001613562,-0.002169804,-0.005914433,0.999977654,0.000000000,0.000000000,0.000000000,0.000000000,0.000000000,0.000000000,-0.677886175,0.000000000,4.180645466
1772660066.326550484,0.016615000,0.006563000,0.074230000,-0.007143750,0.010002840,-0.008719150,0.999886440,-0.014464000,0.019880000,-0.017584000,-0.000294522,-0.000680848,0.000617639,-0.011314387,0.025569086,0.015450547,0.014170163,-0.000053950,1.000584588,-0.002806900,0.002134308,0.000785017,0.000000000,0.000000000,0.000000000,0.000000000,0.016962235,0.006685066,0.074207307,0.032993504,0.011090142,0.001127918,0.010487898,0.003843659,0.000312933,-0.183734694,0.248497021,-0.676010963,-0.001616147,-0.002159047,-0.005902725,0.999977708,0.000000000,0.000000000,0.000000000,0.000000000,0.000000000,0.000000000,-0.676106596,0.000000000,4.180645466
1772660066.336550713,0.016638000,0.006556000,0.074218000,-0.007457740,0.010262320,-0.008626470,0.999882320,-0.015094000,0.020395000,-0.017408000,-0.000546251,-0.000591395,0.001065794,-0.031041532,0.055554840,0.004620354,0.015237617,0.001896379,1.000749084,-0.001325676,0.000120329,-0.003751047,0.000000000,0.000000000,0.000000000,0.000000000,0.016964760,0.006689465,0.074201583,0.033025078,0.011161919,0.001151249,0.010201788,0.004484443,0.000803813,-0.183514650,0.247343866,-0.675264006,-0.001614153,-0.002149006,-0.005896186,0.999977763,0.000000000,0.000000000,0.000000000,0.000000000,0.000000000,0.000000000,-0.675441772,0.000000000,4.180645466
1772660066.346550703,0.016633000,0.006572000,0.074213000,-0.007391830,0.010276730,-0.008542050,0.999883380,-0.014961000,0.020426000,-0.017238000,-0.000701943,0.000121873,0.000635801,-0.041720164,0.056159235,-0.014210798,0.013573309,0.000564344,1.000057240,0.000501122,0.003246157,-0.002847311,0.000000000,0.000000000,0.000000000,0.000000000,0.016975563,0.006701764,0.074180662,0.033093153,0.011286237,0.001078677,0.009821363,0.003831165,0.000547825,-0.184436223,0.247099055,-0.675463830,-0.001622186,-0.002146819,-0.005897944,0.999977817,0.000000000,0.000000000,0.000000000,0.000000000,0.000000000,0.000000000,-0.675310703,0.000000000,4.180645466
1772660066.356551170,0.016629000,0.006570000,0.074210000,-0.007372550,0.010385850,-0.008630770,0.999881640,-0.014926000,0.020643000,-0.017417000,-0.000166628,0.000997631,-0.000597534,-0.020030953,0.010550810,-0.029926540,0.014947253,-0.001837260,1.000845343,-0.000888981,0.002673961,-0.002400649,0.000000000,0.000000000,0.000000000,0.000000000,0.016966125,0.006696017,0.074195803,0.033040283,0.011303721,0.001159756,0.010721244,0.001275975,0.000739357,-0.184330435,0.245863141,-0.676694433,-0.001621223,-0.002136022,-0.005908664,0.999977872,0.000000000,0.000000000,0.000000000,0.000000000,0.000000000,0.000000000,-0.676206865,0.000000000,4.180645466
1772660066.366550684,0.016631000,0.006583000,0.074197000,-0.007386560,0.010100860,-0.008852570,0.999882510,-0.014954000,0.020070000,-0.017857000,-0.000210295,0.000729158,-0.000279351,-0.014012531,-0.001552015,-0.036906884,0.015455380,-0.001289060,1.000299899,0.001766002,0.002426908,-0.003544512,0.000000000,0.000000000,0.000000000,0.000000000,0.016954781,0.006685070,0.074217259,0.032988262,0.011237255,0.001269582,0.011254777,0.001142063,0.000390842,-0.183717352,0.245613703,-0.677820642,-0.001615881,-0.002133861,-0.005918476,0.999977927,0.000000000,0.000000000,0.000000000,0.000000000,0.000000000,0.000000000,-0.677706459,0.000000000,4.180645466
1772660066.376551151,0.016610000,0.006588000,0.074235000,-0.007820850,0.010571320,-0.009210330,0.999871120,-0.015839000,0.020997000,-0.018589000,-0.000289006,0.000278050,0.000045047,-0.013240402,0.000523378,-0.032758928,0.015625205,0.000271776,0.999216368,-0.001328562,0.000730975,-0.000379739,0.000000000,0.000000000,0.000000000,0.000000000,0.017014298,0.006695519,0.074225317,0.033258871,0.011075467,0.001288685,0.011367851,0.003487038,-0.000690456,-0.182798618,0.244971436,-0.677751561,-0.001607829,-0.002128305,-0.005917847,0.999977981,0.000000000,0.000000000,0.000000000,0.000000000,0.000000000,0.000000000,-0.677835473,0.000000000,4.180645466
1772660066.386551142,0.016611000,0.006595000,0.074208000,-0.007847040,0.010480880,-0.009310650,0.999870940,-0.015891000,0.020814000,-0.018789000,0.000133955,-0.000128438,0.000011422,-0.010494902,-0.000654500,-0.018712930,0.015448578,-0.000035000,0.999209288,-0.000630949,-0.001032602,-0.000317454,0.000000000,0.000000000,0.000000000,0.000000000,0.017263491,0.006779102,0.074235439,0.034195480,0.011253718,0.001160034,0.010860769,0.003288114,-0.000622221,-0.182104979,0.244947531,-0.677379094,-0.001601768,-0.002128137,-0.005914583,0.999978036,0.000000000,0.000000000,0.000000000,0.000000000,0.000000000,0.000000000,-0.677486199,0.000000000,4.180645466
1772660066.396551609,0.016625000,0.006592000,0.074203000,-0.007733450,0.010337140,-0.009418090,0.999872310,-0.015664000,0.020527000,-0.018999000,0.000090696,-0.000098368,0.000012801,-0.001630182,-0.004507783,-0.004304286,0.015028172,-0.000664531,0.999377412,-0.000049253,0.000447382,-0.000208286,0.000000000,0.000000000,0.000000000,0.000000000,0.016980432,0.006686209,0.074223113,0.033369640,0.010990886,0.001091234,0.011024136,0.001355743,0.000060104,-0.181628150,0.244609453,-0.676663766,-0.001597576,-0.002125222,-0.005908328,0.999978090,0.000000000,0.000000000,0.000000000,0.000000000,0.000000000,0.000000000,-0.676952426,0.000000000,4.180645466
1772660066.406551600,0.016635000,0.006565000,0.074211000,-0.007642220,0.010363880,-0.009044240,0.999876190,-0.015474000,0.020588000,-0.018250000,0.000345377,-0.000217832,-0.000313520,0.010828745,-0.011312281,0.010614147,0.015089988,0.000004229,0.999069813,-0.001507366,0.001129489,0.002408429,0.000000000,0.000000000,0.000000000,0.000000000,0.017258200,0.006783761,0.074225140,0.034290212,0.011117550,0.000930053,0.010671298,0.003587973,-0.002100411,-0.182382280,0.243075028,-0.674738558,-0.001604043,-0.002111820,-0.005891520,0.999978145,0.000000000,0.000000000,0.000000000,0.000000000,0.000000000,0.000000000,-0.675427497,0.000000000,4.180645466
1772660066.416551590,0.016623000,0.006586000,0.074210000,-0.007628670,0.010180710,-0.009197680,0.999876770,-0.015447000,0.020220000,-0.018553000,0.000397456,-0.000247106,-0.000344600,0.015830890,-0.012889644,0.014271529,0.016480768,0.000199747,1.000180224,-0.001140233,0.001345649,0.003005082,0.000000000,0.000000000,0.000000000,0.000000000,0.016997885,0.006707887,0.074230261,0.033567928,0.010940725,0.000934259,0.012668105,0.004009443,0.001189411,-0.183426327,0.241279003,-0.672460043,-0.001613019,-0.002096125,-0.005871631,0.999978199,0.000000000,0.000000000,0.000000000,0.000000000,0.000000000,0.000000000,-0.672884285,0.000000000,4.180645466
1772660066.426551819,0.016627000,0.006581000,0.074210000,-0.007649550,0.010337300,-0.009142830,0.999875510,-0.015490000,0.020534000,-0.018446000,0.000117366,-0.000268765,0.000066453,0.009728276,0.002156989,0.013634954,0.016568359,0.001124606,0.999515786,0.000599190,0.000744923,0.000594643,0.000000000,0.000000000,0.000000000,0.000000000,0.017204660,0.006781823,0.074228276,0.034458230,0.011237934,0.000825522,0.012073584,0.004734182,0.000885790,-0.182668542,0.241426738,-0.672446459,-0.001606414,-0.002097453,-0.005871500,0.999978244,0.000000000,0.000000000,0.000000000,0.000000000,0.000000000,0.000000000,-0.672228695,0.000000000,4.180645466
1772660066.436552286,0.016620000,0.006589000,0.074205000,-0.007589210,0.010228190,-0.009151420,0.999877010,-0.015368000,0.020316000,-0.018461000,0.000015288,-0.000092813,-0.000121523,0.010826241,0.003582623,0.012879900,0.015644107,0.001960700,1.000483013,0.001596951,-0.000659955,0.000573576,0.000000000,0.000000000,0.000000000,0.000000000,0.016963619,0.006702241,0.074217368,0.033752421,0.011039990,0.000773212,0.011479049,0.005458938,0.000582161,-0.182289541,0.241354691,-0.672332859,-0.001603101,-0.002096845,-0.005870501,0.999978244,0.000000000,0.000000000,0.000000000,0.000000000,0.000000000,0.000000000,-0.672454181,0.000000000,4.180645466
1772660066.446552038,0.016647000,0.006571000,0.074190000,-0.007398900,0.010159400,-0.008918120,0.999881250,-0.014981000,0.020186000,-0.017989000,-0.000225233,-0.000275544,0.000351593,-0.001358007,0.014970461,0.003980372,0.014554586,0.001347568,1.001360099,0.001848101,-0.003547593,0.000798219,0.000000000,0.000000000,0.000000000,0.000000000,0.017278522,0.006791566,0.074223939,0.034891517,0.011526075,0.000752929,0.010672898,0.004758302,0.001013622,-0.181853741,0.241131606,-0.671878477,-0.001599278,-0.002094927,-0.005866526,0.999978298,0.000000000,0.000000000,0.000000000,0.000000000,0.000000000,0.000000000,-0.672059991,0.000000000,4.180645466
1772660066.456552744,0.016628000,0.006568000,0.074214000,-0.007469010,0.010411570,-0.009000060,0.999877400,-0.015127000,0.020688000,-0.018158000,0.000291589,-0.000003438,-0.000326613,0.016956304,-0.016440008,0.014492230,0.014770963,0.000011258,1.001481632,0.001515204,-0.001411055,-0.001911238,0.000000000,0.000000000,0.000000000,0.000000000,0.017055739,0.006721568,0.074219092,0.034232624,0.011355518,0.000727270,0.010828978,0.003504311,0.001090859,-0.181018235,0.241158452,-0.671286183,-0.001591978,-0.002095213,-0.005861342,0.999978355,0.000000000,0.000000000,0.000000000,0.000000000,0.000000000,0.000000000,-0.671452188,0.000000000,4.180645466
1772660066.466553450,0.016628000,0.006574000,0.074206000,-0.007372860,0.010274260,-0.008819530,0.999881140,-0.014929000,0.020417000,-0.017793000,0.000518823,0.000616162,-0.000947145,0.036794222,-0.053229928,0.016884123,0.015615951,0.001150031,1.000763148,0.002760619,-0.002825098,-0.000265882,0.000000000,0.000000000,0.000000000,0.000000000,0.016956268,0.006692772,0.074216261,0.033915807,0.011298769,0.000770169,0.010896586,0.003218610,0.001318081,-0.181202234,0.241166553,-0.670880794,-0.001593576,-0.002095280,-0.005857808,0.999978412,0.000000000,0.000000000,0.000000000,0.000000000,0.000000000,0.000000000,-0.671063086,0.000000000,4.180645466
1772660066.476553202,0.016629000,0.006584000,0.074201000,-0.007288680,0.010018460,-0.008890310,0.999883730,-0.014757000,0.019906000,-0.017929000,0.000278497,0.000675661,-0.000995863,0.042410944,-0.065803804,0.014731519,0.013789101,0.000655015,1.002558685,-0.002802108,-0.001093686,-0.001280222,0.000000000,0.000000000,0.000000000,0.000000000,0.016959886,0.006697487,0.074215237,0.033899059,0.011344537,0.000856877,0.009657459,0.004063342,0.002819173,-0.180140959,0.241104583,-0.670423642,-0.001584304,-0.002094799,-0.005853799,0.999978469,0.000000000,0.000000000,0.000000000,0.000000000,0.000000000,0.000000000,-0.670226302,0.000000000,4.180645466
1772660066.486552000,0.016628000,0.006579000,0.074205000,-0.007361390,0.009913960,-0.008935010,0.999883840,-0.014902000,0.019695000,-0.018018000,-0.000009246,0.000438909,-0.000660529,0.037832217,-0.064893271,0.012181700,0.015353472,0.002016443,1.003003173,-0.000704841,0.000017949,-0.001531866,0.000000000,0.000000000,0.000000000,0.000000000,0.016966325,0.006691611,0.074208844,0.033848043,0.011306417,0.000950732,0.010685380,0.004742642,0.002879592,-0.180246877,0.242185179,-0.670776267,-0.001585290,-0.002104219,-0.005856892,0.999978489,0.000000000,0.000000000,0.000000000,0.000000000,0.000000000,0.000000000,-0.670892171,0.000000000,4.180645466
1772660066.496552229,0.016677000,0.006617000,0.074123000,-0.006171210,0.008395830,-0.008407700,0.999910360,-0.012485000,0.016687000,-0.016921000,0.000146620,-0.000470455,0.000065948,0.022535394,-0.040750685,0.016086257,0.015100917,-0.001736148,0.999957338,-0.002474565,-0.000433028,-0.000327537,0.000000000,0.000000000,0.000000000,0.000000000,0.016963756,0.006685626,0.074213712,0.033766166,0.011400718,0.001222398,0.010996585,0.002058156,0.000958866,-0.180235696,0.242484056,-0.669960012,-0.001585192,-0.002106839,-0.005849773,0.999978497,0.000000000,0.000000000,0.000000000,0.000000000,0.000000000,0.000000000,-0.670122377,0.000000000,4.180645466
1772660066.506552219,0.016636000,0.006587000,0.074182000,-0.006628260,0.009039860,-0.008605140,0.999900140,-0.013413000,0.017965000,-0.017332000,-0.000179895,-0.000893707,0.001048661,-0.007148045,0.001744417,0.009493185,0.015032346,-0.003008346,1.000647731,-0.000411242,0.001863779,0.000631096,0.000000000,0.000000000,0.000000000,0.000000000,0.016959560,0.006684972,0.074217409,0.033811755,0.011438190,0.001357558,0.010365689,-0.000464582,0.000555830,-0.180480668,0.241417112,-0.669152030,-0.001587261,-0.002097527,-0.005842712,0.999978505,0.000000000,0.000000000,0.000000000,0.000000000,0.000000000,0.000000000,-0.669496651,0.000000000,4.180645466
1772660066.516552448,0.016613000,0.006565000,0.074212000,-0.007003610,0.009444240,-0.008721680,0.999892840,-0.014173000,0.018765000,-0.017578000,-0.000129118,-0.000987491,0.001313055,-0.033015916,0.028566624,0.003954648,0.016723378,-0.003073049,1.000725244,0.000402809,-0.000774203,-0.003855728,0.000000000,0.000000000,0.000000000,0.000000000,0.016967854,0.006692056,0.074201795,0.033920690,0.011088113,0.001288153,0.012785025,-0.000703079,0.000959902,-0.180678085,0.240004022,-0.669025711,-0.001588909,-0.002085187,-0.005841594,0.999978513,0.000000000,0.000000000,0.000000000,0.000000000,0.000000000,0.000000000,-0.668700053,0.000000000,4.180645466
1772660066.526551962,0.016635000,0.006557000,0.074220000,-0.007122700,0.009516980,-0.008555970,0.999892740,-0.014410000,0.018911000,-0.017250000,-0.000403905,-0.000467172,0.001182480,-0.051037557,0.050126639,-0.010035764,0.015845717,-0.002263934,1.000573330,-0.001601371,-0.001002984,0.000216762,0.000000000,0.000000000,0.000000000,0.000000000,0.016977105,0.006699641,0.074184768,0.034031328,0.010709522,0.001207338,0.012298130,0.001360757,0.000273693,-0.180763070,0.238890312,-0.669677930,-0.001589606,-0.002075455,-0.005847272,0.999978522,0.000000000,0.000000000,0.000000000,0.000000000,0.000000000,0.000000000,-0.669572346,0.000000000,4.180645466
1772660066.536551952,0.016644000,0.006549000,0.074227000,-0.007348470,0.009801080,-0.008521120,0.999888660,-0.014866000,0.019476000,-0.017189000,-0.000438073,0.000127370,0.000490035,-0.051303620,0.059213869,-0.016796180,0.014548380,-0.001514516,1.000455691,-0.004827958,0.001723931,0.000914100,0.000000000,0.000000000,0.000000000,0.000000000,0.016979509,0.006700827,0.074178596,0.034120060,0.010384608,0.001178342,0.011015438,0.001749023,0.000453782,-0.180948851,0.238489238,-0.669036450,-0.001591195,-0.002071955,-0.005841672,0.999978530,0.000000000,0.000000000,0.000000000,0.000000000,0.000000000,0.000000000,-0.669316308,0.000000000,4.180645466
1772660066.546552896,0.016631000,0.006579000,0.074212000,-0.007551340,0.009896760,-0.008758530,0.999884150,-0.015278000,0.019660000,-0.017669000,0.000264686,0.000812918,-0.001094776,-0.014243614,0.025466535,-0.003004557,0.014604176,-0.001796939,1.001154866,-0.004708755,0.003687104,0.001390273,0.000000000,0.000000000,0.000000000,0.000000000,0.016967108,0.006687705,0.074194522,0.034102441,0.010128720,0.001244505,0.010377904,0.001664849,0.000959144,-0.182948915,0.237574884,-0.668635770,-0.001608595,-0.002063879,-0.005838199,0.999978538,0.000000000,0.000000000,0.000000000,0.000000000,0.000000000,0.000000000,-0.668737533,0.000000000,4.180645466
1772660066.556553125,0.016637000,0.006576000,0.074199000,-0.007566450,0.009864620,-0.008778830,0.999884180,-0.015308000,0.019595000,-0.017709000,-0.000199010,0.000511228,-0.000605848,-0.009853796,0.039881942,-0.005266311,0.015413315,-0.000955258,0.999681838,0.000686454,-0.001646206,-0.001555193,0.000000000,0.000000000,0.000000000,0.000000000,0.016961357,0.006672240,0.074212877,0.034030213,0.009924058,0.001348830,0.011142384,0.001582123,0.000695731,-0.183434109,0.236161327,-0.667061874,-0.001612729,-0.002051541,-0.005824453,0.999978570,0.000000000,0.000000000,0.000000000,0.000000000,0.000000000,0.000000000,-0.667465727,0.000000000,4.180645466
1772660066.566553116,0.016607000,0.006592000,0.074203000,-0.007635750,0.010442040,-0.008887820,0.999876830,-0.015459000,0.020747000,-0.017938000,-0.000516007,0.000006605,0.000110995,-0.011605427,0.054518934,-0.004918141,0.016342219,0.000031830,0.999218730,0.000300379,-0.000856595,-0.000631914,0.000000000,0.000000000,0.000000000,0.000000000,0.016966023,0.006660794,0.074225118,0.034042191,0.009780647,0.001424537,0.011787698,0.003024532,-0.000752693,-0.182402059,0.237389284,-0.667118196,-0.001603786,-0.002062309,-0.005824944,0.999978627,0.000000000,0.000000000,0.000000000,0.000000000,0.000000000,0.000000000,-0.667069740,0.000000000,4.180645466
1772660066.576553106,0.016629000,0.006575000,0.074196000,-0.007569780,0.010597700,-0.008711550,0.999877240,-0.015326000,0.021062000,-0.017586000,-0.000028438,-0.000495591,0.000489336,-0.009118977,0.056396329,-0.000026667,0.016451065,0.000305137,0.999750950,-0.002112251,0.001042986,-0.000812805,0.000000000,0.000000000,0.000000000,0.000000000,0.016967462,0.006659797,0.074229117,0.034126179,0.009756928,0.001363778,0.012131726,0.003340484,0.000186780,-0.182762693,0.237737622,-0.667248515,-0.001606953,-0.002065328,-0.005826092,0.999978645,0.000000000,0.000000000,0.000000000,0.000000000,0.000000000,0.000000000,-0.667201367,0.000000000,4.180645466
1772660066.586552858,0.016641000,0.006565000,0.074200000,-0.007513020,0.010530960,-0.008594590,0.999879390,-0.015209000,0.020932000,-0.017350000,0.000224573,-0.000663948,0.000578944,-0.009489921,0.043084355,-0.002604034,0.015454019,-0.001583544,1.001167136,-0.000807336,0.000837213,-0.002680326,0.000000000,0.000000000,0.000000000,0.000000000,0.016966419,0.006666181,0.074225054,0.034237981,0.009840036,0.001243508,0.012302217,0.002682029,0.000011020,-0.183170034,0.237319150,-0.667035088,-0.001610483,-0.002061659,-0.005824231,0.999978602,0.000000000,0.000000000,0.000000000,0.000000000,0.000000000,0.000000000,-0.667122050,0.000000000,4.180645466
1772660066.596552849,0.016611000,0.006559000,0.074244000,-0.007912200,0.011322760,-0.008927910,0.999864730,-0.016029000,0.022503000,-0.018038000,0.000103419,-0.000527720,0.000670572,-0.021635762,0.026552194,-0.016987748,0.014494458,-0.002655927,1.001902317,-0.000888357,-0.000065878,-0.002170279,0.000000000,0.000000000,0.000000000,0.000000000,0.016966606,0.006669932,0.074218710,0.034335568,0.009899711,0.001209109,0.010637987,0.000355303,0.001845741,-0.183215085,0.236585515,-0.666932165,-0.001610837,-0.002055256,-0.005823324,0.999978602,0.000000000,0.000000000,0.000000000,0.000000000,0.000000000,0.000000000,-0.666919153,0.000000000,4.180645466
1772660066.606552601,0.016630000,0.006564000,0.074221000,-0.007845430,0.011127150,-0.008853250,0.999868120,-0.015890000,0.022114000,-0.017884000,0.000680964,0.000210723,-0.000777176,0.003180200,-0.030060085,-0.012672217,0.014487869,-0.000930209,1.001039554,-0.004127330,0.000785060,0.001572844,0.000000000,0.000000000,0.000000000,0.000000000,0.016954301,0.006678759,0.074216823,0.034348840,0.009794734,0.001260511,0.010171626,0.002380538,0.001019501,-0.183467811,0.235533357,-0.666504284,-0.001612981,-0.002046067,-0.005819580,0.999978655,0.000000000,0.000000000,0.000000000,0.000000000,0.000000000,0.000000000,-0.666834196,0.000000000,4.180645466
1772660066.616553068,0.016647000,0.006564000,0.074201000,-0.007692150,0.010824530,-0.008945890,0.999871810,-0.015580000,0.021510000,-0.018061000,0.000639997,0.000950933,-0.001446893,0.031724446,-0.069608566,-0.006299009,0.015420461,0.000817480,1.000062953,-0.000721811,0.003961378,0.000838330,0.000000000,0.000000000,0.000000000,0.000000000,0.016958430,0.006674297,0.074212708,0.034315258,0.009594590,0.001357918,0.011335536,0.003824276,0.000336704,-0.184393221,0.234261695,-0.665447471,-0.001620973,-0.002034938,-0.005810356,0.999978710,0.000000000,0.000000000,0.000000000,0.000000000,0.000000000,0.000000000,-0.665643371,0.000000000,4.180645466
1772660066.626553297,0.016631000,0.006575000,0.074199000,-0.007699460,0.010389400,-0.009070230,0.999875250,-0.015589000,0.020638000,-0.018303000,0.000693357,0.001021543,-0.001531645,0.056038448,-0.098660476,0.008271652,0.016397876,0.001114680,0.999295701,0.003964230,-0.002384836,-0.000768315,0.000000000,0.000000000,0.000000000,0.000000000,0.016965352,0.006667785,0.074212574,0.034333923,0.009632948,0.001341752,0.011749302,0.004175145,-0.000113919,-0.184737817,0.233037379,-0.664691880,-0.001623905,-0.002024248,-0.005803752,0.999978763,0.000000000,0.000000000,0.000000000,0.000000000,0.000000000,0.000000000,-0.664917310,0.000000000,4.180645466
1772660066.636553288,0.016644000,0.006575000,0.074196000,-0.007621240,0.010148700,-0.009035760,0.999878630,-0.015428000,0.020159000,-0.018229000,0.000431158,0.000536481,-0.000802604,0.057658134,-0.095413925,0.017985322,0.014458421,0.000721318,1.000062293,0.000868810,0.000370512,-0.001764643,0.000000000,0.000000000,0.000000000,0.000000000,0.016959924,0.006662519,0.074227225,0.034429348,0.009745900,0.001348292,0.011096079,0.004012712,-0.000418083,-0.184675011,0.232255624,-0.663653785,-0.001623299,-0.002017443,-0.005794681,0.999978847,0.000000000,0.000000000,0.000000000,0.000000000,0.000000000,0.000000000,-0.663903620,0.000000000,4.180645466
1772660066.646553040,0.016682000,0.006619000,0.074116000,-0.006398870,0.008767410,-0.008527520,0.999904730,-0.012948000,0.017425000,-0.017169000,-0.000151379,0.000101904,0.000333256,0.033882401,-0.051128366,0.013948420,0.014057452,0.000026221,0.999102174,-0.000358147,0.000839609,0.002704808,0.000000000,0.000000000,0.000000000,0.000000000,0.016958242,0.006660567,0.074234718,0.034493456,0.009856949,0.001328069,0.009982135,0.003467842,-0.000584299,-0.184232159,0.232460512,-0.663449282,-0.001619441,-0.002019257,-0.005792891,0.999978918,0.000000000,0.000000000,0.000000000,0.000000000,0.000000000,0.000000000,-0.663498143,0.000000000,4.180645466
1772660066.656553507,0.016639000,0.006588000,0.074203000,-0.006778960,0.009288110,-0.008745990,0.999895640,-0.013722000,0.018457000,-0.017620000,-0.000309344,-0.000392522,0.000953070,0.011149060,-0.013117502,0.013147355,0.014324498,-0.000299141,0.999507794,-0.000338441,0.002524483,0.001959692,0.000000000,0.000000000,0.000000000,0.000000000,0.016963290,0.006660867,0.074232084,0.034512424,0.009947506,0.001251083,0.009714564,0.002639044,-0.001204774,-0.183688358,0.232101530,-0.662152840,-0.001614655,-0.002016170,-0.005781564,0.999978955,0.000000000,0.000000000,0.000000000,0.000000000,0.000000000,0.000000000,-0.662622981,0.000000000,4.180645466
