t,px,py,pz,qx,qy,qz,qw,roll,pitch,yaw,vx,vy,vz,wx_vicon,wy_vicon,wz_vicon,imu_acc_x,imu_acc_y,imu_acc_z,imu_gyro_x,imu_gyro_y,imu_gyro_z,motor_motor_m1,motor_motor_m2,motor_motor_m3,motor_motor_m4,est_stateEstimate_x,est_stateEstimate_y,est_stateEstimate_z,est_stateEstimate_vx,est_stateEstimate_vy,est_stateEstimate_vz,est_stateEstimate_ax,est_stateEstimate_ay,est_stateEstimate_az,att_stateEstimate_roll,att_stateEstimate_pitch,att_stateEstimate_yaw,att_stateEstimate_qx,att_stateEstimate_qy,att_stateEstimate_qz,att_stateEstimate_qw,sp_ctrltarget_x,sp_ctrltarget_y,sp_ctrltarget_z,sp_ctrltarget_yaw,pid_controller_roll,pid_controller_pitch,pid_controller_yaw,pid_controller_cmd_thrust,pwr_pm_vbat
1772659498.199367285,0.016280000,0.006344000,0.058254000,-0.007863330,0.013581880,0.022170440,0.999631020,-0.015125000,0.027506000,0.044142000,-0.002850585,0.004976831,-0.002636619,0.002805078,0.036303908,0.006527066,0.011268475,0.001760138,0.997988988,-0.001797298,0.000806673,-0.000867841,0.000000000,0.000000000,0.000000000,0.000000000,0.016857878,0.006672352,0.058177879,0.031929879,0.015038230,-0.003930706,0.009390317,0.003655098,-0.001369371,-0.137956968,0.122768032,1.874758754,-0.001186211,-0.001090905,0.016358300,0.999863235,0.000000000,0.000000000,0.000000000,0.000000000,0.000000000,0.000000000,1.874350841,0.000000000,4.032844543
1772659498.209367037,0.016287000,0.006345000,0.058249000,-0.007845010,0.013591590,0.022369410,0.999626600,-0.015082000,0.027527000,0.044540000,-0.001350817,0.001806665,-0.000852002,0.001066597,0.012901031,-0.000250285,0.010493965,0.001503539,0.997041789,0.000431019,0.000119392,0.001440184,0.000000000,0.000000000,0.000000000,0.000000000,0.016876363,0.006655947,0.058176526,0.031972073,0.014948234,-0.003939115,0.008558252,0.004819314,-0.002813212,-0.137738222,0.123159646,1.877516568,-0.001184221,-0.001094320,0.016382361,0.999863016,0.000000000,0.000000000,0.000000000,0.000000000,0.000000000,0.000000000,1.878231254,0.000000000,4.032844543
1772659498.219367504,0.016268000,0.006374000,0.058240000,-0.007846690,0.013813330,0.022249930,0.999626210,-0.015079000,0.027969000,0.044298000,-0.000743357,0.000296523,0.000187277,-0.002672812,-0.002967103,-0.015502582,0.009812349,0.000781013,0.998262063,-0.000493696,-0.001627353,0.002577005,0.000000000,0.000000000,0.000000000,0.000000000,0.016900049,0.006650087,0.058174957,0.031960590,0.014910602,-0.004033008,0.007856985,0.003424046,-0.002914718,-0.136008652,0.124458013,1.880442053,-0.001168915,-0.001105431,0.016407891,0.999862969,0.000000000,0.000000000,0.000000000,0.000000000,0.000000000,0.000000000,1.880988289,0.000000000,4.032844543
1772659498.229367495,0.016260000,0.006375000,0.058228000,-0.007809400,0.013588460,0.022250400,0.999629570,-0.015015000,0.027518000,0.044303000,-0.000748486,-0.000013034,0.000641356,-0.007545659,-0.012234902,-0.034763221,0.009522521,0.000792994,0.999697122,-0.001498407,0.000135392,0.000467826,0.000000000,0.000000000,0.000000000,0.000000000,0.016919733,0.006655365,0.058169611,0.031850315,0.014832054,-0.004069000,0.006811212,0.003226615,-0.000261201,-0.134153453,0.126461663,1.885274535,-0.001152393,-0.001122697,0.016450055,0.999861997,0.000000000,0.000000000,0.000000000,0.000000000,0.000000000,0.000000000,1.886174488,0.000000000,4.032844543
1772659498.239368200,0.016192000,0.006415000,0.058255000,-0.008095590,0.013656320,0.021409150,0.999644740,-0.015607000,0.027653000,0.042611000,-0.001086481,0.000418551,0.000670377,-0.012654813,-0.015829507,-0.053575170,0.009887631,-0.000202058,0.999234368,0.000113569,0.001811076,0.000134443,0.000000000,0.000000000,0.000000000,0.000000000,0.016895479,0.006657540,0.058164343,0.031502254,0.014707960,-0.003947734,0.007656783,0.003096877,-0.000668918,-0.133384224,0.129251522,1.890294496,-0.001145231,-0.001146979,0.016493835,0.999861452,0.000000000,0.000000000,0.000000000,0.000000000,0.000000000,0.000000000,1.890805636,0.000000000,4.032844543
1772659498.249368668,0.016258000,0.006361000,0.058257000,-0.007864160,0.013388170,0.021790950,0.999641970,-0.015145000,0.027113000,0.043385000,-0.001477624,0.001131839,0.000434480,-0.017192763,-0.014700272,-0.067454196,0.010752978,-0.001237344,0.998535922,0.000786541,-0.000080973,0.000286704,0.000000000,0.000000000,0.000000000,0.000000000,0.016868838,0.006664533,0.058163708,0.031256394,0.014559349,-0.003873887,0.008145499,0.001194039,-0.001648468,-0.133439627,0.130773870,1.894232854,-0.001145455,-0.001160310,0.016528182,0.999861182,0.000000000,0.000000000,0.000000000,0.000000000,0.000000000,0.000000000,1.894887668,0.000000000,4.032844543
1772659498.259369135,0.016196000,0.006416000,0.058263000,-0.008232840,0.013518310,0.021043190,0.999653270,-0.015898000,0.027377000,0.041877000,-0.000583742,0.000480925,0.000223485,-0.019116118,-0.010172465,-0.054683393,0.011971760,-0.000615763,0.998824175,0.000381611,0.000788762,-0.001371249,0.000000000,0.000000000,0.000000000,0.000000000,0.016838496,0.006676087,0.058172165,0.031090253,0.014395818,-0.003832909,0.009649821,0.001826861,-0.001200919,-0.133036940,0.131309776,1.894315516,-0.001141864,-0.001164929,0.016528900,0.999861031,0.000000000,0.000000000,0.000000000,0.000000000,0.000000000,0.000000000,1.894190325,0.000000000,4.032844543
1772659498.269369125,0.016256000,0.006372000,0.058253000,-0.008102550,0.013354200,0.021302230,0.999651050,-0.015637000,0.027048000,0.042401000,-0.001076944,0.000438617,0.000780615,-0.040222568,0.029327930,-0.060343500,0.013177696,0.000895373,0.998398990,-0.000783763,-0.000699929,-0.002545907,0.000000000,0.000000000,0.000000000,0.000000000,0.016846510,0.006658443,0.058179656,0.031215731,0.014134617,-0.003763463,0.010467253,0.003024403,-0.001516182,-0.133113249,0.131001945,1.892281985,-0.001142594,-0.001162233,0.016511160,0.999861302,0.000000000,0.000000000,0.000000000,0.000000000,0.000000000,0.000000000,1.891831210,0.000000000,4.032844543
1772659498.279369116,0.016181000,0.006439000,0.058254000,-0.008306760,0.013444660,0.020629990,0.999662260,-0.016060000,0.027226000,0.041049000,-0.000483975,0.000247689,0.000045280,-0.032375994,0.029562237,-0.044582119,0.012301080,0.000852448,0.998246616,-0.000770151,-0.005783427,0.001011106,0.000000000,0.000000000,0.000000000,0.000000000,0.016828430,0.006670808,0.058184287,0.031269370,0.014144649,-0.003758779,0.010370639,0.003403636,-0.001424530,-0.133591392,0.130401201,1.889041246,-0.001146886,-0.001157028,0.016482886,0.999861739,0.000000000,0.000000000,0.000000000,0.000000000,0.000000000,0.000000000,1.888309852,0.000000000,4.032844543
1772659498.289369106,0.016163000,0.006445000,0.058253000,-0.008472960,0.013448950,0.020210950,0.999669370,-0.016404000,0.027235000,0.040206000,0.001250895,0.000249864,-0.001873079,0.036370652,-0.048118182,0.007343804,0.011940811,0.003156756,0.997579023,0.002033187,-0.001368653,0.000991135,0.000000000,0.000000000,0.000000000,0.000000000,0.016840489,0.006661354,0.058183825,0.031426372,0.014069150,-0.003766860,0.009478555,0.004589136,-0.001775970,-0.133810474,0.130814381,1.885040778,-0.001148779,-0.001160625,0.016447972,0.999862340,0.000000000,0.000000000,0.000000000,0.000000000,0.000000000,0.000000000,1.884718042,0.000000000,4.032844543
1772659498.299369574,0.016255000,0.006359000,0.058258000,-0.008396920,0.013597890,0.020987480,0.999652000,-0.016224000,0.027542000,0.041760000,0.002386580,-0.000057867,-0.002614105,0.103218054,-0.123331760,0.059807804,0.009667965,0.002745684,0.998044173,0.003940390,0.000408842,0.000941749,0.000000000,0.000000000,0.000000000,0.000000000,0.016822144,0.006680347,0.058182859,0.031358745,0.014278067,-0.003831320,0.007991103,0.005868538,-0.002404940,-0.134042278,0.132972347,1.882289304,-0.001150520,-0.001179460,0.016423938,0.999862706,0.000000000,0.000000000,0.000000000,0.000000000,0.000000000,0.000000000,1.882089394,0.000000000,4.032844543
1772659498.309369802,0.016182000,0.006423000,0.058267000,-0.008465560,0.013690280,0.020387810,0.999662570,-0.016374000,0.027720000,0.040557000,0.002360259,-0.000136888,-0.002413211,0.130170662,-0.153783381,0.090240000,0.011001603,0.001736597,0.997559546,-0.003551530,0.004208216,-0.000879620,0.000000000,0.000000000,0.000000000,0.000000000,0.016795080,0.006702649,0.058181461,0.031117969,0.014478364,-0.003889419,0.007880694,0.004793875,-0.002183464,-0.133352411,0.132864419,1.880524734,-0.001144534,-0.001178401,0.016408551,0.999863033,0.000000000,0.000000000,0.000000000,0.000000000,0.000000000,0.000000000,1.880272747,0.000000000,4.032844543
1772659498.319370270,0.016314000,0.006410000,0.058134000,-0.006545130,0.011438730,0.021769940,0.999676140,-0.012592000,0.023157000,0.043401000,0.000976807,-0.000507479,-0.000628206,0.094186442,-0.106059720,0.080042774,0.011681524,0.002039657,0.998163867,0.000923245,-0.004243465,-0.003311238,0.000000000,0.000000000,0.000000000,0.000000000,0.016814867,0.006681418,0.058181929,0.031170033,0.014469821,-0.003939228,0.009053176,0.004090229,-0.001900272,-0.131901900,0.132093285,1.878750150,-0.001132006,-0.001171448,0.016393090,0.999863253,0.000000000,0.000000000,0.000000000,0.000000000,0.000000000,0.000000000,1.878356655,0.000000000,4.032844543
1772659498.329370737,0.016335000,0.006414000,0.058111000,-0.005116250,0.009731240,0.022752960,0.999680660,-0.009788000,0.019690000,0.045416000,-0.000529934,0.000425680,-0.000190579,0.056721439,-0.070470650,0.046300621,0.010127164,0.000363303,0.998232001,0.000624805,-0.001739398,-0.001437209,0.000000000,0.000000000,0.000000000,0.000000000,0.016811733,0.006682068,0.058185707,0.031167912,0.014472383,-0.003920761,0.008415073,0.003169882,-0.000945025,-0.132983725,0.130634125,1.876848548,-0.001141673,-0.001158852,0.016376501,0.999863535,0.000000000,0.000000000,0.000000000,0.000000000,0.000000000,0.000000000,1.876567108,0.000000000,4.032844543
1772659498.339370489,0.016211000,0.006420000,0.058232000,-0.006318990,0.011158400,0.021837660,0.999679290,-0.012150000,0.022588000,0.043545000,-0.000921485,0.000114006,0.000476088,0.009942039,-0.027854169,0.014433505,0.011147396,0.001952680,0.999948669,-0.001436262,-0.001172145,0.000500565,0.000000000,0.000000000,0.000000000,0.000000000,0.016839517,0.006688530,0.058146145,0.031181376,0.014418630,-0.004025120,0.007857059,0.003608245,-0.000712678,-0.132860428,0.132501500,1.874748591,-0.001140352,-0.001175107,0.016358160,0.999863837,0.000000000,0.000000000,0.000000000,0.000000000,0.000000000,0.000000000,1.874818275,0.000000000,4.032844543
1772659498.349370480,0.016245000,0.006379000,0.058236000,-0.006877090,0.011875270,0.022130560,0.999660900,-0.013228000,0.024049000,0.044110000,-0.000297572,-0.000938190,0.001338599,-0.033975367,0.026186573,0.003462338,0.010203732,0.001058819,0.997568102,0.000320692,0.003255460,-0.000588939,0.000000000,0.000000000,0.000000000,0.000000000,0.016889944,0.006689590,0.058086768,0.031236453,0.014388237,-0.004162775,0.008583695,0.004423104,-0.001158463,-0.132421836,0.132330352,1.873330740,-0.001136564,-0.001173537,0.016345797,0.999863217,0.000000000,0.000000000,0.000000000,0.000000000,0.000000000,0.000000000,1.875061019,0.000000000,4.032844543
1772659498.359370232,0.016180000,0.006411000,0.058261000,-0.007591990,0.012548460,0.021332860,0.999664850,-0.014649000,0.025415000,0.042487000,0.000088112,-0.001195067,0.001533257,-0.057042482,0.054312155,-0.002237100,0.011329295,0.001586108,0.997946959,-0.001700812,0.002636989,-0.002444983,0.000000000,0.000000000,0.000000000,0.000000000,0.016874072,0.006691998,0.058097742,0.031075059,0.014349129,-0.004121975,0.008458012,0.003510026,-0.002509117,-0.131258419,0.134324293,1.877881718,-0.001126081,-0.001190814,0.016385496,0.999863439,0.000000000,0.000000000,0.000000000,0.000000000,0.000000000,0.000000000,1.875303758,0.000000000,4.032844543
1772659498.369370699,0.016310000,0.006408000,0.058140000,-0.006138530,0.010564680,0.022321270,0.999676180,-0.011804000,0.021398000,0.044523000,0.000948389,-0.000893086,0.000400913,-0.034186189,0.035642959,0.014798048,0.011517863,0.001725363,0.997270354,-0.002556949,-0.001425855,-0.001674420,0.000000000,0.000000000,0.000000000,0.000000000,0.016851519,0.006684555,0.058125908,0.030956731,0.014301734,-0.004034224,0.009981911,0.004679037,-0.001942253,-0.129756730,0.135334801,1.880732877,-0.001112804,-0.001199444,0.016410379,0.999863053,0.000000000,0.000000000,0.000000000,0.000000000,0.000000000,0.000000000,1.875546513,0.000000000,4.032429755
1772659498.379370451,0.016287000,0.006358000,0.058226000,-0.006746340,0.011350370,0.022343700,0.999663150,-0.012985000,0.022997000,0.044546000,0.000655906,-0.000466143,0.000172145,-0.015744763,0.023740612,0.017873869,0.011655855,0.000852617,0.996324423,-0.001590436,-0.002230358,-0.000308095,0.000000000,0.000000000,0.000000000,0.000000000,0.016836609,0.006675529,0.058146493,0.030931686,0.014265705,-0.004028995,0.009135944,0.002880021,-0.004463677,-0.129692117,0.135564791,1.878940074,-0.001112226,-0.001201424,0.016394734,0.999863163,0.000000000,0.000000000,0.000000000,0.000000000,0.000000000,0.000000000,1.878135858,0.000000000,4.031967939
1772659498.389371157,0.016266000,0.006365000,0.058251000,-0.007140090,0.012042300,0.022377990,0.999651550,-0.013741000,0.024398000,0.044596000,-0.000694115,-0.000341123,0.001087336,-0.043463077,0.068268717,-0.009731542,0.012078554,0.000003874,0.996815782,-0.000430730,0.001718674,-0.000402459,0.000000000,0.000000000,0.000000000,0.000000000,0.016817588,0.006680451,0.058156099,0.030878910,0.014211228,-0.004175402,0.009427934,0.003074805,-0.002848423,-0.129739318,0.138112862,1.877024572,-0.001112294,-0.001223645,0.016377996,0.999862905,0.000000000,0.000000000,0.000000000,0.000000000,0.000000000,0.000000000,1.879516097,0.000000000,4.031506079
1772659498.399371862,0.016268000,0.006352000,0.058253000,-0.007464490,0.012411460,0.022417190,0.999643790,-0.014372000,0.025151000,0.044662000,-0.000411092,-0.000754352,0.001004294,-0.057914701,0.094221531,-0.008610979,0.011359276,0.000140132,0.997546281,0.000737423,-0.000046483,-0.000147620,0.000000000,0.000000000,0.000000000,0.000000000,0.016866323,0.006670549,0.058114117,0.031064355,0.013997830,-0.004482237,0.009452767,0.002970630,-0.002329075,-0.128963211,0.139444817,1.879921941,-0.001105300,-0.001235184,0.016403272,0.999862304,0.000000000,0.000000000,0.000000000,0.000000000,0.000000000,0.000000000,1.880789428,0.000000000,4.031044219
1772659498.409372091,0.016191000,0.006409000,0.058264000,-0.007948790,0.013217910,0.021559420,0.999648590,-0.015328000,0.026772000,0.042922000,-0.001405343,0.000158275,0.000870261,-0.064753553,0.102039588,-0.036725605,0.011250328,-0.000026860,0.997652332,0.000525621,-0.002219316,0.000770252,0.000000000,0.000000000,0.000000000,0.000000000,0.016873372,0.006650280,0.058130770,0.031070166,0.013803361,-0.004441616,0.008636471,0.002443417,-0.002884558,-0.127283777,0.141172916,1.882752721,-0.001090368,-0.001250049,0.016427970,0.999861859,0.000000000,0.000000000,0.000000000,0.000000000,0.000000000,0.000000000,1.883170743,0.000000000,4.030582381
1772659498.419372082,0.016252000,0.006362000,0.058243000,-0.007971900,0.013176220,0.021758750,0.999644630,-0.015371000,0.026693000,0.043321000,0.000273912,0.000177234,-0.000629235,-0.022971516,0.042859862,-0.016194365,0.011278114,0.000185064,0.998560090,-0.001502353,0.001098724,0.000493800,0.000000000,0.000000000,0.000000000,0.000000000,0.016869653,0.006640081,0.058148657,0.031011435,0.013632056,-0.004407237,0.008740519,0.002727638,-0.002391374,-0.125434984,0.143439267,1.885442158,-0.001073881,-0.001269584,0.016451434,0.999861475,0.000000000,0.000000000,0.000000000,0.000000000,0.000000000,0.000000000,1.885881868,0.000000000,4.030120555
1772659498.429372072,0.016271000,0.006349000,0.058238000,-0.008032500,0.013301510,0.022002300,0.999637160,-0.015480000,0.026950000,0.043805000,-0.000190715,0.000166881,-0.000044367,-0.020436872,0.034347860,-0.024422427,0.010833783,0.000641610,0.998796107,-0.001051470,0.000877062,0.000202060,0.000000000,0.000000000,0.000000000,0.000000000,0.016867666,0.006627878,0.058159750,0.030968057,0.013483200,-0.004349911,0.008687254,0.002621776,-0.001529091,-0.124182098,0.145435691,1.888304907,-0.001062631,-0.001286851,0.016476408,0.999861262,0.000000000,0.000000000,0.000000000,0.000000000,0.000000000,0.000000000,1.888765550,0.000000000,4.029658728
1772659498.439372778,0.016265000,0.006358000,0.058250000,-0.007999820,0.013398880,0.022093960,0.999634100,-0.015408000,0.027145000,0.043988000,-0.000215734,-0.000407013,0.000820455,-0.029045146,0.048698486,-0.019517855,0.012670174,-0.000240075,0.999338858,-0.001379711,-0.001325224,0.001567345,0.000000000,0.000000000,0.000000000,0.000000000,0.016832495,0.006646499,0.058170229,0.030818093,0.013450664,-0.004238276,0.009168520,0.002604365,-0.001154173,-0.123847832,0.146316846,1.890299376,-0.001059565,-0.001294509,0.016493806,0.999861562,0.000000000,0.000000000,0.000000000,0.000000000,0.000000000,0.000000000,1.890002148,0.000000000,4.029196868
1772659498.449372768,0.016197000,0.006402000,0.058268000,-0.008330440,0.013818800,0.021259500,0.999643780,-0.016074000,0.027986000,0.042303000,-0.000320843,0.000724865,-0.000121581,-0.008026483,0.014553850,-0.018503471,0.012500526,0.000012285,0.998478253,-0.002213338,0.001164754,0.002314504,0.000000000,0.000000000,0.000000000,0.000000000,0.016834020,0.006639958,0.058169402,0.030881971,0.013339546,-0.004182947,0.009767003,0.002656696,-0.001406191,-0.123948702,0.145740920,1.888514391,-0.001060548,-0.001289482,0.016478237,0.999861811,0.000000000,0.000000000,0.000000000,0.000000000,0.000000000,0.000000000,1.888154965,0.000000000,4.028735041
1772659498.459372282,0.016264000,0.006361000,0.058248000,-0.008175420,0.013628780,0.021715720,0.999637860,-0.015760000,0.027606000,0.043223000,-0.000239433,0.001333276,-0.000730265,0.019781760,-0.019945399,-0.015001226,0.011114051,-0.000082420,0.998350108,0.001895273,-0.002000338,-0.000438119,0.000000000,0.000000000,0.000000000,0.000000000,0.016848670,0.006624811,0.058165125,0.030997302,0.013174328,-0.004161259,0.009043675,0.002253305,-0.001651692,-0.124261954,0.146953748,1.886027232,-0.001063135,-0.001300087,0.016456521,0.999862147,0.000000000,0.000000000,0.000000000,0.000000000,0.000000000,0.000000000,1.885875832,0.000000000,4.028273236
1772659498.469372749,0.016192000,0.006397000,0.058269000,-0.008561500,0.014063800,0.021009740,0.999643690,-0.016533000,0.028481000,0.041793000,0.000155206,0.000551574,-0.000452059,0.029149203,-0.027224228,-0.002261442,0.011234149,0.000203939,0.998263771,0.000732465,0.000238151,-0.000879684,0.000000000,0.000000000,0.000000000,0.000000000,0.016857121,0.006616948,0.058165241,0.031006626,0.013044359,-0.004138083,0.008027920,0.002388218,-0.001631319,-0.125164671,0.146114081,1.884532036,-0.001071149,-0.001292876,0.016443474,0.999862314,0.000000000,0.000000000,0.000000000,0.000000000,0.000000000,0.000000000,1.884267399,0.000000000,4.027811387
1772659498.479372740,0.016263000,0.006361000,0.058256000,-0.008221940,0.013826800,0.021681820,0.999635490,-0.015845000,0.028004000,0.043151000,0.000517910,0.000806275,-0.001252624,0.051441585,-0.063480379,0.010488180,0.011900758,0.000850331,0.998117508,-0.002110519,0.001645002,0.000788734,0.000000000,0.000000000,0.000000000,0.000000000,0.016860037,0.006614235,0.058168055,0.030959663,0.012948608,-0.004104944,0.009001112,0.003368806,-0.001993872,-0.124505473,0.147238234,1.882132787,-0.001065263,-0.001302568,0.016422534,0.999862608,0.000000000,0.000000000,0.000000000,0.000000000,0.000000000,0.000000000,1.881868011,0.000000000,4.027782534
1772659498.489373446,0.016247000,0.006473000,0.058160000,-0.006998230,0.012090240,0.021551600,0.999670140,-0.013475000,0.024477000,0.042946000,0.000095629,0.001253944,-0.001246019,0.061491097,-0.082636016,0.005855056,0.012331326,0.001914044,0.998087391,-0.003260564,-0.002017726,0.003525007,0.000000000,0.000000000,0.000000000,0.000000000,0.016826513,0.006634575,0.058179750,0.030872351,0.013012839,-0.004076114,0.009403824,0.004039839,-0.001850214,-0.124384234,0.147077393,1.880168322,-0.001064251,-0.001301129,0.016405395,0.999862972,0.000000000,0.000000000,0.000000000,0.000000000,0.000000000,0.000000000,1.880005938,0.000000000,4.028244782
1772659498.499372721,0.016264000,0.006372000,0.058245000,-0.007299660,0.012744590,0.021823660,0.999653950,-0.014043000,0.025802000,0.043474000,-0.001717892,0.001260491,0.000374787,0.018980327,-0.036612945,-0.040518709,0.011614881,0.003649079,0.998776399,0.002045800,0.001124334,0.000019465,0.000000000,0.000000000,0.000000000,0.000000000,0.016842833,0.006624882,0.058175881,0.030974104,0.013056352,-0.004097053,0.008810513,0.004412643,-0.001601688,-0.125232099,0.145724963,1.878965950,-0.001071856,-0.001289438,0.016394907,0.999863184,0.000000000,0.000000000,0.000000000,0.000000000,0.000000000,0.000000000,1.878752172,0.000000000,4.028706965
1772659498.509372711,0.016193000,0.006410000,0.058264000,-0.007772600,0.013290550,0.021182200,0.999657070,-0.014983000,0.026905000,0.042171000,-0.000497786,0.000295377,-0.000052312,0.015571773,-0.036589384,-0.032473730,0.010868032,0.003933821,0.998618504,0.000094596,0.002248016,0.001182531,0.000000000,0.000000000,0.000000000,0.000000000,0.016822069,0.006636204,0.058182782,0.030898573,0.013304342,-0.003979415,0.007880033,0.004736038,-0.001483069,-0.125761639,0.145619410,1.877725921,-0.001076506,-0.001288581,0.016384083,0.999863333,0.000000000,0.000000000,0.000000000,0.000000000,0.000000000,0.000000000,1.877518543,0.000000000,4.029169180
1772659498.519372225,0.016230000,0.006471000,0.058164000,-0.006834290,0.011586530,0.021141230,0.999686000,-0.013178000,0.023457000,0.042135000,-0.000147378,-0.000376399,-0.000037685,0.012827357,-0.032922052,-0.022791309,0.009416964,0.001612151,0.998844182,-0.001675914,-0.001304917,-0.000285766,0.000000000,0.000000000,0.000000000,0.000000000,0.016831130,0.006633053,0.058183584,0.030849068,0.013429550,-0.003912369,0.007140228,0.004544307,-0.001482638,-0.125911682,0.145365054,1.876336935,-0.001077867,-0.001286370,0.016371965,0.999863501,0.000000000,0.000000000,0.000000000,0.000000000,0.000000000,0.000000000,1.876060945,0.000000000,4.029631373
1772659498.529372215,0.016195000,0.006429000,0.058249000,-0.007432920,0.012500520,0.020763980,0.999678620,-0.014347000,0.025304000,0.041354000,0.000233489,-0.001116163,0.000608217,-0.001127608,-0.003250288,-0.005284855,0.009965220,0.002077148,0.998606946,-0.002075574,0.000276209,-0.002916120,0.000000000,0.000000000,0.000000000,0.000000000,0.016839422,0.006656818,0.058157248,0.030727773,0.013555302,-0.003985294,0.006906234,0.003858835,-0.001731522,-0.125750718,0.146231648,1.874134468,-0.001076363,-0.001293888,0.016352744,0.999863848,0.000000000,0.000000000,0.000000000,0.000000000,0.000000000,0.000000000,1.873841156,0.000000000,4.030093589
1772659498.539371967,0.016189000,0.006397000,0.058277000,-0.007942270,0.013091590,0.020530440,0.999671960,-0.015348000,0.026504000,0.040865000,0.000088423,0.000477817,-0.000533800,0.019461971,-0.021505034,-0.007249720,0.010346884,0.002225124,0.999030398,-0.001449708,0.002078541,-0.001246365,0.000000000,0.000000000,0.000000000,0.000000000,0.016842134,0.006676410,0.058137328,0.030584429,0.013651826,-0.004047148,0.007475168,0.005225425,-0.002167346,-0.126427840,0.146763433,1.872283632,-0.001082217,-0.001298607,0.016336579,0.999864095,0.000000000,0.000000000,0.000000000,0.000000000,0.000000000,0.000000000,1.872026354,0.000000000,4.030555793
1772659498.549371958,0.016315000,0.006400000,0.058145000,-0.006190200,0.011078360,0.021864310,0.999680400,-0.011895000,0.022422000,0.043602000,0.000754294,-0.000362374,-0.000234130,0.015673127,-0.003716555,0.010348941,0.010390221,0.001745236,0.999624741,-0.000188537,0.002174991,0.001424665,0.000000000,0.000000000,0.000000000,0.000000000,0.016844450,0.006659839,0.058152671,0.030490343,0.013670562,-0.003951493,0.007654807,0.004823331,-0.000403759,-0.126918381,0.146586818,1.870278173,-0.001086545,-0.001297117,0.016319076,0.999864362,0.000000000,0.000000000,0.000000000,0.000000000,0.000000000,0.000000000,1.869852989,0.000000000,4.031018009
1772659498.559371710,0.016218000,0.006401000,0.058242000,-0.006990350,0.012076240,0.021296210,0.999675830,-0.013466000,0.024445000,0.042435000,-0.000473252,0.000488559,0.000073096,-0.002429598,0.006927044,-0.003715538,0.010585377,0.001206355,0.999266535,0.001417735,-0.000867245,-0.001696878,0.000000000,0.000000000,0.000000000,0.000000000,0.016818134,0.006666232,0.058168890,0.030307712,0.013733488,-0.003731438,0.008023518,0.004295025,-0.000389067,-0.127165056,0.145716349,1.868203678,-0.001088844,-0.001289537,0.016300981,0.999864696,0.000000000,0.000000000,0.000000000,0.000000000,0.000000000,0.000000000,1.867558732,0.000000000,4.031480213
1772659498.569371700,0.016170000,0.006432000,0.058274000,-0.007801230,0.013170080,0.020553770,0.999671560,-0.015062000,0.026655000,0.040915000,-0.000046989,0.000510995,-0.000365482,-0.006106031,-0.016410960,0.002008251,0.011368654,0.002756906,0.998448245,0.001695855,-0.001866372,-0.000162998,0.000000000,0.000000000,0.000000000,0.000000000,0.016812698,0.006702763,0.058131723,0.030184247,0.013877137,-0.003803289,0.008499917,0.004705788,-0.001577560,-0.127092782,0.143788024,1.866347437,-0.001088509,-0.001272684,0.016284805,0.999864942,0.000000000,0.000000000,0.000000000,0.000000000,0.000000000,0.000000000,1.865296868,0.000000000,4.031942428
1772659498.579371452,0.016230000,0.006474000,0.058170000,-0.006803850,0.011759930,0.020759710,0.999692180,-0.013119000,0.023797000,0.041370000,-0.000775972,0.000089705,0.000922107,-0.041820430,0.014650440,-0.017223579,0.011293272,0.001115830,0.997081109,-0.002131873,0.000871316,-0.003755907,0.000000000,0.000000000,0.000000000,0.000000000,0.016798346,0.006701754,0.058149673,0.030107375,0.013953996,-0.003720268,0.008594197,0.003768004,-0.002552837,-0.126956525,0.142717583,1.863998247,-0.001087498,-0.001263302,0.016264318,0.999865302,0.000000000,0.000000000,0.000000000,0.000000000,0.000000000,0.000000000,1.862928200,0.000000000,4.032404633
1772659498.589370728,0.016256000,0.006384000,0.058224000,-0.007297670,0.012144750,0.021369120,0.999671250,-0.014076000,0.024596000,0.042573000,0.000188578,-0.001365036,0.001410705,-0.058054886,0.042065320,-0.002405605,0.011241719,0.001049494,0.997774111,0.000254966,-0.000410889,-0.003397994,0.000000000,0.000000000,0.000000000,0.000000000,0.016783489,0.006685742,0.058178377,0.030034307,0.013837080,-0.003701460,0.008477176,0.003099897,-0.002788048,-0.126966233,0.141795309,1.862015497,-0.001087735,-0.001255237,0.016247027,0.999865601,0.000000000,0.000000000,0.000000000,0.000000000,0.000000000,0.000000000,1.860462787,0.000000000,4.032844543
1772659498.599370241,0.016183000,0.006423000,0.058264000,-0.007819670,0.012333870,0.020858600,0.999675770,-0.015125000,0.024989000,0.041536000,0.001116940,-0.001386229,0.000478225,-0.037141968,0.038879135,0.023470148,0.011745082,0.002664413,0.998375919,0.001604853,0.000320229,-0.000157006,0.000000000,0.000000000,0.000000000,0.000000000,0.016862484,0.006686988,0.058126909,0.030241191,0.013794199,-0.003973024,0.008773290,0.004705919,-0.001500671,-0.127706231,0.140923889,1.858835664,-0.001094350,-0.001247708,0.016219284,0.999866071,0.000000000,0.000000000,0.000000000,0.000000000,0.000000000,0.000000000,1.857997316,0.000000000,4.032844543
1772659498.609369516,0.016262000,0.006360000,0.058253000,-0.007954320,0.012635630,0.021389980,0.999659710,-0.015368000,0.025606000,0.042591000,0.000771582,-0.001608782,0.000949185,-0.044254621,0.072905540,0.025979988,0.011523258,0.003034481,0.998207825,-0.002111937,-0.001594486,-0.006668026,0.000000000,0.000000000,0.000000000,0.000000000,0.016839796,0.006678234,0.058141669,0.030107810,0.013813073,-0.003859503,0.008987105,0.004911825,-0.001749866,-0.127867325,0.140033676,1.855748739,-0.001095915,-0.001239934,0.016192356,0.999866471,0.000000000,0.000000000,0.000000000,0.000000000,0.000000000,0.000000000,1.855765549,0.000000000,4.032844543
1772659498.619369984,0.016206000,0.006407000,0.058269000,-0.008308160,0.013268120,0.020786840,0.999661360,-0.016066000,0.026876000,0.041366000,-0.000235723,-0.000495202,0.000897689,-0.043336822,0.085998510,0.009322835,0.011149759,-0.000026970,0.996151296,0.000650583,0.001780976,-0.004332125,0.000000000,0.000000000,0.000000000,0.000000000,0.016798015,0.006685819,0.058170211,0.029919740,0.013899424,-0.003746237,0.008623332,0.003857956,-0.002961604,-0.128055770,0.139992272,1.852770356,-0.001097598,-0.001239571,0.016166365,0.999866742,0.000000000,0.000000000,0.000000000,0.000000000,0.000000000,0.000000000,1.853240775,0.000000000,4.032844543
1772659498.629370213,0.016277000,0.006342000,0.058262000,-0.008182940,0.013683280,0.021688500,0.999637640,-0.015773000,0.027715000,0.043167000,0.000364550,0.000122358,-0.000370086,-0.009996622,0.044235180,0.020965985,0.011905760,-0.000293274,0.997673613,0.003127375,0.000220748,-0.001945620,0.000000000,0.000000000,0.000000000,0.000000000,0.016795031,0.006707735,0.058147116,0.029874624,0.013876179,-0.003982678,0.008886689,0.002441586,-0.003541679,-0.128210116,0.139966331,1.849751488,-0.001098981,-0.001239337,0.016140021,0.999867279,0.000000000,0.000000000,0.000000000,0.000000000,0.000000000,0.000000000,1.849490766,0.000000000,4.032844543
1772659498.639370203,0.016206000,0.006414000,0.058255000,-0.008431930,0.013928140,0.021126660,0.999644220,-0.016277000,0.028206000,0.042033000,-0.000233761,0.000229371,-0.000204371,-0.003937570,0.026340800,0.022174924,0.011957243,-0.001330484,0.997232893,0.000014218,-0.001839257,-0.001897854,0.000000000,0.000000000,0.000000000,0.000000000,0.016807878,0.006697223,0.058137648,0.029947655,0.013677107,-0.004111437,0.009766085,0.002044145,-0.002553461,-0.127939042,0.140133313,1.846226637,-0.001096630,-0.001240723,0.016109266,0.999867782,0.000000000,0.000000000,0.000000000,0.000000000,0.000000000,0.000000000,1.847179888,0.000000000,4.032844543
1772659498.649369955,0.016267000,0.006355000,0.058249000,-0.008219510,0.013532390,0.021750250,0.999638050,-0.015851000,0.027416000,0.043292000,-0.000962180,0.000676477,0.000260801,-0.004524191,0.015168617,0.005678750,0.011510206,-0.001040387,0.998393558,-0.000830997,-0.002272295,-0.002419439,0.000000000,0.000000000,0.000000000,0.000000000,0.016805335,0.006680927,0.058150458,0.029983372,0.013401787,-0.004085760,0.009190965,0.000659340,-0.002008570,-0.126771066,0.138249284,1.844914972,-0.001086718,-0.001224107,0.016097854,0.999868035,0.000000000,0.000000000,0.000000000,0.000000000,0.000000000,0.000000000,1.844869065,0.000000000,4.032844543
1772659498.659370422,0.016196000,0.006409000,0.058274000,-0.008352290,0.013587990,0.021357640,0.999644670,-0.016125000,0.027527000,0.042502000,0.000032265,-0.000670630,0.000723719,-0.015386572,0.024418588,0.006079655,0.011593732,0.000783545,0.999285070,-0.001359322,-0.001144888,0.000561014,0.000000000,0.000000000,0.000000000,0.000000000,0.016797253,0.006669527,0.058167883,0.029985180,0.013146681,-0.003954326,0.009307949,0.002901034,0.000235487,-0.127369420,0.136399612,1.842708678,-0.001092222,-0.001208030,0.016078615,0.999868372,0.000000000,0.000000000,0.000000000,0.000000000,0.000000000,0.000000000,1.842710687,0.000000000,4.032844543
1772659498.669370651,0.016250000,0.006369000,0.058260000,-0.008345720,0.013823490,0.021771850,0.999632560,-0.016090000,0.028004000,0.043328000,0.000448893,0.000165210,-0.000400894,0.006234489,-0.005178418,-0.001790252,0.011913362,0.001785739,0.998389540,-0.000865925,-0.003118799,0.001995503,0.000000000,0.000000000,0.000000000,0.000000000,0.016811830,0.006647986,0.058176509,0.030085828,0.013028055,-0.003783595,0.009305064,0.003821356,-0.001581385,-0.127751160,0.136202575,1.840448143,-0.001095604,-0.001206343,0.016058889,0.999868689,0.000000000,0.000000000,0.000000000,0.000000000,0.000000000,0.000000000,1.840563741,0.000000000,4.032844543
1772659498.679370642,0.016193000,0.006412000,0.058266000,-0.008427090,0.013993710,0.021199740,0.999641800,-0.016262000,0.028338000,0.042178000,0.000472844,0.000823641,-0.001300603,0.033382680,-0.040554560,-0.002527508,0.011495882,0.001796751,0.997377638,0.000942511,-0.004706386,-0.000066021,0.000000000,0.000000000,0.000000000,0.000000000,0.016805314,0.006649108,0.058186652,0.030122255,0.013071323,-0.003727413,0.009125495,0.003941233,-0.002329490,-0.128719427,0.135704949,1.839136612,-0.001104136,-0.001202124,0.016047439,0.999868893,0.000000000,0.000000000,0.000000000,0.000000000,0.000000000,0.000000000,1.838416847,0.000000000,4.032844543
1772659498.689370632,0.016258000,0.006366000,0.058269000,-0.008338120,0.013997150,0.021510990,0.999635850,-0.016075000,0.028347000,0.042803000,0.000257634,0.001342484,-0.001758568,0.051832805,-0.071213702,-0.007746043,0.010688421,0.001720859,0.996393538,-0.000007463,-0.001011331,-0.000173409,0.000000000,0.000000000,0.000000000,0.000000000,0.016832106,0.006622778,0.058188958,0.030258682,0.013019004,-0.003788418,0.008368321,0.004320805,-0.003083613,-0.129339162,0.136031900,1.837541716,-0.001109515,-0.001205048,0.016033513,0.999869103,0.000000000,0.000000000,0.000000000,0.000000000,0.000000000,0.000000000,1.836269952,0.000000000,4.032844543
1772659498.699371099,0.016266000,0.006362000,0.058245000,-0.008191300,0.013557790,0.021595440,0.999641300,-0.015798000,0.027463000,0.042983000,-0.000415948,0.000859072,-0.000627798,0.035705035,-0.058097492,-0.017127721,0.010699527,0.000637205,0.997046141,0.002196787,-0.003214788,-0.000462429,0.000000000,0.000000000,0.000000000,0.000000000,0.016811939,0.006644493,0.058184704,0.030138178,0.013154314,-0.003965477,0.007900954,0.004016519,-0.003212110,-0.129628861,0.136547049,1.834815934,-0.001111999,-0.001209557,0.016009721,0.999869456,0.000000000,0.000000000,0.000000000,0.000000000,0.000000000,0.000000000,1.834122956,0.000000000,4.032844543
1772659498.709371090,0.016243000,0.006484000,0.058147000,-0.006874020,0.011802700,0.021489530,0.999675770,-0.013240000,0.023895000,0.042828000,-0.000591201,0.001153226,-0.000726030,0.041237513,-0.069897863,-0.020622690,0.010643532,0.000912478,0.997559374,0.000559070,0.000627911,-0.001970525,0.000000000,0.000000000,0.000000000,0.000000000,0.016829989,0.006627568,0.058179666,0.030200059,0.013030196,-0.004095978,0.007839143,0.003161665,-0.002920812,-0.129568873,0.136962625,1.833908430,-0.001111427,-0.001213166,0.016001798,0.999869614,0.000000000,0.000000000,0.000000000,0.000000000,0.000000000,0.000000000,1.832053327,0.000000000,4.032844543
1772659498.719371557,0.016184000,0.006447000,0.058233000,-0.007413660,0.012381760,0.021023470,0.999674820,-0.014307000,0.025070000,0.041875000,0.000310354,0.000275700,-0.000617541,0.046998341,-0.067297722,-0.000927389,0.011679692,0.000962408,0.998628330,0.001602687,-0.001247324,-0.002575198,0.000000000,0.000000000,0.000000000,0.000000000,0.016823988,0.006630741,0.058182644,0.030191773,0.013028822,-0.004101095,0.009132860,0.003903420,-0.001817381,-0.129105334,0.137107310,1.832409327,-0.001107379,-0.001214350,0.015988721,0.999869780,0.000000000,0.000000000,0.000000000,0.000000000,0.000000000,0.000000000,1.830006646,0.000000000,4.032844543
1772659498.729371309,0.016257000,0.006380000,0.058243000,-0.007455600,0.012640750,0.021494040,0.999661260,-0.014368000,0.025596000,0.042812000,0.000435995,-0.000464336,0.000052992,0.041097814,-0.049644064,0.012421681,0.011807442,-0.000056875,0.998904079,-0.001801906,0.001076706,-0.000701490,0.000000000,0.000000000,0.000000000,0.000000000,0.016814038,0.006637239,0.058185490,0.030182745,0.013023663,-0.004070280,0.009155219,0.002966642,0.000010977,-0.128244106,0.137830367,1.828928190,-0.001099800,-0.001220505,0.015958348,0.999870248,0.000000000,0.000000000,0.000000000,0.000000000,0.000000000,0.000000000,1.827960111,0.000000000,4.032844543
1772659498.739371061,0.016191000,0.006419000,0.058268000,-0.007886440,0.013114900,0.020875920,0.999664940,-0.015226000,0.026553000,0.041558000,0.001464881,-0.001793708,0.000652856,0.025268959,-0.022059954,0.042544022,0.012484480,-0.000354148,0.996440617,-0.001561134,0.002227246,0.001895359,0.000000000,0.000000000,0.000000000,0.000000000,0.016803378,0.006645550,0.058187974,0.030236700,0.012962395,-0.004012599,0.010259310,0.001811793,-0.003277943,-0.127927811,0.138020658,1.826281036,-0.001097042,-0.001222096,0.015935251,0.999870643,0.000000000,0.000000000,0.000000000,0.000000000,0.000000000,0.000000000,1.825913576,0.000000000,4.032844543
1772659498.749370337,0.016316000,0.006412000,0.058145000,-0.006190850,0.011032330,0.021938530,0.999679280,-0.011897000,0.022331000,0.043751000,0.002188192,-0.002521914,0.000469095,0.012103490,-0.006549620,0.072986948,0.012313787,0.000798612,0.997240820,0.000513235,-0.001371642,0.001410386,0.000000000,0.000000000,0.000000000,0.000000000,0.016827583,0.006628736,0.058185887,0.030497190,0.012794141,-0.004204022,0.010119314,0.003543598,-0.002438386,-0.129174520,0.137169693,1.824128350,-0.001108061,-0.001214823,0.015916464,0.999870919,0.000000000,0.000000000,0.000000000,0.000000000,0.000000000,0.000000000,1.823867139,0.000000000,4.032844543
1772659498.759370327,0.016276000,0.006373000,0.058234000,-0.006679750,0.011790940,0.022123140,0.999663400,-0.012837000,0.023872000,0.044101000,0.000838948,-0.001348797,0.000491298,-0.010978955,0.024331881,0.063757094,0.011846969,0.001498379,0.999024374,-0.001113647,-0.002372094,0.002387050,0.000000000,0.000000000,0.000000000,0.000000000,0.016839376,0.006643177,0.058153945,0.030663676,0.012856378,-0.004382715,0.009684706,0.004105960,-0.001754886,-0.129647274,0.137472818,1.822129398,-0.001112166,-0.001217515,0.015899015,0.999871204,0.000000000,0.000000000,0.000000000,0.000000000,0.000000000,0.000000000,1.821889261,0.000000000,4.032844543
1772659498.769369841,0.016269000,0.006358000,0.058248000,-0.007039720,0.012179520,0.022319650,0.999651910,-0.013535000,0.024667000,0.044480000,-0.000616492,-0.000197883,0.000454837,-0.035537362,0.050623156,0.031993745,0.011159120,0.000878117,0.999630113,-0.002349523,0.000843040,0.002090169,0.000000000,0.000000000,0.000000000,0.000000000,0.016823597,0.006684134,0.058125131,0.030646620,0.013023563,-0.004375210,0.008952496,0.003388646,0.000602032,-0.130645904,0.137858787,1.819021501,-0.001120859,-0.001220991,0.015871883,0.999871554,0.000000000,0.000000000,0.000000000,0.000000000,0.000000000,0.000000000,1.819055048,0.000000000,4.032844543
1772659498.779370070,0.016276000,0.006355000,0.058248000,-0.007425250,0.012685250,0.022482730,0.999639170,-0.014280000,0.025698000,0.044791000,-0.001730480,0.001357771,0.000206663,-0.049129939,0.065544526,-0.021698087,0.011653281,0.000406914,0.997750485,0.000338436,-0.000375675,0.001054844,0.000000000,0.000000000,0.000000000,0.000000000,0.016817325,0.006674031,0.058142813,0.030643347,0.012946628,-0.004163575,0.008957534,0.002831086,-0.001580160,-0.130599660,0.137873108,1.816647184,-0.001120478,-0.001221086,0.015851165,0.999871933,0.000000000,0.000000000,0.000000000,0.000000000,0.000000000,0.000000000,1.816091487,0.000000000,4.032844543
1772659498.789369583,0.016275000,0.006351000,0.058244000,-0.007657620,0.013050870,0.022499580,0.999632330,-0.014728000,0.026440000,0.044813000,-0.002477178,0.002519389,-0.000031391,-0.050046567,0.064468992,-0.078010660,0.011386422,0.001248014,0.998273764,0.000714925,-0.004847380,-0.000156396,0.000000000,0.000000000,0.000000000,0.000000000,0.016818930,0.006660932,0.058159021,0.030676419,0.012870832,-0.004099693,0.008899566,0.003692746,-0.002241842,-0.130832181,0.139008128,1.813515797,-0.001122384,-0.001230991,0.015823829,0.999872401,0.000000000,0.000000000,0.000000000,0.000000000,0.000000000,0.000000000,1.813198795,0.000000000,4.032844543
1772659498.799369812,0.016189000,0.006419000,0.058261000,-0.008211430,0.013739740,0.021535550,0.999639940,-0.015832000,0.027827000,0.042860000,-0.000693921,0.001297709,-0.000490812,-0.024149518,0.026882296,-0.071215862,0.010724844,0.001471010,0.999155401,-0.000161628,-0.003888872,-0.000027951,0.000000000,0.000000000,0.000000000,0.000000000,0.016821176,0.006663354,0.058155419,0.030688510,0.012897314,-0.004106497,0.008941566,0.004310536,-0.001346902,-0.130120196,0.140010936,1.812280748,-0.001116046,-0.001239631,0.015813048,0.999872643,0.000000000,0.000000000,0.000000000,0.000000000,0.000000000,0.000000000,1.813721873,0.000000000,4.032844543
1772659498.809369564,0.016232000,0.006476000,0.058160000,-0.007155010,0.012169640,0.021378970,0.999671770,-0.013790000,0.024640000,0.042596000,-0.000194328,0.000827604,-0.000516453,-0.002082170,-0.012126313,-0.054133194,0.010460414,0.000702221,0.998566439,-0.002191977,0.000276385,0.001062151,0.000000000,0.000000000,0.000000000,0.000000000,0.016861554,0.006656261,0.058122010,0.030777871,0.012876437,-0.004200035,0.007319869,0.003210762,-0.001990052,-0.130556374,0.141864172,1.810382276,-0.001119617,-0.001255843,0.015796460,0.999872817,0.000000000,0.000000000,0.000000000,0.000000000,0.000000000,0.000000000,1.814244925,0.000000000,4.032844543
1772659498.819369555,0.016193000,0.006455000,0.058241000,-0.007778680,0.013001690,0.020625240,0.999672470,-0.015022000,0.026319000,0.041060000,0.001076808,-0.000228613,-0.000629643,0.023009051,-0.048275601,-0.008958296,0.010268598,-0.000795266,0.997220545,-0.001610731,0.000532266,-0.000903062,0.000000000,0.000000000,0.000000000,0.000000000,0.016864783,0.006633570,0.058143455,0.030656552,0.012733570,-0.004126428,0.007594206,0.002700722,-0.001636061,-0.129647344,0.140689852,1.809051242,-0.001111862,-0.001245458,0.015784868,0.999873019,0.000000000,0.000000000,0.000000000,0.000000000,0.000000000,0.000000000,1.814767989,0.000000000,4.032844543
1772659498.829368830,0.016267000,0.006366000,0.058249000,-0.007873660,0.013160740,0.021297690,0.999655550,-0.015187000,0.026651000,0.042401000,0.001127060,-0.000629915,-0.000300059,0.030451130,-0.059344765,0.020867786,0.011122810,0.000545757,0.998602278,-0.004644440,0.000342700,-0.001132540,0.000000000,0.000000000,0.000000000,0.000000000,0.016865117,0.006612516,0.058160610,0.030564938,0.012469162,-0.004136749,0.008251380,0.002406524,-0.002116933,-0.129940848,0.143194372,1.815091914,-0.001114011,-0.001267411,0.015837548,0.999872243,0.000000000,0.000000000,0.000000000,0.000000000,0.000000000,0.000000000,1.815291016,0.000000000,4.032844543
1772659498.839368820,0.016273000,0.006348000,0.058253000,-0.007949150,0.012990150,0.021757050,0.999647290,-0.015333000,0.026320000,0.043321000,0.000987569,-0.001723389,0.000786287,0.011553856,-0.023512751,0.038389874,0.011772871,0.002355110,0.997565757,-0.002857150,0.001477690,-0.003937863,0.000000000,0.000000000,0.000000000,0.000000000,0.016863752,0.006602865,0.058165014,0.030580141,0.012497977,-0.004103791,0.009155433,0.005219199,-0.002395602,-0.131096583,0.144695372,1.820011769,-0.001123833,-0.001280716,0.015880447,0.999871051,0.000000000,0.000000000,0.000000000,0.000000000,0.000000000,0.000000000,1.815814081,0.000000000,4.032844543
1772659498.849368811,0.016247000,0.006470000,0.058155000,-0.006805450,0.011397740,0.021645920,0.999677560,-0.013117000,0.023085000,0.043148000,0.000050894,-0.000352254,0.000246756,0.011081791,-0.013777446,0.026047382,0.011740187,0.000729295,0.997484290,-0.000014863,-0.001337492,-0.004723453,0.000000000,0.000000000,0.000000000,0.000000000,0.016821963,0.006645647,0.058161988,0.030533582,0.012801912,-0.004193863,0.009004563,0.003349379,-0.001920738,-0.132554789,0.144258024,1.818203319,-0.001136637,-0.001277084,0.015864656,0.999871620,0.000000000,0.000000000,0.000000000,0.000000000,0.000000000,0.000000000,1.816337146,0.000000000,4.032844543
1772659498.859369040,0.016273000,0.006389000,0.058229000,-0.007101580,0.012098620,0.021896120,0.999661820,-0.013673000,0.024502000,0.043633000,0.000133528,0.000862744,-0.000969717,0.036786882,-0.040505856,0.019398526,0.011531863,0.001039897,0.996044040,0.000881187,-0.002027597,-0.003470765,0.000000000,0.000000000,0.000000000,0.000000000,0.016817788,0.006684594,0.058128638,0.030579610,0.012921857,-0.004395705,0.009823374,0.003859249,-0.004081645,-0.132075691,0.144754806,1.813880077,-0.001132437,-0.001281310,0.015826934,0.999872259,0.000000000,0.000000000,0.000000000,0.000000000,0.000000000,0.000000000,1.813500702,0.000000000,4.032844543
1772659498.869369507,0.016207000,0.006414000,0.058254000,-0.007529630,0.012500110,0.021283980,0.999666970,-0.014527000,0.025315000,0.042392000,-0.001253634,0.001327371,-0.000080323,0.015577073,-0.006635674,-0.018700101,0.010927353,0.001580439,0.997126117,0.000858353,-0.002013280,-0.001013685,0.000000000,0.000000000,0.000000000,0.000000000,0.016814339,0.006679561,0.058145617,0.030632990,0.012996482,-0.004547522,0.007840015,0.005034961,-0.003328857,-0.131093632,0.145831682,1.809943916,-0.001123763,-0.001290532,0.015792589,0.999872798,0.000000000,0.000000000,0.000000000,0.000000000,0.000000000,0.000000000,1.810216517,0.000000000,4.032844543
1772659498.879369497,0.016269000,0.006356000,0.058256000,-0.007657630,0.012949980,0.021699700,0.999651330,-0.014754000,0.026226000,0.043214000,-0.000377681,-0.000093998,0.000373174,-0.003372307,0.015616168,-0.011190926,0.010734860,0.000914689,0.998816584,-0.000282465,-0.000042906,0.000003521,0.000000000,0.000000000,0.000000000,0.000000000,0.016836409,0.006649054,0.058153959,0.030671882,0.012979540,-0.004569670,0.008641113,0.004111366,-0.002277902,-0.130390339,0.146448661,1.807148121,-0.001117573,-0.001295791,0.015768197,0.999873131,0.000000000,0.000000000,0.000000000,0.000000000,0.000000000,0.000000000,1.807079641,0.000000000,4.032844543
1772659498.889369965,0.016254000,0.006467000,0.058158000,-0.006667630,0.011578220,0.021670570,0.999675880,-0.012833000,0.023440000,0.043198000,-0.000268512,-0.000406741,0.000545591,-0.025707891,0.041351771,-0.013006199,0.010628042,0.000059227,0.998394347,-0.001618865,0.001616117,0.001114731,0.000000000,0.000000000,0.000000000,0.000000000,0.016846164,0.006633148,0.058158071,0.030702426,0.012944048,-0.004554667,0.008273768,0.003013362,-0.001757721,-0.129562720,0.146660669,1.805289915,-0.001110343,-0.001297509,0.015751991,0.999873360,0.000000000,0.000000000,0.000000000,0.000000000,0.000000000,0.000000000,1.805110908,0.000000000,4.032844543
1772659498.899369955,0.016236000,0.006416000,0.058228000,-0.007107600,0.012227060,0.021609530,0.999666450,-0.013687000,0.024756000,0.043057000,-0.001141454,0.000809286,0.000203186,-0.033883616,0.053201337,-0.039516159,0.010724766,0.000524342,0.998831690,0.000391908,-0.002651473,-0.001835488,0.000000000,0.000000000,0.000000000,0.000000000,0.016847481,0.006652485,0.058133826,0.030654888,0.012951561,-0.004620145,0.007786956,0.002050793,-0.001363248,-0.128572130,0.146676166,1.803868308,-0.001101714,-0.001297494,0.015739598,0.999873629,0.000000000,0.000000000,0.000000000,0.000000000,0.000000000,0.000000000,1.803675655,0.000000000,4.032844543
1772659498.909369946,0.016182000,0.006427000,0.058255000,-0.007835850,0.013017730,0.020901130,0.999666080,-0.015128000,0.026357000,0.041611000,-0.000593726,-0.000417133,0.001124651,-0.056644517,0.088370714,-0.043471870,0.010711258,0.001486448,0.997907057,-0.000209373,-0.000872767,-0.000893533,0.000000000,0.000000000,0.000000000,0.000000000,0.016849460,0.006667200,0.058118218,0.030597374,0.012950750,-0.004648514,0.008377452,0.003859236,-0.001744191,-0.129275534,0.147101559,1.802404529,-0.001107810,-0.001301288,0.015726813,0.999873862,0.000000000,0.000000000,0.000000000,0.000000000,0.000000000,0.000000000,1.802240403,0.000000000,4.032844543
1772659498.919369698,0.016267000,0.006370000,0.058248000,-0.007894960,0.013203720,0.021438880,0.999651790,-0.015224000,0.026740000,0.042683000,-0.000949243,-0.001024690,0.002114124,-0.086208258,0.126433308,-0.055497340,0.011248072,0.002520136,0.997772411,-0.001795302,0.000663932,-0.000983658,0.000000000,0.000000000,0.000000000,0.000000000,0.016841822,0.006659165,0.058136418,0.030538200,0.012992443,-0.004600723,0.008281315,0.005067602,-0.002908381,-0.129210185,0.147855051,1.799910190,-0.001107164,-0.001307830,0.015705042,0.999874136,0.000000000,0.000000000,0.000000000,0.000000000,0.000000000,0.000000000,1.798982689,0.000000000,4.032844543
1772659498.929369688,0.016195000,0.006425000,0.058261000,-0.008476610,0.014222770,0.020532340,0.999652080,-0.016371000,0.028788000,0.040838000,-0.000241667,-0.000346135,0.000530750,-0.061281094,0.087284409,-0.045422370,0.011705725,0.002579424,0.996494626,-0.001104833,0.001671591,0.001584966,0.000000000,0.000000000,0.000000000,0.000000000,0.016839855,0.006640426,0.058156709,0.030544639,0.013145245,-0.004573060,0.008820456,0.005249903,-0.002512621,-0.129119198,0.146759477,1.796867324,-0.001106555,-0.001298229,0.015678502,0.999874628,0.000000000,0.000000000,0.000000000,0.000000000,0.000000000,0.000000000,1.795617451,0.000000000,4.032844543
1772659498.939369440,0.016183000,0.006421000,0.058271000,-0.008669750,0.014381450,0.020237810,0.999654160,-0.016759000,0.029108000,0.040240000,0.000431275,0.001011054,-0.001728809,0.002782065,-0.011256729,-0.018363032,0.011525460,0.003005355,0.999210563,-0.001928983,-0.000279500,-0.000616495,0.000000000,0.000000000,0.000000000,0.000000000,0.016843182,0.006681413,0.058113521,0.030592015,0.013488323,-0.004837869,0.008442682,0.005025545,-0.000623544,-0.128408716,0.147861471,1.792662449,-0.001100253,-0.001307707,0.015641810,0.999875120,0.000000000,0.000000000,0.000000000,0.000000000,0.000000000,0.000000000,1.792252293,0.000000000,4.032844543
1772659498.949369907,0.016259000,0.006366000,0.058256000,-0.008525860,0.014059400,0.020877820,0.999646820,-0.016466000,0.028469000,0.041530000,0.001137394,0.000266473,-0.001552818,0.039322162,-0.072225993,0.019512418,0.011583697,0.001654511,0.998635141,-0.002106477,0.001190359,-0.003975614,0.000000000,0.000000000,0.000000000,0.000000000,0.016821867,0.006682446,0.058135652,0.030553994,0.013640345,-0.004515593,0.009140099,0.004883832,-0.000554044,-0.128303052,0.146934343,1.790946776,-0.001099477,-0.001299586,0.015626851,0.999875414,0.000000000,0.000000000,0.000000000,0.000000000,0.000000000,0.000000000,1.789302877,0.000000000,4.032844543
1772659498.959370852,0.016205000,0.006413000,0.058257000,-0.008617130,0.014114010,0.020553650,0.999651980,-0.016656000,0.028576000,0.040878000,0.001502041,-0.000633897,-0.001001516,0.056221475,-0.099716720,0.052799348,0.009908072,0.001853193,0.996167885,0.000649213,-0.003319308,0.001507043,0.000000000,0.000000000,0.000000000,0.000000000,0.016826786,0.006664685,0.058155428,0.030577193,0.013671736,-0.004462432,0.007555325,0.004178937,-0.003591891,-0.128939742,0.147769277,1.787096709,-0.001104963,-0.001306921,0.015593240,0.999875899,0.000000000,0.000000000,0.000000000,0.000000000,0.000000000,0.000000000,1.786496641,0.000000000,4.032844543
1772659498.969370842,0.016240000,0.006473000,0.058144000,-0.007327100,0.012193970,0.020839250,0.999681620,-0.014146000,0.024688000,0.041511000,0.002729995,-0.001922535,-0.000294270,0.063327600,-0.093263056,0.099285673,0.010648905,0.002433578,0.997526056,-0.000015077,-0.000243355,0.000687760,0.000000000,0.000000000,0.000000000,0.000000000,0.016804489,0.006677421,0.058168494,0.030418283,0.013812727,-0.004598922,0.007717115,0.005439360,-0.002240238,-0.128864653,0.148357622,1.783999740,-0.001104263,-0.001312015,0.015566212,0.999876324,0.000000000,0.000000000,0.000000000,0.000000000,0.000000000,0.000000000,1.783690673,0.000000000,4.032844543
1772659498.979370356,0.016288000,0.006364000,0.058227000,-0.007436800,0.012462590,0.021672760,0.999659780,-0.014333000,0.025242000,0.043173000,0.000895242,-0.001178789,0.000920397,0.031779032,-0.025746401,0.077077455,0.011241764,0.001708594,0.998235776,-0.000229186,-0.001994488,0.000198934,0.000000000,0.000000000,0.000000000,0.000000000,0.016794363,0.006679633,0.058175231,0.030380603,0.013964553,-0.004582009,0.008622544,0.004680689,-0.002011338,-0.128704331,0.149263236,1.781176074,-0.001102773,-0.001319868,0.015541567,0.999876703,0.000000000,0.000000000,0.000000000,0.000000000,0.000000000,0.000000000,1.780884838,0.000000000,4.032844543
1772659498.989370346,0.016293000,0.006338000,0.058267000,-0.007583030,0.012687670,0.022049570,0.999647610,-0.014607000,0.025704000,0.043920000,-0.000438967,-0.000708820,0.001552294,-0.005118409,0.033008230,0.040252083,0.011662766,0.000376512,0.996986569,-0.000288120,0.002054017,0.000168769,0.000000000,0.000000000,0.000000000,0.000000000,0.016815439,0.006664691,0.058171346,0.030520068,0.013963071,-0.004643725,0.008637303,0.002872015,-0.002666957,-0.128833666,0.150236645,1.777343041,-0.001103814,-0.001328342,0.015508110,0.999877196,0.000000000,0.000000000,0.000000000,0.000000000,0.000000000,0.000000000,1.778131287,0.000000000,4.032844543
1772659498.999370337,0.016284000,0.006345000,0.058259000,-0.007593740,0.013034040,0.022297170,0.999637580,-0.014606000,0.026400000,0.044410000,-0.000922728,-0.000860199,0.002033685,-0.050946245,0.096556109,0.005963138,0.013089874,-0.000067103,0.997291705,-0.001741917,0.000782743,-0.000676176,0.000000000,0.000000000,0.000000000,0.000000000,0.016818959,0.006704398,0.058116127,0.030649647,0.013925177,-0.004982868,0.010297410,0.002390098,-0.003082966,-0.129079164,0.150213657,1.774517903,-0.001105992,-0.001328147,0.015483456,0.999877574,0.000000000,0.000000000,0.000000000,0.000000000,0.000000000,0.000000000,1.775394690,0.000000000,4.032844543
1772659499.009370089,0.016272000,0.006367000,0.058264000,-0.007768030,0.013486050,0.022266690,0.999630920,-0.014936000,0.027311000,0.044338000,-0.001221738,0.000223543,0.000840502,-0.058424343,0.096431725,-0.024232181,0.012073027,0.000372911,0.997208208,-0.001535508,-0.001628210,-0.002234334,0.000000000,0.000000000,0.000000000,0.000000000,0.016858607,0.006659892,0.058126241,0.030999077,0.013572227,-0.005073706,0.008868054,0.002810252,-0.003140165,-0.129377713,0.148627141,1.771925502,-0.001108841,-0.001314319,0.015460849,0.999877966,0.000000000,0.000000000,0.000000000,0.000000000,0.000000000,0.000000000,1.772658159,0.000000000,4.032844543
1772659499.019370317,0.016192000,0.006413000,0.058269000,-0.008249350,0.013986630,0.021350710,0.999640170,-0.015903000,0.028319000,0.042485000,0.000698952,0.001422981,-0.002948721,0.022046354,-0.035473695,-0.004801619,0.011779603,0.000506833,0.999650898,0.000858831,-0.001831907,-0.000084914,0.000000000,0.000000000,0.000000000,0.000000000,0.016876356,0.006627616,0.058150259,0.031089445,0.013378571,-0.004954112,0.009235051,0.003328687,-0.000754184,-0.130457427,0.149114831,1.770059227,-0.001118218,-0.001318702,0.015444548,0.999878232,0.000000000,0.000000000,0.000000000,0.000000000,0.000000000,0.000000000,1.769921497,0.000000000,4.032844543
1772659499.029371023,0.016258000,0.006374000,0.058240000,-0.008113320,0.013595400,0.021609810,0.999641110,-0.015640000,0.027535000,0.043013000,0.001918281,0.000721057,-0.003462843,0.086191210,-0.137606653,0.036165328,0.011060336,0.000464461,0.999377512,0.001108489,-0.001366433,-0.001364848,0.000000000,0.000000000,0.000000000,0.000000000,0.016879636,0.006618857,0.058159801,0.031132675,0.013286608,-0.004756670,0.008556201,0.002332386,-0.000172347,-0.129981841,0.150371149,1.771991530,-0.001113877,-0.001329619,0.015461401,0.999878020,0.000000000,0.000000000,0.000000000,0.000000000,0.000000000,0.000000000,1.772706135,0.000000000,4.032844543
1772659499.039371490,0.016284000,0.006354000,0.058243000,-0.008049760,0.013583430,0.021941500,0.999634560,-0.015504000,0.027514000,0.043679000,0.002567660,-0.000132343,-0.002778868,0.124957000,-0.194943941,0.073249657,0.010294266,0.000494707,0.998038244,0.000448951,-0.001415480,-0.001178239,0.000000000,0.000000000,0.000000000,0.000000000,0.016869040,0.006626185,0.058167856,0.031076995,0.013232268,-0.004621620,0.007458431,0.003054991,-0.002193355,-0.130078412,0.151323680,1.775771025,-0.001114547,-0.001337980,0.015494368,0.999877511,0.000000000,0.000000000,0.000000000,0.000000000,0.000000000,0.000000000,1.774486767,0.000000000,4.032844543
1772659499.049371958,0.016345000,0.006391000,0.058131000,-0.006361300,0.011179710,0.022773040,0.999657910,-0.012212000,0.022643000,0.045416000,0.001077080,-0.000184421,-0.000575972,0.098437678,-0.149789961,0.060647040,0.010065618,0.000062956,0.998008939,0.001224391,0.000205145,0.002236875,0.000000000,0.000000000,0.000000000,0.000000000,0.016834553,0.006645795,0.058173266,0.030874067,0.013238442,-0.004630706,0.007399239,0.002832139,-0.002114666,-0.130561827,0.151769945,1.775775186,-0.001118704,-0.001341939,0.015494395,0.999877392,0.000000000,0.000000000,0.000000000,0.000000000,0.000000000,0.000000000,1.775850802,0.000000000,4.032844543
1772659499.059371948,0.016361000,0.006404000,0.058093000,-0.005070320,0.009426370,0.023328970,0.999670540,-0.009699000,0.019084000,0.046572000,-0.000247164,0.000675486,0.000106216,0.065164038,-0.095028337,0.028981198,0.011207407,0.001581598,0.999637384,-0.002280603,0.002156777,0.001279380,0.000000000,0.000000000,0.000000000,0.000000000,0.016843362,0.006639389,0.058164131,0.030830218,0.013158105,-0.004647498,0.008378725,0.003693988,-0.001652091,-0.130314023,0.151768370,1.773304213,-0.001116571,-0.001341868,0.015472836,0.999877750,0.000000000,0.000000000,0.000000000,0.000000000,0.000000000,0.000000000,1.777214773,0.000000000,4.032844543
1772659499.069372416,0.016270000,0.006384000,0.058227000,-0.005896940,0.010579170,0.022914340,0.999664060,-0.011308000,0.021423000,0.045715000,-0.001220300,0.000655168,0.000817425,0.016342228,-0.024091727,-0.003687260,0.012595728,0.001546409,0.997553582,0.002282626,0.002063246,0.001355928,0.000000000,0.000000000,0.000000000,0.000000000,0.016857546,0.006628670,0.058159886,0.030926203,0.013166250,-0.004632788,0.009536558,0.004555222,-0.001577247,-0.129794831,0.151644419,1.771276768,-0.001112081,-0.001340697,0.015455153,0.999877995,0.000000000,0.000000000,0.000000000,0.000000000,0.000000000,0.000000000,1.778578808,0.000000000,4.032844543
1772659499.079372883,0.016286000,0.006372000,0.058239000,-0.006444190,0.011351790,0.022685530,0.999657430,-0.012373000,0.022990000,0.045237000,-0.001344407,0.000094581,0.001366124,-0.034244539,0.046855338,-0.025540773,0.012818530,0.001845352,0.998620323,0.000302881,0.003845063,0.002331095,0.000000000,0.000000000,0.000000000,0.000000000,0.016892949,0.006631552,0.058117352,0.031156681,0.013249251,-0.004815058,0.009812358,0.004167264,-0.002204042,-0.129346586,0.151332177,1.769318708,-0.001108235,-0.001337893,0.015438077,0.999878332,0.000000000,0.000000000,0.000000000,0.000000000,0.000000000,0.000000000,1.779942844,0.000000000,4.032844543
1772659499.089372635,0.016220000,0.006419000,0.058256000,-0.007249670,0.012289500,0.021772690,0.999661120,-0.013964000,0.024889000,0.043379000,-0.002103712,0.000461733,0.001772340,-0.078359865,0.101910190,-0.062386112,0.011710215,0.001389562,0.998005195,-0.002164146,0.000110987,0.001828223,0.000000000,0.000000000,0.000000000,0.000000000,0.016934117,0.006647395,0.058050821,0.031322750,0.013328204,-0.005037492,0.009366428,0.004188692,-0.001472408,-0.128357629,0.151403673,1.775876703,-0.001099520,-0.001338446,0.015495310,0.999877285,0.000000000,0.000000000,0.000000000,0.000000000,0.000000000,0.000000000,1.781306782,0.000000000,4.032844543
1772659499.099373102,0.016311000,0.006421000,0.058127000,-0.006022520,0.010652010,0.022546800,0.999670900,-0.011564000,0.021570000,0.044976000,-0.001532713,0.000763618,0.000672708,-0.073771711,0.091528914,-0.073844132,0.012651038,0.000415213,0.998289573,-0.000986731,0.000603919,-0.000187163,0.000000000,0.000000000,0.000000000,0.000000000,0.016910717,0.006645836,0.058083221,0.031266234,0.013328554,-0.004875054,0.009632135,0.003913387,-0.001791784,-0.128148229,0.153044419,1.780063976,-0.001097421,-0.001352775,0.015531831,0.999876168,0.000000000,0.000000000,0.000000000,0.000000000,0.000000000,0.000000000,1.782670817,0.000000000,4.032844543
