t,px,py,pz,qx,qy,qz,qw,roll,pitch,yaw,vx,vy,vz,wx_vicon,wy_vicon,wz_vicon,imu_acc_x,imu_acc_y,imu_acc_z,imu_gyro_x,imu_gyro_y,imu_gyro_z,motor_motor_m1,motor_motor_m2,motor_motor_m3,motor_motor_m4,est_stateEstimate_x,est_stateEstimate_y,est_stateEstimate_z,est_stateEstimate_vx,est_stateEstimate_vy,est_stateEstimate_vz,est_stateEstimate_ax,est_stateEstimate_ay,est_stateEstimate_az,att_stateEstimate_roll,att_stateEstimate_pitch,att_stateEstimate_yaw,att_stateEstimate_qx,att_stateEstimate_qy,att_stateEstimate_qz,att_stateEstimate_qw,sp_ctrltarget_x,sp_ctrltarget_y,sp_ctrltarget_z,sp_ctrltarget_yaw,pid_controller_roll,pid_controller_pitch,pid_controller_yaw,pid_controller_cmd_thrust,pwr_pm_vbat
1772687747.821928740,0.014928000,0.005977000,0.054486000,-0.013642570,-0.024268990,0.002993500,-0.999607890,0.027165000,0.048620000,-0.005329000,0.001749599,0.002554767,-0.005176514,0.186414444,-0.243026806,0.035407539,0.012962345,0.001534068,1.000531411,-0.003750601,-0.000510959,0.002409694,0.000000000,0.000000000,0.000000000,0.000000000,0.015971555,0.005702240,0.054453997,0.053664918,-0.015760662,0.000241378,0.015843661,-0.005407796,0.000547503,0.417433655,-0.157280850,-0.293546957,0.003646285,0.001363190,-0.002566656,0.999988137,0.000000000,0.000000000,0.000000000,0.000000000,0.000000000,0.000000000,-0.293258514,0.000000000,3.895601273
1772687747.831928730,0.014958000,0.006030000,0.054392000,-0.014277060,-0.023300920,0.002855260,-0.999622470,0.028445000,0.046683000,-0.005049000,-0.000409247,-0.000019950,0.000001593,-0.060490979,0.094961489,-0.031848421,0.013852301,0.003182988,1.003319606,0.003852913,0.000255629,0.002814362,0.000000000,0.000000000,0.000000000,0.000000000,0.015971536,0.005706150,0.054452403,0.053666728,-0.015781691,0.000386724,0.016301077,-0.004019310,0.002664842,0.416687560,-0.156362607,-0.291951043,0.003639735,0.001355244,-0.002552691,0.999988199,0.000000000,0.000000000,0.000000000,0.000000000,0.000000000,0.000000000,-0.291266713,0.000000000,3.895601273
1772687747.841928244,0.014925000,0.005994000,0.054460000,-0.013340750,-0.024702050,0.003251210,-0.999600550,0.026546000,0.049491000,-0.005848000,-0.001244835,-0.001018251,0.002176990,-0.166366957,0.237821732,-0.060648890,0.013057845,0.003206633,1.001094703,0.001699021,-0.001120345,0.001706087,0.000000000,0.000000000,0.000000000,0.000000000,0.015960037,0.005701087,0.054467810,0.053676693,-0.015766381,0.000668952,0.016203683,-0.004853870,0.001814149,0.416793755,-0.157230553,-0.290379258,0.003640662,0.001362866,-0.002539004,0.999988253,0.000000000,0.000000000,0.000000000,0.000000000,0.000000000,0.000000000,-0.290338083,0.000000000,3.895601273
1772687747.851927519,0.014923000,0.005955000,0.054508000,-0.012427040,-0.026152460,0.003440000,-0.999574800,0.024700000,0.052392000,-0.006236000,-0.001136905,-0.000900996,0.002190277,-0.168358960,0.237364949,-0.061062698,0.012469628,0.000222477,0.999993542,-0.004765287,-0.001329398,0.002361751,0.000000000,0.000000000,0.000000000,0.000000000,0.015951355,0.005684552,0.054490985,0.053658524,-0.015944435,0.000815277,0.015567438,-0.006419926,0.000050812,0.417113636,-0.157208657,-0.289953622,0.003643448,0.001362681,-0.002535292,0.999988198,0.000000000,0.000000000,0.000000000,0.000000000,0.000000000,0.000000000,-0.289689136,0.000000000,3.895601273
1772687747.861927271,0.014906000,0.005977000,0.054501000,-0.011837460,-0.027035940,0.003677400,-0.999557610,0.023502000,0.054161000,-0.006721000,-0.000465194,-0.000129047,0.000882055,-0.103757895,0.145320918,-0.043067362,0.013519882,0.001492408,1.000537863,-0.000686250,-0.001308610,0.002537513,0.000000000,0.000000000,0.000000000,0.000000000,0.015646000,0.005788527,0.054465847,0.052769208,-0.015694533,0.000697370,0.015858985,-0.006438670,0.000202238,0.416824015,-0.156394021,-0.289428369,0.003640896,0.001355596,-0.002530679,0.999988248,0.000000000,0.000000000,0.000000000,0.000000000,0.000000000,0.000000000,-0.289486031,0.000000000,3.895601273
1772687747.871926785,0.014891000,0.005999000,0.054495000,-0.011326290,-0.027361890,0.003947280,-0.999553630,0.022462000,0.054816000,-0.007282000,0.000390559,0.000836735,-0.000907076,-0.009736469,0.013491552,-0.016709858,0.013941031,0.001302791,1.001348058,0.000197130,-0.003096208,-0.003741362,0.000000000,0.000000000,0.000000000,0.000000000,0.015438711,0.005854226,0.054458829,0.052163147,-0.015634413,0.000632868,0.016575748,-0.005482343,0.001412946,0.416227323,-0.154724614,-0.289606401,0.003635655,0.001341035,-0.002532173,0.999988258,0.000000000,0.000000000,0.000000000,0.000000000,0.000000000,0.000000000,-0.289569065,0.000000000,3.895601273
1772687747.881926298,0.014921000,0.005988000,0.054478000,-0.011511000,-0.027345470,0.003933920,-0.999552020,0.022833000,0.054784000,-0.007246000,0.000377738,0.000788014,-0.001089330,0.028367891,-0.039428198,-0.006387220,0.014256054,0.002356447,1.000917399,0.003115080,-0.001898269,-0.003450759,0.000000000,0.000000000,0.000000000,0.000000000,0.015448381,0.005857844,0.054436686,0.052247952,-0.015827053,0.000595602,0.016515873,-0.005436636,0.000765678,0.416015940,-0.154581610,-0.289561273,0.003633806,0.001339793,-0.002531772,0.999988317,0.000000000,0.000000000,0.000000000,0.000000000,0.000000000,0.000000000,-0.289491206,0.000000000,3.895601273
1772687747.891926050,0.014970000,0.006030000,0.054388000,-0.012938260,-0.025304860,0.003507030,-0.999589900,0.025724000,0.050701000,-0.006365000,0.000394095,0.000539517,-0.001029226,0.050463460,-0.068904272,0.001408181,0.011717008,0.003387640,0.998680510,0.001122869,-0.004049738,-0.001107418,0.000000000,0.000000000,0.000000000,0.000000000,0.015444658,0.005846632,0.054449614,0.052328228,-0.015973255,0.000750150,0.015531040,-0.004547590,-0.000374566,0.415307899,-0.153975208,-0.289853174,0.003627617,0.001334508,-0.002534292,0.999988317,0.000000000,0.000000000,0.000000000,0.000000000,0.000000000,0.000000000,-0.289624132,0.000000000,3.895601273
1772687747.901925564,0.014923000,0.006010000,0.054465000,-0.012565440,-0.025959890,0.003792970,-0.999576810,0.024960000,0.052017000,-0.006940000,0.000030790,-0.000315303,0.000387859,0.032307270,-0.037268349,0.003155001,0.011320603,0.002211311,0.999844581,-0.001634346,-0.001121205,-0.000487104,0.000000000,0.000000000,0.000000000,0.000000000,0.015439848,0.005838355,0.054468112,0.052334370,-0.016012266,0.000793359,0.014435064,-0.004590471,-0.000474146,0.414441351,-0.153065429,-0.289950116,0.003620037,0.001326585,-0.002535099,0.999988317,0.000000000,0.000000000,0.000000000,0.000000000,0.000000000,0.000000000,-0.289976064,0.000000000,3.895601273
1772687747.911925554,0.014910000,0.006000000,0.054473000,-0.012385060,-0.026115830,0.003921150,-0.999574510,0.024591000,0.052330000,-0.007202000,0.000027080,-0.000031392,-0.000103074,0.029877382,-0.040949128,0.011848770,0.012035911,0.002377361,1.000730405,-0.000104722,-0.000124759,-0.002189885,0.000000000,0.000000000,0.000000000,0.000000000,0.015438185,0.005829230,0.054481774,0.052255361,-0.016033197,0.000774321,0.014663971,-0.005026023,0.000898102,0.413985830,-0.152510459,-0.288921808,0.003616038,0.001321784,-0.002526103,0.999988417,0.000000000,0.000000000,0.000000000,0.000000000,0.000000000,0.000000000,-0.289675111,0.000000000,3.895601273
1772687747.921925306,0.014904000,0.005969000,0.054506000,-0.011818110,-0.026965680,0.003967220,-0.999558630,0.023448000,0.054028000,-0.007304000,-0.000053674,0.000011733,-0.000252712,0.018093277,-0.040836016,0.017917074,0.012202589,0.003456201,1.002954075,0.001820087,-0.002560788,-0.002524980,0.000000000,0.000000000,0.000000000,0.000000000,0.015430507,0.005829988,0.054491955,0.052147440,-0.016060070,0.000776164,0.014644922,-0.004065075,0.002539717,0.414002741,-0.152211991,-0.288302021,0.003616172,0.001319199,-0.002520685,0.999988437,0.000000000,0.000000000,0.000000000,0.000000000,0.000000000,0.000000000,-0.288719364,0.000000000,3.895601273
1772687747.931924343,0.014956000,0.006036000,0.054396000,-0.013117120,-0.025005300,0.003516370,-0.999595070,0.026083000,0.050104000,-0.006382000,0.000277616,-0.000060959,-0.000412277,0.014914974,-0.038216844,0.020641112,0.011570239,0.002665151,1.001928518,0.001766071,-0.000285204,-0.002846944,0.000000000,0.000000000,0.000000000,0.000000000,0.015421819,0.005840249,0.054490369,0.052066616,-0.015983833,0.000894596,0.014262854,-0.004731719,0.002163655,0.414156859,-0.152498355,-0.288386577,0.003617524,0.001321692,-0.002521434,0.999988437,0.000000000,0.000000000,0.000000000,0.000000000,0.000000000,0.000000000,-0.288260614,0.000000000,3.895601273
1772687747.941924095,0.014920000,0.005990000,0.054486000,-0.012488090,-0.025922720,0.003591810,-0.999579490,0.024815000,0.051937000,-0.006542000,0.000770550,-0.000122947,-0.000736361,0.025922169,-0.048599910,0.026194483,0.012481115,0.001647935,0.999536056,-0.000952190,-0.001007842,-0.000823794,0.000000000,0.000000000,0.000000000,0.000000000,0.015420472,0.005836699,0.054489944,0.051997348,-0.015956467,0.001088109,0.014664542,-0.005837070,-0.000208991,0.414397611,-0.153333825,-0.289306191,0.003619653,0.001328948,-0.002529488,0.999988389,0.000000000,0.000000000,0.000000000,0.000000000,0.000000000,0.000000000,-0.288617196,0.000000000,3.895601273
1772687747.951923609,0.014959000,0.006026000,0.054382000,-0.013443860,-0.024255730,0.003214820,-0.999610220,0.026756000,0.048598000,-0.005782000,0.000023156,-0.000541596,0.000765053,-0.005106523,0.002579252,0.008120913,0.013147367,0.001162669,1.000225341,-0.003085279,0.000875116,0.004057812,0.000000000,0.000000000,0.000000000,0.000000000,0.015423825,0.005825140,0.054493368,0.051961223,-0.016053471,0.001124903,0.016087020,-0.006333182,-0.000353666,0.413522389,-0.153718826,-0.289808569,0.003612030,0.001332311,-0.002533874,0.999988377,0.000000000,0.000000000,0.000000000,0.000000000,0.000000000,0.000000000,-0.289485959,0.000000000,3.895601273
1772687747.961923599,0.014924000,0.005982000,0.054476000,-0.012632880,-0.025493440,0.003446190,-0.999589230,0.025115000,0.051075000,-0.006254000,-0.000678199,-0.000404876,0.001397718,-0.034399813,0.048054626,-0.014306513,0.013432378,0.001605286,1.002451993,-0.003896399,0.002218262,0.001441211,0.000000000,0.000000000,0.000000000,0.000000000,0.015425593,0.005817660,0.054498567,0.051993272,-0.016204956,0.001057221,0.016238521,-0.005608026,0.002614805,0.412964292,-0.153908865,-0.288320999,0.003607147,0.001334029,-0.002520892,0.999988415,0.000000000,0.000000000,0.000000000,0.000000000,0.000000000,0.000000000,-0.289499387,0.000000000,3.895601273
1772687747.971922874,0.014924000,0.005986000,0.054485000,-0.012335850,-0.026054980,0.003667760,-0.999577670,0.024506000,0.052202000,-0.006699000,-0.001009820,-0.000441960,0.001680870,-0.062548362,0.094266987,-0.030610330,0.013070386,0.001812577,1.003681929,-0.001741333,0.004107948,-0.001916860,0.000000000,0.000000000,0.000000000,0.000000000,0.015424467,0.005816701,0.054505388,0.052109520,-0.016342715,0.001123115,0.015453045,-0.005525977,0.003758388,0.412031855,-0.155245844,-0.288036969,0.003599036,0.001345726,-0.002518445,0.999988478,0.000000000,0.000000000,0.000000000,0.000000000,0.000000000,0.000000000,-0.288262425,0.000000000,3.895601273
1772687747.981922626,0.014928000,0.005970000,0.054491000,-0.012164650,-0.026410830,0.003616990,-0.999570610,0.024164000,0.052912000,-0.006598000,-0.000483823,0.000067835,0.000466107,-0.044898416,0.071344114,-0.025261010,0.012395326,0.001963759,1.001440353,0.001631401,0.001635576,-0.000915440,0.000000000,0.000000000,0.000000000,0.000000000,0.015434163,0.005831642,0.054483574,0.052233284,-0.016374899,0.001299380,0.014990070,-0.005371865,0.001489145,0.410816941,-0.155821574,-0.287556140,0.003588441,0.001350791,-0.002514252,0.999988496,0.000000000,0.000000000,0.000000000,0.000000000,0.000000000,0.000000000,-0.287894404,0.000000000,3.895601273
1772687747.991922617,0.014904000,0.005999000,0.054497000,-0.011880340,-0.026634810,0.003850810,-0.999567210,0.023581000,0.053363000,-0.007076000,-0.000442426,-0.000345957,0.000628974,-0.046686257,0.074521739,-0.019238461,0.012821629,0.003001464,0.999501956,0.000706875,-0.000257485,0.001392549,0.000000000,0.000000000,0.000000000,0.000000000,0.015445632,0.005842892,0.054460784,0.052270817,-0.016422093,0.001408022,0.014983029,-0.003982793,-0.001049762,0.410093959,-0.155987148,-0.287291604,0.003582132,0.001352261,-0.002511940,0.999988496,0.000000000,0.000000000,0.000000000,0.000000000,0.000000000,0.000000000,-0.287543112,0.000000000,3.895601273
1772687748.001922369,0.014906000,0.006012000,0.054470000,-0.011938590,-0.026607680,0.003923180,-0.999566960,0.023694000,0.053311000,-0.007218000,-0.000108708,-0.000420786,0.000157370,-0.037363342,0.054239335,-0.009711063,0.013187901,0.003726491,0.999040329,-0.001531279,0.001559023,0.002124066,0.000000000,0.000000000,0.000000000,0.000000000,0.015440794,0.005835965,0.054474932,0.052240159,-0.016489447,0.001476714,0.015795794,-0.003226687,-0.001720700,0.409607247,-0.155977915,-0.286907508,0.003577880,0.001352203,-0.002508582,0.999988496,0.000000000,0.000000000,0.000000000,0.000000000,0.000000000,0.000000000,-0.287202616,0.000000000,3.895601273
1772687748.011921883,0.014915000,0.005973000,0.054487000,-0.011641590,-0.027101420,0.003860570,-0.999557440,0.023100000,0.054295000,-0.007097000,0.000234530,-0.000149191,-0.000310058,-0.015187440,0.016779635,0.002303961,0.012810915,0.003713731,0.998847982,-0.001594882,0.002005560,-0.000905216,0.000000000,0.000000000,0.000000000,0.000000000,0.015430346,0.005842008,0.054479598,0.052209598,-0.016408292,0.001386773,0.015293956,-0.004163447,-0.000838540,0.409183120,-0.156142543,-0.286132629,0.003574173,0.001353673,-0.002501821,0.999988513,0.000000000,0.000000000,0.000000000,0.000000000,0.000000000,0.000000000,-0.286869461,0.000000000,3.895601273
1772687748.021921873,0.014924000,0.005965000,0.054486000,-0.011717000,-0.026992160,0.003741480,-0.999559970,0.023258000,0.054075000,-0.006857000,0.000777699,-0.000011481,-0.000712272,0.015377197,-0.023120488,0.014491886,0.013010983,0.003272308,1.000108272,0.002031238,-0.002527879,-0.001074813,0.000000000,0.000000000,0.000000000,0.000000000,0.015449681,0.005862942,0.054435762,0.052306592,-0.016209130,0.000958432,0.015421318,-0.003429903,0.000342229,0.409631559,-0.154739681,-0.286553843,0.003578061,0.001341407,-0.002505458,0.999988556,0.000000000,0.000000000,0.000000000,0.000000000,0.000000000,0.000000000,-0.285908617,0.000000000,3.895601273
1772687748.031921148,0.014915000,0.005969000,0.054504000,-0.011437380,-0.027381190,0.003798360,-0.999552410,0.022693000,0.054852000,-0.006978000,0.000479336,0.000042387,-0.000289971,0.025397337,-0.034005626,0.015812060,0.013107058,0.002608997,1.000948171,0.000601618,0.000908502,0.001573908,0.000000000,0.000000000,0.000000000,0.000000000,0.015448126,0.005853112,0.054443900,0.052297719,-0.016250723,0.000904888,0.015882005,-0.005166096,0.000709389,0.409357822,-0.154379913,-0.285159505,0.003575648,0.001338317,-0.002493275,0.999988568,0.000000000,0.000000000,0.000000000,0.000000000,0.000000000,0.000000000,-0.286788340,0.000000000,3.895601273
1772687748.041921139,0.014916000,0.005983000,0.054498000,-0.011533520,-0.027166090,0.003845470,-0.999557000,0.022884000,0.054424000,-0.007071000,0.000358953,0.001097897,-0.001065203,0.052172640,-0.074781607,0.015119018,0.013400013,0.001272103,1.000611197,-0.001341076,0.000457070,-0.000515191,0.000000000,0.000000000,0.000000000,0.000000000,0.015431593,0.005852605,0.054463513,0.052256568,-0.016160039,0.001004745,0.015928793,-0.006064899,0.000956407,0.409057777,-0.153799741,-0.284142559,0.003573005,0.001333293,-0.002484379,0.999988616,0.000000000,0.000000000,0.000000000,0.000000000,0.000000000,0.000000000,-0.284484298,0.000000000,3.895601273
1772687748.051920891,0.014958000,0.006035000,0.054392000,-0.012995240,-0.025007860,0.003364120,-0.999597130,0.025847000,0.050104000,-0.006083000,0.000495479,0.001382196,-0.001755214,0.075818126,-0.107717439,0.017938251,0.012350695,0.002083997,0.999866215,0.001394564,-0.001946889,0.002678846,0.000000000,0.000000000,0.000000000,0.000000000,0.015421110,0.005837686,0.054485026,0.052313935,-0.016344271,0.001108383,0.015311894,-0.005255865,-0.000155419,0.408168580,-0.154393659,-0.283516305,0.003565251,0.001338514,-0.002478922,0.999988636,0.000000000,0.000000000,0.000000000,0.000000000,0.000000000,0.000000000,-0.284148460,0.000000000,3.895601273
1772687748.061921120,0.014932000,0.005982000,0.054478000,-0.012490100,-0.025995720,0.003536240,-0.999577770,0.024822000,0.052081000,-0.006429000,0.000322724,0.000993755,-0.001404633,0.073416247,-0.105267083,0.016969303,0.012593830,0.004438759,0.998242060,-0.000199711,-0.000327223,0.004920893,0.000000000,0.000000000,0.000000000,0.000000000,0.015423751,0.005829850,0.054489406,0.052370067,-0.016492649,0.001142652,0.015129630,-0.002545510,-0.001220185,0.407583937,-0.153355682,-0.282486312,0.003560115,0.001329501,-0.002469896,0.999988694,0.000000000,0.000000000,0.000000000,0.000000000,0.000000000,0.000000000,-0.283216197,0.000000000,3.895601273
1772687748.071921110,0.014907000,0.006011000,0.054472000,-0.012406430,-0.025977770,0.003717850,-0.999578620,0.024645000,0.052049000,-0.006797000,-0.000167258,0.000321869,-0.000388714,0.046766225,-0.073050112,0.013535387,0.013151143,0.004789797,1.001326213,-0.003651945,0.003970063,0.005627660,0.000000000,0.000000000,0.000000000,0.000000000,0.015445086,0.005849408,0.054436650,0.052449924,-0.016385390,0.000734860,0.015579719,-0.002659662,0.001245903,0.407211666,-0.153547810,-0.280593620,0.003556849,0.001331244,-0.002453380,0.999988753,0.000000000,0.000000000,0.000000000,0.000000000,0.000000000,0.000000000,-0.282292012,0.000000000,3.895601273
1772687748.081919909,0.014959000,0.006043000,0.054383000,-0.013542780,-0.024283250,0.003333720,-0.999607820,0.026948000,0.048657000,-0.006014000,-0.000938041,-0.000689835,0.001572007,-0.019299876,0.014827030,-0.003872952,0.013062018,0.003592980,1.001478855,-0.000134153,0.002286556,0.000460729,0.000000000,0.000000000,0.000000000,0.000000000,0.015462948,0.005863566,0.054399901,0.052506011,-0.016135259,0.000516336,0.015805991,-0.003000519,0.001126934,0.406187786,-0.153887280,-0.279056779,0.003547903,0.001334276,-0.002439968,0.999988815,0.000000000,0.000000000,0.000000000,0.000000000,0.000000000,0.000000000,-0.280064771,0.000000000,3.895601273
1772687748.091919899,0.014936000,0.006002000,0.054444000,-0.013157410,-0.024797410,0.003348490,-0.999600300,0.026174000,0.049684000,-0.006049000,-0.000900588,-0.000836365,0.001615949,-0.055989865,0.067482058,-0.011072942,0.013107162,0.002407589,0.999121641,-0.000323759,0.003418948,0.001923718,0.000000000,0.000000000,0.000000000,0.000000000,0.015473935,0.005871372,0.054387712,0.052545450,-0.016009658,0.000614646,0.015935382,-0.004894555,-0.001239607,0.406156505,-0.155053632,-0.278473553,0.003547648,0.001344473,-0.002434914,0.999988854,0.000000000,0.000000000,0.000000000,0.000000000,0.000000000,0.000000000,-0.278766786,0.000000000,3.895601273
1772687748.101919889,0.014906000,0.006011000,0.054473000,-0.012720570,-0.025317630,0.003513740,-0.999592350,0.025288000,0.050726000,-0.006389000,-0.000073508,-0.000268758,-0.000128833,-0.034699923,0.044849438,0.003531342,0.012819385,0.001863821,0.998588120,0.002910805,-0.002744632,0.000589812,0.000000000,0.000000000,0.000000000,0.000000000,0.015460586,0.005857332,0.054429633,0.052526541,-0.016012653,0.000797521,0.015397873,-0.005286137,-0.000958318,0.405432711,-0.155661576,-0.277640371,0.003541334,0.001349820,-0.002427653,0.999988862,0.000000000,0.000000000,0.000000000,0.000000000,0.000000000,0.000000000,-0.278456210,0.000000000,3.895601273
1772687748.111919641,0.014901000,0.005983000,0.054495000,-0.012161120,-0.026070020,0.003509330,-0.999579980,0.024164000,0.052227000,-0.006390000,0.000713147,0.000101365,-0.001443194,0.008635737,0.001703555,0.018768702,0.011745891,0.002309373,1.000904675,-0.000757572,0.002050178,0.000688278,0.000000000,0.000000000,0.000000000,0.000000000,0.015461289,0.005865310,0.054422308,0.052543765,-0.016052768,0.000622303,0.014862507,-0.004618280,0.000113645,0.404559505,-0.155667595,-0.276782504,0.003533704,0.001349917,-0.002420157,0.999988909,0.000000000,0.000000000,0.000000000,0.000000000,0.000000000,0.000000000,-0.277516530,0.000000000,3.895901650
1772687748.121919155,0.014911000,0.005978000,0.054493000,-0.011824330,-0.026680870,0.003622740,-0.999567500,0.023481000,0.053450000,-0.006621000,0.000890175,0.000458278,-0.001613870,0.044199209,-0.040893374,0.022906635,0.011772803,0.003433283,1.001183940,-0.000290212,-0.000370650,-0.004040253,0.000000000,0.000000000,0.000000000,0.000000000,0.015464160,0.005878084,0.054396290,0.052482941,-0.016115872,0.000450684,0.014743235,-0.003963728,0.000914905,0.403881406,-0.155431400,-0.276428094,0.003527778,0.001347881,-0.002417049,0.999988964,0.000000000,0.000000000,0.000000000,0.000000000,0.000000000,0.000000000,-0.276658397,0.000000000,3.896429872
1772687748.131919146,0.014955000,0.006030000,0.054376000,-0.013029680,-0.025206180,0.003160730,-0.999592360,0.025925000,0.050496000,-0.005669000,0.001428916,0.000883745,-0.002103618,0.090775622,-0.108409211,0.030427653,0.012451963,0.004547354,1.001067542,-0.001346171,-0.010074373,-0.001676124,0.000000000,0.000000000,0.000000000,0.000000000,0.015469472,0.005887238,0.054375142,0.052365816,-0.016079470,0.000422651,0.015201858,-0.003531460,0.000746777,0.402250727,-0.154490796,-0.276338965,0.003513527,0.001339710,-0.002416223,0.999989033,0.000000000,0.000000000,0.000000000,0.000000000,0.000000000,0.000000000,-0.276445390,0.000000000,3.896958120
1772687748.141919136,0.014968000,0.006036000,0.054359000,-0.013970130,-0.023934930,0.002873230,-0.999611770,0.027827000,0.047950000,-0.005081000,0.000970696,0.000777213,-0.001462309,0.094944566,-0.124932842,0.028310711,0.013215296,0.002300789,0.999534976,0.001523332,-0.000647750,-0.002271785,0.000000000,0.000000000,0.000000000,0.000000000,0.015475420,0.005889605,0.054367269,0.052303813,-0.016027728,0.000467138,0.015988748,-0.004597745,-0.000768383,0.401871655,-0.152479069,-0.275534689,0.003510168,0.001322187,-0.002409139,0.999989048,0.000000000,0.000000000,0.000000000,0.000000000,0.000000000,0.000000000,-0.276225505,0.000000000,3.897486368
1772687748.151919603,0.014976000,0.006040000,0.054362000,-0.014641300,-0.023042660,0.002796860,-0.999623350,0.029178000,0.046166000,-0.004922000,0.000223496,0.000829780,-0.000731562,0.076452556,-0.115200205,0.019749394,0.012533406,0.003855093,1.001450056,0.004459331,-0.000261468,-0.001374225,0.000000000,0.000000000,0.000000000,0.000000000,0.015451575,0.005870286,0.054425162,0.052247477,-0.016053013,0.000713178,0.015136863,-0.003548169,0.001324869,0.402011227,-0.151768234,-0.275094730,0.003511366,0.001315995,-0.002405279,0.999989092,0.000000000,0.000000000,0.000000000,0.000000000,0.000000000,0.000000000,-0.275254088,0.000000000,3.898014641
1772687748.161919117,0.014930000,0.005995000,0.054481000,-0.013556650,-0.024408330,0.003201890,-0.999605020,0.026982000,0.048904000,-0.005746000,0.000097363,0.000662969,-0.000767947,0.058512637,-0.106013946,0.016876242,0.010963611,0.005701540,1.002045572,-0.001542956,0.003187975,-0.000992741,0.000000000,0.000000000,0.000000000,0.000000000,0.015442214,0.005842252,0.054467729,0.052296313,-0.016180940,0.000826442,0.013541544,-0.001752717,0.002150705,0.401900633,-0.151265776,-0.275429494,0.003510394,0.001311602,-0.002408184,0.999989092,0.000000000,0.000000000,0.000000000,0.000000000,0.000000000,0.000000000,-0.275096654,0.000000000,3.898542864
1772687748.171919107,0.014954000,0.006041000,0.054391000,-0.014173530,-0.023362320,0.003014400,-0.999622040,0.028230000,0.046810000,-0.005370000,-0.000202516,0.000511719,-0.000315730,0.030795284,-0.064112317,0.002973012,0.011193549,0.002287180,1.001156362,0.000863409,0.000174742,-0.001193657,0.000000000,0.000000000,0.000000000,0.000000000,0.015438999,0.005832540,0.054489172,0.052240631,-0.016035087,0.001065113,0.014077219,-0.003680342,0.001056218,0.401409468,-0.152013695,-0.274690625,0.003506115,0.001318162,-0.002401754,0.999989099,0.000000000,0.000000000,0.000000000,0.000000000,0.000000000,0.000000000,-0.275510044,0.000000000,3.899071112
1772687748.181918621,0.014956000,0.006054000,0.054351000,-0.014475500,-0.022835160,0.002811220,-0.999630490,0.028846000,0.045751000,-0.004964000,-0.000207372,0.000196513,-0.000162984,0.010366492,-0.028637659,-0.003522277,0.012594842,0.000542190,1.000284640,-0.000491977,0.002078482,-0.000434011,0.000000000,0.000000000,0.000000000,0.000000000,0.015450797,0.005854205,0.054451191,0.052130118,-0.015808446,0.001017710,0.014801130,-0.006236832,0.000903509,0.401285052,-0.152859667,-0.274905738,0.003505049,0.001325540,-0.002403655,0.999989139,0.000000000,0.000000000,0.000000000,0.000000000,0.000000000,0.000000000,-0.274414946,0.000000000,3.899599335
1772687748.191917896,0.014965000,0.006052000,0.054357000,-0.014770270,-0.022389390,0.002800930,-0.999636290,0.029438000,0.044860000,-0.004943000,-0.000561080,-0.000961158,0.001740683,-0.044050022,0.060867829,-0.023454637,0.012202529,0.000737719,1.003230473,0.000761655,-0.001673194,0.002029588,0.000000000,0.000000000,0.000000000,0.000000000,0.015446165,0.005850632,0.054457359,0.052082522,-0.015886203,0.001038328,0.014857633,-0.005920388,0.002278409,0.400708242,-0.152867229,-0.275061125,0.003500018,0.001325613,-0.002405005,0.999989042,0.000000000,0.000000000,0.000000000,0.000000000,0.000000000,0.000000000,-0.275316615,0.000000000,3.900127545
1772687748.201917887,0.014971000,0.006049000,0.054357000,-0.014920190,-0.022188930,0.002857190,-0.999638370,0.029737000,0.044462000,-0.005055000,-0.000447011,-0.001179758,0.002214424,-0.074277670,0.118028492,-0.037521274,0.010935841,0.004012914,1.002378581,0.001943352,-0.000753003,0.001172873,0.000000000,0.000000000,0.000000000,0.000000000,0.015441757,0.005837378,0.054470096,0.052073431,-0.016160504,0.001209273,0.014425501,-0.004037128,0.002099093,0.399796908,-0.152905807,-0.274096067,0.003492054,0.001325999,-0.002396574,0.999989152,0.000000000,0.000000000,0.000000000,0.000000000,0.000000000,0.000000000,-0.274593346,0.000000000,3.900655793
1772687748.211917877,0.014919000,0.006009000,0.054475000,-0.013643240,-0.024272110,0.003433240,-0.999606390,0.027144000,0.048638000,-0.006209000,-0.000788850,-0.001475965,0.003154582,-0.116035363,0.175688972,-0.051964156,0.013354114,0.002862842,1.000602193,-0.000131105,-0.002109485,0.002302202,0.000000000,0.000000000,0.000000000,0.000000000,0.015438159,0.005827698,0.054486813,0.052031499,-0.016201904,0.001464611,0.015343156,-0.004078871,0.000943544,0.399329876,-0.152529865,-0.273676385,0.003487966,0.001322741,-0.002392894,0.999989152,0.000000000,0.000000000,0.000000000,0.000000000,0.000000000,0.000000000,-0.274100123,0.000000000,3.900565971
1772687748.221917629,0.014923000,0.005971000,0.054504000,-0.012602810,-0.025531910,0.003598020,-0.999588090,0.025047000,0.051156000,-0.006558000,-0.000460104,-0.000893225,0.001681026,-0.107105453,0.155640891,-0.040231977,0.013654649,0.002482736,1.001485405,-0.001718281,0.006340975,0.003330330,0.000000000,0.000000000,0.000000000,0.000000000,0.015439345,0.005822793,0.054494624,0.052060258,-0.016123262,0.001523268,0.016142874,-0.004455921,0.001177125,0.399651154,-0.151877147,-0.272415690,0.003490742,0.001317076,-0.002381877,0.999989212,0.000000000,0.000000000,0.000000000,0.000000000,0.000000000,0.000000000,-0.273311564,0.000000000,3.900020877
1772687748.231917620,0.014925000,0.005979000,0.054505000,-0.011919500,-0.026724450,0.003853000,-0.999564350,0.023659000,0.053543000,-0.007076000,-0.000245097,-0.000454490,0.000446467,-0.087172705,0.117913647,-0.018517922,0.013185011,0.002842357,1.000005304,-0.002743359,0.004463069,0.001081598,0.000000000,0.000000000,0.000000000,0.000000000,0.015439445,0.005812892,0.054506672,0.052246829,-0.016179930,0.001591312,0.015803919,-0.004000422,0.000125763,0.399148695,-0.152419507,-0.270698732,0.003486349,0.001321872,-0.002366904,0.999989238,0.000000000,0.000000000,0.000000000,0.000000000,0.000000000,0.000000000,-0.272082117,0.000000000,3.899475769
1772687748.241917133,0.014958000,0.006040000,0.054388000,-0.012969600,-0.025163220,0.003508560,-0.999593060,0.025788000,0.050418000,-0.006370000,0.000130542,-0.000056258,-0.000445554,-0.054997445,0.064747829,0.000706307,0.013788524,0.003383148,1.000554906,0.001337436,-0.001070429,-0.000722379,0.000000000,0.000000000,0.000000000,0.000000000,0.015464039,0.005842079,0.054456574,0.052414220,-0.016066104,0.001381881,0.016163481,-0.003981733,0.000624686,0.398906132,-0.152442267,-0.270463549,0.003484230,0.001322083,-0.002364850,0.999989319,0.000000000,0.000000000,0.000000000,0.000000000,0.000000000,0.000000000,-0.270170832,0.000000000,3.898930688
1772687748.251915932,0.014928000,0.005995000,0.054466000,-0.012230390,-0.025935640,0.003602180,-0.999582300,0.024299000,0.051961000,-0.006576000,-0.000042698,-0.000508611,0.000183672,-0.049346493,0.065856259,0.006223359,0.014039418,0.001905270,1.000309243,-0.000914714,0.003813657,-0.000088660,0.000000000,0.000000000,0.000000000,0.000000000,0.015459756,0.005838857,0.054463061,0.052490452,-0.016020841,0.001325132,0.016744603,-0.004643972,0.000312973,0.399177699,-0.153184209,-0.270656476,0.003486617,0.001328546,-0.002366559,0.999989257,0.000000000,0.000000000,0.000000000,0.000000000,0.000000000,0.000000000,-0.270753338,0.000000000,3.898385645
1772687748.261915922,0.014929000,0.005979000,0.054472000,-0.011923500,-0.026462960,0.003500180,-0.999572550,0.023687000,0.053012000,-0.006375000,-0.000002758,-0.000467835,0.000529066,-0.040047209,0.062989735,0.002345924,0.013934054,0.001999806,1.001308413,0.000472462,-0.001792931,0.001813132,0.000000000,0.000000000,0.000000000,0.000000000,0.015441869,0.005834261,0.054487406,0.052591135,-0.016033548,0.001436146,0.016484530,-0.005658767,0.001989815,0.398652237,-0.153003311,-0.270643508,0.003482028,0.001326978,-0.002366434,0.999989237,0.000000000,0.000000000,0.000000000,0.000000000,0.000000000,0.000000000,-0.270470161,0.000000000,3.897840537
1772687748.271914721,0.014925000,0.005975000,0.054496000,-0.011422380,-0.027187590,0.003569240,-0.999558710,0.022676000,0.054460000,-0.006524000,0.000413656,-0.000454937,0.000241387,-0.021130968,0.033163366,0.005547028,0.013369862,0.002321862,1.001251472,-0.000907691,0.003270785,0.002259594,0.000000000,0.000000000,0.000000000,0.000000000,0.015428595,0.005840861,0.054490862,0.052723104,-0.016061382,0.001426389,0.016213332,-0.004950963,0.001493573,0.397817897,-0.152921411,-0.269510632,0.003474732,0.001326315,-0.002356536,0.999989298,0.000000000,0.000000000,0.000000000,0.000000000,0.000000000,0.000000000,-0.270679865,0.000000000,3.897295495
1772687748.281914711,0.014934000,0.005977000,0.054485000,-0.011352310,-0.027381290,0.003631640,-0.999554000,0.022531000,0.054848000,-0.006648000,0.000555719,-0.000074032,-0.000075606,0.002771390,-0.004637066,0.006957959,0.012298843,0.002885020,0.998769213,-0.002768684,-0.001425027,0.000495711,0.000000000,0.000000000,0.000000000,0.000000000,0.015424265,0.005847275,0.054486610,0.052848608,-0.016128892,0.001524585,0.015054957,-0.004177713,-0.001205334,0.396690266,-0.153418799,-0.268293047,0.003464888,0.001330716,-0.002345913,0.999989352,0.000000000,0.000000000,0.000000000,0.000000000,0.000000000,0.000000000,-0.269080477,0.000000000,3.896750387
1772687748.291914225,0.014930000,0.005960000,0.054504000,-0.011198850,-0.027862270,0.003640910,-0.999542410,0.022221000,0.055810000,-0.006665000,0.000442485,0.000722044,-0.001020737,0.039920403,-0.064497925,0.010878789,0.012200662,0.002605486,0.997917841,-0.000338263,0.001042140,-0.000652209,0.000000000,0.000000000,0.000000000,0.000000000,0.015429000,0.005837426,0.054493913,0.052925303,-0.016159004,0.001500828,0.014995600,-0.005008888,-0.002251739,0.395465543,-0.154137395,-0.267046690,0.003454200,0.001337049,-0.002335044,0.999989415,0.000000000,0.000000000,0.000000000,0.000000000,0.000000000,0.000000000,-0.268001386,0.000000000,3.896205306
1772687748.301913500,0.014980000,0.006032000,0.054388000,-0.012639400,-0.025389600,0.003348960,-0.999592120,0.025134000,0.050865000,-0.006061000,-0.000454820,0.000798213,-0.000417911,0.033546979,-0.067552268,-0.001100755,0.012892870,0.003599479,1.000632774,0.002743180,-0.002043303,-0.002521770,0.000000000,0.000000000,0.000000000,0.000000000,0.015431193,0.005835880,0.054502973,0.052913050,-0.016146580,0.001294758,0.015478170,-0.003650100,0.000518132,0.396171917,-0.154201377,-0.267124692,0.003460366,0.001337591,-0.002335735,0.999989427,0.000000000,0.000000000,0.000000000,0.000000000,0.000000000,0.000000000,-0.266786900,0.000000000,3.895660237
1772687748.311913490,0.014941000,0.005990000,0.054461000,-0.012302480,-0.025693150,0.003343480,-0.999588580,0.024458000,0.051470000,-0.006060000,-0.000964907,0.000531125,-0.000011694,0.016176455,-0.044626230,-0.012997422,0.014117775,0.003697030,1.001816173,-0.002449855,0.000614859,-0.002833112,0.000000000,0.000000000,0.000000000,0.000000000,0.015425082,0.005847284,0.054500232,0.052880408,-0.016108602,0.001122843,0.016429635,-0.003122596,0.001131975,0.396400999,-0.153402525,-0.267754104,0.003462357,0.001330596,-0.002341206,0.999989390,0.000000000,0.000000000,0.000000000,0.000000000,0.000000000,0.000000000,-0.267206907,0.000000000,3.895601273
1772687748.321912766,0.014915000,0.005985000,0.054496000,-0.011888500,-0.026214010,0.003567800,-0.999579290,0.023615000,0.052515000,-0.006518000,-0.001068370,-0.000024826,0.000829935,-0.014565429,0.004420753,-0.022486642,0.013610806,0.003507760,1.000579326,-0.001843512,0.003405187,-0.002899892,0.000000000,0.000000000,0.000000000,0.000000000,0.015442937,0.005842433,0.054496474,0.052907432,-0.015961220,0.001205591,0.016363312,-0.003116467,0.000141137,0.395757552,-0.153068632,-0.268379072,0.003456742,0.001327677,-0.002346642,0.999989390,0.000000000,0.000000000,0.000000000,0.000000000,0.000000000,0.000000000,-0.267953053,0.000000000,3.895601273
1772687748.331912279,0.014901000,0.006003000,0.054482000,-0.011715090,-0.026595580,0.003855140,-0.999570190,0.023250000,0.053284000,-0.007094000,-0.000872381,-0.000175902,0.001135972,-0.031440453,0.041224279,-0.029354372,0.013450496,0.002218482,0.999656324,-0.001325327,0.000576985,0.001413803,0.000000000,0.000000000,0.000000000,0.000000000,0.015456824,0.005863043,0.054445661,0.053024186,-0.015759306,0.000982514,0.016449961,-0.005003581,-0.000751781,0.395001616,-0.153749814,-0.268808754,0.003450164,0.001333624,-0.002350403,0.999989390,0.000000000,0.000000000,0.000000000,0.000000000,0.000000000,0.000000000,-0.268578703,0.000000000,3.895601273
1772687748.341911554,0.014903000,0.006014000,0.054467000,-0.011718940,-0.026452050,0.003994510,-0.999573410,0.023251000,0.053000000,-0.007376000,-0.000914885,-0.000389996,0.001551086,-0.051303308,0.079409377,-0.034347540,0.012428225,0.002157867,0.999909862,0.000469824,-0.001045184,0.000855112,0.000000000,0.000000000,0.000000000,0.000000000,0.015445457,0.005849058,0.054460084,0.053057168,-0.015812089,0.000919942,0.015069335,-0.004279653,0.000577155,0.393979253,-0.152682048,-0.267072972,0.003441201,0.001324379,-0.002335212,0.999989464,0.000000000,0.000000000,0.000000000,0.000000000,0.000000000,0.000000000,-0.268453803,0.000000000,3.895601273
1772687748.351910353,0.014917000,0.005985000,0.054484000,-0.011681580,-0.026579300,0.003952350,-0.999570640,0.023178000,0.053253000,-0.007291000,0.000363829,0.000735642,-0.000791142,0.001454340,-0.003215401,-0.011264357,0.011788172,0.003695917,0.999364906,0.003391028,-0.001037550,0.002004478,0.000000000,0.000000000,0.000000000,0.000000000,0.015452218,0.005846960,0.054454037,0.053087872,-0.015879215,0.000842721,0.013985258,-0.004099431,-0.001189718,0.395133785,-0.150802872,-0.266777922,0.003451234,0.001307965,-0.002332594,0.999989472,0.000000000,0.000000000,0.000000000,0.000000000,0.000000000,0.000000000,-0.267007117,0.000000000,3.895601273
1772687748.361910105,0.014919000,0.005989000,0.054500000,-0.011606410,-0.026726490,0.003896780,-0.999567810,0.023030000,0.053546000,-0.007180000,0.000562285,0.000660871,-0.001148929,0.031378060,-0.049801357,0.007236922,0.011725196,0.003582838,1.000661347,0.001702348,0.001114157,0.001875341,0.000000000,0.000000000,0.000000000,0.000000000,0.015463085,0.005855135,0.054442341,0.053042028,-0.015832864,0.000708651,0.014302874,-0.002244722,0.001380553,0.396037419,-0.151303608,-0.266178060,0.003459123,0.001312335,-0.002327385,0.999989450,0.000000000,0.000000000,0.000000000,0.000000000,0.000000000,0.000000000,-0.266660645,0.000000000,3.895601273
1772687748.371909142,0.014902000,0.006018000,0.054486000,-0.011702880,-0.026535910,0.004077380,-0.999571040,0.023214000,0.053170000,-0.007541000,0.000205313,0.000101306,-0.000639386,0.030785875,-0.051647959,0.010842771,0.012698586,0.002271815,1.000371086,-0.000011452,0.001246258,0.001040352,0.000000000,0.000000000,0.000000000,0.000000000,0.015450908,0.005846692,0.054470145,0.052873694,-0.015783250,0.000754452,0.015318947,-0.004830386,0.000304964,0.394894873,-0.151963859,-0.265834194,0.003449162,0.001318130,-0.002324391,0.999989481,0.000000000,0.000000000,0.000000000,0.000000000,0.000000000,0.000000000,-0.266137691,0.000000000,3.895601273
1772687748.381908894,0.014896000,0.006008000,0.054481000,-0.011555680,-0.026597490,0.004068500,-0.999571150,0.022920000,0.053291000,-0.007530000,0.000635482,0.000357341,-0.001641358,0.053376175,-0.078765488,0.020451384,0.014083183,0.002971744,0.998420925,0.001189313,-0.000853890,0.000444080,0.000000000,0.000000000,0.000000000,0.000000000,0.015440263,0.005847295,0.054484295,0.052754229,-0.015705113,0.000891481,0.016544364,-0.003591887,-0.001677714,0.394358681,-0.152437858,-0.265098194,0.003444484,0.001322299,-0.002317976,0.999989510,0.000000000,0.000000000,0.000000000,0.000000000,0.000000000,0.000000000,-0.265774215,0.000000000,3.895601273
1772687748.391908407,0.014958000,0.006042000,0.054382000,-0.013017900,-0.024521380,0.003545650,-0.999608260,0.025886000,0.049136000,-0.006458000,0.000879297,0.000164518,-0.001595416,0.064429480,-0.092998560,0.028314016,0.013464214,0.001713110,0.999343276,0.000073188,0.001529568,-0.000122233,0.000000000,0.000000000,0.000000000,0.000000000,0.015451645,0.005868695,0.054441437,0.052843346,-0.015641309,0.000571501,0.015987305,-0.005612873,-0.001436033,0.394991539,-0.152257283,-0.265290605,0.003450005,0.001320705,-0.002319657,0.999989510,0.000000000,0.000000000,0.000000000,0.000000000,0.000000000,0.000000000,-0.264882357,0.000000000,3.895601273
1772687748.401907682,0.014918000,0.005998000,0.054459000,-0.012520890,-0.025357050,0.003738640,-0.999593050,0.024877000,0.050809000,-0.006848000,0.000512981,-0.000734107,0.000284338,0.034861459,-0.043533784,0.023109698,0.012519841,0.001325561,1.000643720,-0.002396707,0.003267501,0.000809957,0.000000000,0.000000000,0.000000000,0.000000000,0.015452073,0.005852382,0.054449790,0.052933987,-0.015696708,0.000441471,0.015644398,-0.005385452,0.000521587,0.393979912,-0.152580708,-0.264706282,0.003441177,0.001323565,-0.002314556,0.999989529,0.000000000,0.000000000,0.000000000,0.000000000,0.000000000,0.000000000,-0.265426612,0.000000000,3.895601273
1772687748.411906719,0.014922000,0.005981000,0.054470000,-0.012289020,-0.025664920,0.003708610,-0.999588180,0.024412000,0.051423000,-0.006792000,0.000295333,-0.000226604,0.000582390,0.024391750,-0.013512203,0.018085748,0.014114690,0.001674212,1.000625973,-0.001838427,0.001572486,-0.000669502,0.000000000,0.000000000,0.000000000,0.000000000,0.015464123,0.005862964,0.054421577,0.052918653,-0.015812406,0.000232027,0.016110585,-0.005638178,-0.000506679,0.393227955,-0.152870319,-0.262870679,0.003434600,0.001326163,-0.002298537,0.999989569,0.000000000,0.000000000,0.000000000,0.000000000,0.000000000,0.000000000,-0.264469665,0.000000000,3.895601273
1772687748.421906710,0.014973000,0.006032000,0.054390000,-0.013416840,-0.024233460,0.003265920,-0.999610960,0.026700000,0.048555000,-0.005886000,-0.000303336,-0.000074945,0.001075654,-0.000841682,0.031294603,0.006410253,0.012711188,0.002008544,0.999907437,0.001474016,0.000236932,0.000226194,0.000000000,0.000000000,0.000000000,0.000000000,0.015479029,0.005873134,0.054397202,0.053005362,-0.015881272,0.000217576,0.015266963,-0.004848737,0.000792139,0.392914864,-0.152630901,-0.261480030,0.003431847,0.001324122,-0.002286391,0.999989596,0.000000000,0.000000000,0.000000000,0.000000000,0.000000000,0.000000000,-0.262364338,0.000000000,3.895601273
1772687748.431905508,0.014923000,0.005991000,0.054492000,-0.012690440,-0.025310120,0.003473140,-0.999593060,0.025230000,0.050710000,-0.006309000,-0.000378379,0.000094002,0.000499228,-0.006608009,0.043093502,0.002809513,0.011783325,0.001935910,1.001067628,0.001670968,-0.000613173,-0.001659962,0.000000000,0.000000000,0.000000000,0.000000000,0.015457549,0.005868030,0.054428703,0.052928513,-0.016007828,0.000259053,0.014645116,-0.004971759,0.000813488,0.392087078,-0.152831439,-0.260721780,0.003424618,0.001325911,-0.002279771,0.999989688,0.000000000,0.000000000,0.000000000,0.000000000,0.000000000,0.000000000,-0.261285283,0.000000000,3.895601273
1772687748.441905499,0.014909000,0.005996000,0.054505000,-0.012296150,-0.026129670,0.003651200,-0.999576270,0.024427000,0.052351000,-0.006666000,0.000779506,0.000770201,-0.001778525,0.048978405,-0.035224919,0.022312265,0.012725688,0.002103683,0.997946462,-0.000430935,-0.001979365,-0.001275143,0.000000000,0.000000000,0.000000000,0.000000000,0.015466350,0.005877522,0.054412318,0.052818927,-0.016028182,0.000321837,0.015566930,-0.004381260,-0.001964248,0.390994322,-0.153013039,-0.260617893,0.003415084,0.001327520,-0.002278857,0.999989688,0.000000000,0.000000000,0.000000000,0.000000000,0.000000000,0.000000000,-0.260544763,0.000000000,3.895601273
1772687748.451905012,0.014950000,0.006050000,0.054385000,-0.013484080,-0.024754710,0.003314580,-0.999597120,0.026829000,0.049599000,-0.005966000,0.000295469,0.000333330,-0.001138381,0.046500787,-0.040415892,0.017151154,0.013080961,0.002610380,0.999212745,-0.002865005,0.003848819,-0.002277666,0.000000000,0.000000000,0.000000000,0.000000000,0.015453979,0.005848744,0.054451380,0.052692949,-0.016195528,0.000433502,0.015236546,-0.003701264,-0.000814614,0.389961158,-0.153719569,-0.260343510,0.003406079,0.001333715,-0.002276471,0.999989692,0.000000000,0.000000000,0.000000000,0.000000000,0.000000000,0.000000000,-0.260676344,0.000000000,3.895601273
1772687748.461904287,0.014934000,0.005986000,0.054460000,-0.012872680,-0.025550810,0.003304320,-0.999585180,0.025602000,0.051188000,-0.005956000,0.000629848,0.000745860,-0.001817416,0.064076782,-0.080534126,0.017080299,0.012150688,0.004019200,1.000595162,0.002873645,-0.005593592,-0.001500682,0.000000000,0.000000000,0.000000000,0.000000000,0.015429996,0.005842104,0.054479044,0.052643153,-0.016189159,0.000319051,0.015100031,-0.003219676,0.000349679,0.389625258,-0.154093072,-0.260168812,0.003403153,0.001336986,-0.002274954,0.999989741,0.000000000,0.000000000,0.000000000,0.000000000,0.000000000,0.000000000,-0.260146204,0.000000000,3.895601273
1772687748.471904755,0.014963000,0.006030000,0.054385000,-0.013889600,-0.024192580,0.003127320,-0.999605930,0.027653000,0.048472000,-0.005587000,0.000972444,0.000542179,-0.001536419,0.069606630,-0.102492718,0.023220054,0.012483374,0.002801036,1.000448660,0.000002138,-0.002623213,0.000383907,0.000000000,0.000000000,0.000000000,0.000000000,0.015425016,0.005837086,0.054484682,0.052572729,-0.016086730,0.000334544,0.015057427,-0.004416315,0.000542185,0.389880497,-0.153797125,-0.260435689,0.003405378,0.001334390,-0.002277277,0.999989688,0.000000000,0.000000000,0.000000000,0.000000000,0.000000000,0.000000000,-0.260245032,0.000000000,3.895601273
1772687748.481904030,0.014978000,0.006039000,0.054371000,-0.014479510,-0.023269000,0.002910040,-0.999620140,0.028848000,0.046621000,-0.005150000,-0.000308970,-0.000308620,0.000974892,0.010398946,-0.032405252,0.003096509,0.011244482,0.001697684,1.000359365,0.001852728,0.000187786,-0.000691631,0.000000000,0.000000000,0.000000000,0.000000000,0.015425578,0.005834547,0.054485431,0.052545867,-0.015955945,0.000350358,0.014067584,-0.005374547,0.000394152,0.389884879,-0.154264209,-0.260082338,0.003405421,0.001338477,-0.002274208,0.999989689,0.000000000,0.000000000,0.000000000,0.000000000,0.000000000,0.000000000,-0.260430562,0.000000000,3.895601273
1772687748.491903543,0.014917000,0.006018000,0.054462000,-0.013407160,-0.024584890,0.003377300,-0.999602130,0.026673000,0.049261000,-0.006100000,-0.001215347,-0.000770900,0.002380768,-0.053903264,0.052411378,-0.018127651,0.011335137,0.002928921,1.000955408,-0.002645131,0.002228866,0.000528971,0.000000000,0.000000000,0.000000000,0.000000000,0.015458386,0.005844813,0.054452371,0.052484155,-0.015927671,0.000216369,0.013624464,-0.004310260,0.000119358,0.389656889,-0.155151874,-0.259191008,0.003403439,0.001346254,-0.002266453,0.999989740,0.000000000,0.000000000,0.000000000,0.000000000,0.000000000,0.000000000,-0.259896529,0.000000000,3.895601273
1772687748.501903057,0.014963000,0.006045000,0.054389000,-0.014067670,-0.023642610,0.003186170,-0.999616410,0.028009000,0.047374000,-0.005711000,-0.001596212,-0.001041912,0.002689000,-0.103688204,0.124669960,-0.034639844,0.012010575,0.003045767,1.001418371,-0.000393849,0.001224851,-0.000741998,0.000000000,0.000000000,0.000000000,0.000000000,0.015479853,0.005862191,0.054409788,0.052276350,-0.015884508,0.000049849,0.014438091,-0.003408762,0.000563972,0.389172667,-0.156066514,-0.258814601,0.003399227,0.001354256,-0.002263190,0.999989748,0.000000000,0.000000000,0.000000000,0.000000000,0.000000000,0.000000000,-0.259037509,0.000000000,3.895601273
1772687748.511902094,0.014922000,0.005966000,0.054503000,-0.012748970,-0.025392690,0.003268490,-0.999590910,0.025357000,0.050870000,-0.005894000,-0.001366908,-0.001380370,0.002591501,-0.137362610,0.171362749,-0.041174979,0.011823428,0.003235298,1.000711946,-0.001295126,0.002843768,0.000213198,0.000000000,0.000000000,0.000000000,0.000000000,0.015467707,0.005856894,0.054420773,0.052037547,-0.015842069,0.000165474,0.014562557,-0.003677889,0.000542521,0.388759658,-0.156468722,-0.259505871,0.003395639,0.001357754,-0.002269229,0.999989748,0.000000000,0.000000000,0.000000000,0.000000000,0.000000000,0.000000000,-0.259075668,0.000000000,3.895601273
1772687748.521902084,0.014889000,0.006000000,0.054500000,-0.012081690,-0.026203960,0.003681600,-0.999576830,0.023996000,0.052499000,-0.006736000,0.000171259,0.000066748,-0.000659842,-0.067302253,0.079464467,-0.018708739,0.012044695,0.003573233,0.999990022,0.000337622,0.001383520,-0.003035049,0.000000000,0.000000000,0.000000000,0.000000000,0.015444595,0.005846495,0.054455912,0.051835838,-0.015795626,0.000380017,0.014671727,-0.003228490,0.000158776,0.388050497,-0.157083201,-0.259309783,0.003389460,0.001363136,-0.002267528,0.999989748,0.000000000,0.000000000,0.000000000,0.000000000,0.000000000,0.000000000,-0.259376440,0.000000000,3.895601273
1772687748.531901121,0.014910000,0.005986000,0.054486000,-0.011814240,-0.026487420,0.003674280,-0.999572580,0.023459000,0.053064000,-0.006729000,0.001217639,0.000649002,-0.002230101,0.010313548,-0.024155900,0.010422189,0.012028822,0.002794979,1.000284788,0.000559496,0.003008719,-0.000783143,0.000000000,0.000000000,0.000000000,0.000000000,0.015440053,0.005858006,0.054449689,0.051706481,-0.015650553,0.000342239,0.015345197,-0.003578773,-0.000106543,0.388022809,-0.156806710,-0.260886150,0.003389231,0.001360677,-0.002281275,0.999989748,0.000000000,0.000000000,0.000000000,0.000000000,0.000000000,0.000000000,-0.259864786,0.000000000,3.895601273
1772687748.541901112,0.014915000,0.005989000,0.054482000,-0.011584140,-0.026835510,0.003801230,-0.999565510,0.022989000,0.053762000,-0.006988000,0.000681443,0.000453111,-0.001211131,0.029277347,-0.048541060,0.011511275,0.013053602,0.002616753,1.000385095,-0.003065513,0.000355934,0.001697915,0.000000000,0.000000000,0.000000000,0.000000000,0.015440315,0.005861884,0.054442854,0.051626396,-0.015551787,0.000303599,0.015313303,-0.003966961,0.000116108,0.387230992,-0.158175408,-0.260353869,0.003382342,0.001372653,-0.002276661,0.999989748,0.000000000,0.000000000,0.000000000,0.000000000,0.000000000,0.000000000,-0.260680525,0.000000000,3.895601273
1772687748.551901102,0.014967000,0.006037000,0.054381000,-0.012800410,-0.025039630,0.003347850,-0.999598900,0.025458000,0.050166000,-0.006060000,0.001097412,0.000965626,-0.001884688,0.075448404,-0.105769232,0.023692293,0.012671009,0.003916308,1.001322424,-0.002001923,0.004201842,0.003516485,0.000000000,0.000000000,0.000000000,0.000000000,0.015443807,0.005863052,0.054430582,0.051613184,-0.015531243,0.000233186,0.015597740,-0.003004545,0.000986740,0.385373216,-0.158986302,-0.260502002,0.003366148,0.001379762,-0.002277956,0.999989798,0.000000000,0.000000000,0.000000000,0.000000000,0.000000000,0.000000000,-0.260460319,0.000000000,3.895601273
1772687748.561901093,0.014976000,0.006043000,0.054358000,-0.013862390,-0.023642690,0.003043050,-0.999619730,0.027605000,0.047369000,-0.005434000,0.000111758,-0.000028789,0.000257841,0.045433856,-0.060762954,0.015965553,0.011450958,0.004230671,1.000767029,0.000200767,0.000609555,-0.000658485,0.000000000,0.000000000,0.000000000,0.000000000,0.015438994,0.005867732,0.054425510,0.051591334,-0.015454341,0.000250335,0.014696781,-0.002268749,0.000946259,0.385010953,-0.159443654,-0.259644464,0.003362986,0.001383785,-0.002270481,0.999989808,0.000000000,0.000000000,0.000000000,0.000000000,0.000000000,0.000000000,-0.260341424,0.000000000,3.895601273
1772687748.571900845,0.014928000,0.005982000,0.054481000,-0.012911170,-0.024942990,0.003266260,-0.999600160,0.025684000,0.049971000,-0.005893000,-0.000222622,0.000027138,0.000380360,0.029981670,-0.041659381,0.005808398,0.011068470,0.003275091,1.000332197,0.000671899,-0.001720762,-0.003373675,0.000000000,0.000000000,0.000000000,0.000000000,0.015422420,0.005864218,0.054447514,0.051506259,-0.015335324,0.000438046,0.013566296,-0.002758684,-0.000193148,0.384747948,-0.159398042,-0.259316503,0.003360686,0.001383402,-0.002267615,0.999989846,0.000000000,0.000000000,0.000000000,0.000000000,0.000000000,0.000000000,-0.259621048,0.000000000,3.895601273
1772687748.581899881,0.014904000,0.005997000,0.054495000,-0.012324280,-0.025736850,0.003644420,-0.999586140,0.024486000,0.051565000,-0.006660000,-0.000435219,-0.000034772,0.000287446,0.014062429,-0.021665168,-0.002028956,0.011394386,0.002157644,1.000785810,0.000614390,-0.000745661,-0.002073720,0.000000000,0.000000000,0.000000000,0.000000000,0.015417011,0.005858446,0.054466608,0.051406147,-0.015210403,0.000565216,0.013705607,-0.004774321,0.000862864,0.384131434,-0.159817915,-0.259435483,0.003355315,0.001387075,-0.002268658,0.999989867,0.000000000,0.000000000,0.000000000,0.000000000,0.000000000,0.000000000,-0.259306604,0.000000000,3.895601273
1772687748.591899633,0.014955000,0.006044000,0.054393000,-0.013423580,-0.024300930,0.003301290,-0.999609110,0.026711000,0.048691000,-0.005955000,-0.001021223,-0.000315866,0.001033986,-0.024733450,0.032613362,-0.020331260,0.012025396,0.002309092,1.001027393,-0.000126368,-0.000241490,0.000392956,0.000000000,0.000000000,0.000000000,0.000000000,0.015437514,0.005872953,0.054438533,0.051342426,-0.015125038,0.000415843,0.014989708,-0.003858716,0.000674946,0.384200694,-0.160376491,-0.258579109,0.003355920,0.001391973,-0.002261202,0.999989845,0.000000000,0.000000000,0.000000000,0.000000000,0.000000000,0.000000000,-0.259455487,0.000000000,3.895601273
1772687748.601899147,0.014924000,0.005997000,0.054465000,-0.012754930,-0.025123150,0.003473830,-0.999596950,0.025360000,0.050336000,-0.006312000,-0.000081803,0.000312836,-0.000517372,-0.003588956,0.006686757,-0.010610227,0.012907316,0.003763621,0.999471672,-0.003687846,0.003137618,-0.000302652,0.000000000,0.000000000,0.000000000,0.000000000,0.015426600,0.005872921,0.054455018,0.051194931,-0.015204278,0.000576863,0.015757478,-0.003086911,0.000095720,0.383795421,-0.160246920,-0.257891595,0.003352373,0.001390870,-0.002255194,0.999989842,0.000000000,0.000000000,0.000000000,0.000000000,0.000000000,0.000000000,-0.258418694,0.000000000,3.895601273
1772687748.611898899,0.014960000,0.006030000,0.054380000,-0.013699550,-0.023760300,0.003264790,-0.999618480,0.027268000,0.047610000,-0.005883000,0.000236744,0.000624292,-0.000873450,0.015838422,-0.015327722,-0.004589574,0.013878737,0.003097379,0.999256411,0.003695673,-0.001186973,-0.001929549,0.000000000,0.000000000,0.000000000,0.000000000,0.015417993,0.005854836,0.054477541,0.051204605,-0.015194626,0.000634752,0.016217465,-0.003623028,-0.000523446,0.382960226,-0.160226070,-0.257462107,0.003345079,0.001390717,-0.002251435,0.999989927,0.000000000,0.000000000,0.000000000,0.000000000,0.000000000,0.000000000,-0.257812515,0.000000000,3.895601273
1772687748.621898651,0.014901000,0.006019000,0.054456000,-0.012960650,-0.024909970,0.003602810,-0.999599190,0.025766000,0.049914000,-0.006565000,-0.000272838,-0.000205546,0.000845010,-0.013219792,0.029791148,-0.013699525,0.013376731,0.002898478,1.001299201,0.002768272,-0.002390418,0.002692704,0.000000000,0.000000000,0.000000000,0.000000000,0.015415825,0.005850577,0.054481428,0.051317637,-0.015127489,0.000602915,0.016421250,-0.003594907,0.000438288,0.381967493,-0.160116413,-0.256940554,0.003336407,0.001389795,-0.002246868,0.999989927,0.000000000,0.000000000,0.000000000,0.000000000,0.000000000,0.000000000,-0.257392976,0.000000000,3.895601273
1772687748.631898642,0.014898000,0.005993000,0.054502000,-0.012211690,-0.026040720,0.003861410,-0.999578830,0.024247000,0.052177000,-0.007093000,-0.000559681,-0.000449847,0.001505590,-0.036885745,0.066362836,-0.023577947,0.013418914,0.004089438,0.999316124,0.001238452,0.000462368,-0.003068042,0.000000000,0.000000000,0.000000000,0.000000000,0.015417081,0.005852339,0.054478914,0.051456047,-0.015097187,0.000568936,0.016429615,-0.003137629,0.000263475,0.381478694,-0.159641069,-0.256327532,0.003332125,0.001385674,-0.002241499,0.999989984,0.000000000,0.000000000,0.000000000,0.000000000,0.000000000,0.000000000,-0.256767526,0.000000000,3.895601273
1772687748.641897917,0.014963000,0.006038000,0.054398000,-0.013309290,-0.024648110,0.003471870,-0.999601560,0.026472000,0.049389000,-0.006293000,-0.000396523,-0.000495129,0.001344452,-0.047643703,0.084110949,-0.024234537,0.014432805,0.003533000,1.000119756,0.002075853,-0.002430175,-0.003345904,0.000000000,0.000000000,0.000000000,0.000000000,0.015435639,0.005868391,0.054442049,0.051644124,-0.014950504,0.000389586,0.016858225,-0.003032815,-0.000667921,0.382049561,-0.159173755,-0.256185942,0.003337096,0.001381589,-0.002240257,0.999989986,0.000000000,0.000000000,0.000000000,0.000000000,0.000000000,0.000000000,-0.256271452,0.000000000,3.895601273
1772687748.651897430,0.014915000,0.006021000,0.054468000,-0.012685900,-0.025465610,0.003822820,-0.999587890,0.025202000,0.051029000,-0.007006000,-0.000058647,-0.000349551,0.000486484,-0.043278788,0.067934858,-0.018726336,0.013416068,0.003572835,1.001651505,0.001738160,0.003163700,-0.003012200,0.000000000,0.000000000,0.000000000,0.000000000,0.015443606,0.005864003,0.054440156,0.051836772,-0.014916226,0.000305853,0.016458498,-0.002881327,0.001034944,0.382317256,-0.158561275,-0.256520004,0.003339424,0.001376230,-0.002243157,0.999989986,0.000000000,0.000000000,0.000000000,0.000000000,0.000000000,0.000000000,-0.256199570,0.000000000,3.895601273
1772687748.661896706,0.014909000,0.005983000,0.054497000,-0.012214690,-0.026244420,0.003904960,-0.999573300,0.024250000,0.052586000,-0.007175000,0.000733350,-0.000014977,-0.001102967,-0.003268697,0.007366263,0.003243747,0.012028414,0.003810502,0.998623092,-0.000592596,0.001175850,-0.000914851,0.000000000,0.000000000,0.000000000,0.000000000,0.015435823,0.005862420,0.054456125,0.051953867,-0.014854795,0.000418527,0.015134110,-0.002875667,-0.000183736,0.382193547,-0.159311471,-0.257144153,0.003338367,0.001382760,-0.002248624,0.999989933,0.000000000,0.000000000,0.000000000,0.000000000,0.000000000,0.000000000,-0.256627002,0.000000000,3.895601273
1772687748.671895504,0.014913000,0.005995000,0.054479000,-0.012110880,-0.026385030,0.003918300,-0.999570810,0.024040000,0.052867000,-0.007204000,0.000320354,0.000144044,-0.000850546,0.008247698,-0.008613768,0.010780290,0.011560117,0.003558717,0.998813590,0.000500442,0.002677981,0.000866074,0.000000000,0.000000000,0.000000000,0.000000000,0.015427749,0.005859540,0.054473024,0.051975075,-0.014784313,0.000465239,0.014554171,-0.002791450,-0.002321240,0.381588914,-0.159286398,-0.257284027,0.003333092,0.001382549,-0.002249837,0.999989969,0.000000000,0.000000000,0.000000000,0.000000000,0.000000000,0.000000000,-0.257152380,0.000000000,3.895601273
1772687748.681895494,0.014918000,0.006005000,0.054468000,-0.011918140,-0.026640110,0.003949930,-0.999566240,0.023651000,0.053377000,-0.007272000,0.000058492,0.000110106,-0.000232354,0.008304148,-0.009504461,0.011128687,0.012046914,0.002741324,1.001128815,0.000196311,0.003673285,0.001130885,0.000000000,0.000000000,0.000000000,0.000000000,0.015427034,0.005851084,0.054485519,0.051957753,-0.014733110,0.000387092,0.014197492,-0.004072626,0.000878289,0.382022054,-0.160361208,-0.256762442,0.003336886,0.001391935,-0.002245321,0.999989948,0.000000000,0.000000000,0.000000000,0.000000000,0.000000000,0.000000000,-0.257171159,0.000000000,3.895601273
1772687748.691894770,0.014964000,0.006042000,0.054376000,-0.013115750,-0.024856900,0.003513720,-0.999598800,0.026082000,0.049807000,-0.006381000,0.000468807,0.000404487,-0.000553621,0.026949179,-0.031830886,0.020745238,0.013482898,0.001824084,1.001677257,-0.001332636,0.001568210,0.001559752,0.000000000,0.000000000,0.000000000,0.000000000,0.015431821,0.005838155,0.054491897,0.051957361,-0.014730152,0.000359460,0.015998598,-0.004723683,0.002231315,0.381749827,-0.160225526,-0.256981373,0.003334510,0.001390750,-0.002247225,0.999989927,0.000000000,0.000000000,0.000000000,0.000000000,0.000000000,0.000000000,-0.256809883,0.000000000,3.895601273
1772687748.701894045,0.014940000,0.005993000,0.054458000,-0.012815300,-0.025557550,0.003418560,-0.999585360,0.025481000,0.051204000,-0.006187000,-0.000160342,-0.000311826,0.000966908,0.000316418,0.011666231,0.010808994,0.014341370,0.003248798,1.001683260,-0.001937887,0.000850181,0.000672193,0.000000000,0.000000000,0.000000000,0.000000000,0.015431738,0.005826222,0.054494201,0.052054082,-0.014841328,0.000539198,0.016982793,-0.004650129,0.001655025,0.379824962,-0.161348377,-0.254893318,0.003317710,0.001400647,-0.002229013,0.999990025,0.000000000,0.000000000,0.000000000,0.000000000,0.000000000,0.000000000,-0.256216630,0.000000000,3.895601273
1772687748.711894035,0.014912000,0.006013000,0.054476000,-0.012531040,-0.025913350,0.003656680,-0.999578960,0.024898000,0.051920000,-0.006670000,-0.000383138,-0.001408713,0.001857569,-0.033939932,0.064600483,0.003964652,0.013419757,0.003449671,1.002653787,-0.000479088,-0.003148339,-0.003253296,0.000000000,0.000000000,0.000000000,0.000000000,0.015429238,0.005835237,0.054486966,0.052266320,-0.014820072,0.000650608,0.016861805,-0.003416476,0.002445348,0.378402328,-0.160560420,-0.254316801,0.003305272,0.001393815,-0.002223942,0.999990099,0.000000000,0.000000000,0.000000000,0.000000000,0.000000000,0.000000000,-0.254602999,0.000000000,3.895601273
1772687748.721893311,0.014910000,0.005991000,0.054500000,-0.012096910,-0.026520400,0.003730640,-0.999568110,0.024022000,0.053133000,-0.006826000,-0.000476402,-0.001351561,0.001588111,-0.056238557,0.095977734,-0.004884166,0.012982469,0.002880319,1.001757177,-0.001794381,0.002357342,0.001496398,0.000000000,0.000000000,0.000000000,0.000000000,0.015426296,0.005844662,0.054487503,0.052443891,-0.014746594,0.000848817,0.015779943,-0.003167417,0.001895894,0.377515667,-0.158859900,-0.254887788,0.003297508,0.001378976,-0.002228865,0.999990106,0.000000000,0.000000000,0.000000000,0.000000000,0.000000000,0.000000000,-0.254611840,0.000000000,3.895601273
