t,px,py,pz,qx,qy,qz,qw,roll,pitch,yaw,vx,vy,vz,wx_vicon,wy_vicon,wz_vicon,imu_acc_x,imu_acc_y,imu_acc_z,imu_gyro_x,imu_gyro_y,imu_gyro_z,motor_motor_m1,motor_motor_m2,motor_motor_m3,motor_motor_m4,est_stateEstimate_x,est_stateEstimate_y,est_stateEstimate_z,est_stateEstimate_vx,est_stateEstimate_vy,est_stateEstimate_vz,est_stateEstimate_ax,est_stateEstimate_ay,est_stateEstimate_az,att_stateEstimate_roll,att_stateEstimate_pitch,att_stateEstimate_yaw,att_stateEstimate_qx,att_stateEstimate_qy,att_stateEstimate_qz,att_stateEstimate_qw,sp_ctrltarget_x,sp_ctrltarget_y,sp_ctrltarget_z,sp_ctrltarget_yaw,pid_controller_roll,pid_controller_pitch,pid_controller_yaw,pid_controller_cmd_thrust,pwr_pm_vbat
1772425411.083950758,0.015134000,0.005452000,0.072177000,-0.002737560,0.019297800,0.013777740,0.999715100,-0.004946000,0.038670000,0.027466000,-0.000364996,0.000163442,-0.001443747,-0.022080950,-0.015094422,-0.008717809,0.008429207,0.011127906,0.998603821,0.004204685,-0.002836803,-0.000925029,0.000000000,0.000000000,0.000000000,0.000000000,0.015910192,0.005745998,0.072177797,0.040098425,0.015401779,0.000415407,0.011642918,0.007073766,-0.001286062,0.244543396,-0.159780684,1.116097401,0.002120356,0.001415066,0.009736616,0.999948344,0.000000000,0.000000000,0.000000000,0.000000000,0.000000000,0.000000000,1.115966993,0.000000000,3.995894432
1772425411.093950510,0.015132000,0.005456000,0.072167000,-0.002795430,0.019117070,0.013713830,0.999719290,-0.005069000,0.038309000,0.027337000,-0.000062082,-0.000239239,-0.000535471,-0.011972288,-0.005159719,-0.004286325,0.008657853,0.010778412,0.998483905,-0.001299525,-0.002967890,-0.007553445,0.000000000,0.000000000,0.000000000,0.000000000,0.015899878,0.005749754,0.072171626,0.040087794,0.015648601,0.000200394,0.011165850,0.006290512,-0.001110510,0.244956346,-0.158505197,1.114626666,0.002124086,0.001403944,0.009723802,0.999948475,0.000000000,0.000000000,0.000000000,0.000000000,0.000000000,0.000000000,1.114283931,0.000000000,3.995894432
1772425411.103950262,0.015130000,0.005446000,0.072158000,-0.002846540,0.019230470,0.013780400,0.999716050,-0.005165000,0.038538000,0.027467000,0.000055284,-0.000338656,0.000012199,-0.004921028,0.001945464,-0.001168754,0.007796212,0.007844250,0.999499736,-0.003377149,-0.002517371,-0.000896336,0.000000000,0.000000000,0.000000000,0.000000000,0.015898396,0.005751768,0.072170233,0.039989599,0.015660567,0.000115229,0.010684838,0.003977122,-0.001499197,0.244335581,-0.156043737,1.112226142,0.002118907,0.001382367,0.009702908,0.999948733,0.000000000,0.000000000,0.000000000,0.000000000,0.000000000,0.000000000,1.112021227,0.000000000,3.995894432
1772425411.113949537,0.015133000,0.005449000,0.072169000,-0.002920100,0.019331360,0.013673520,0.999715360,-0.005314000,0.038741000,0.027250000,0.000041647,-0.000229915,0.000269192,-0.000331790,0.006621183,0.000917608,0.008288925,0.008897042,0.999559314,0.000337926,0.000898149,-0.000160549,0.000000000,0.000000000,0.000000000,0.000000000,0.015897544,0.005750208,0.072165457,0.039900716,0.015596388,-0.000046350,0.010939436,0.004721545,-0.000419695,0.243701179,-0.154440491,1.110685286,0.002113526,0.001368295,0.009689501,0.999948909,0.000000000,0.000000000,0.000000000,0.000000000,0.000000000,0.000000000,1.110498178,0.000000000,3.995894432
1772425411.123950005,0.015133000,0.005445000,0.072173000,-0.002819350,0.019228260,0.013768720,0.999716330,-0.005111000,0.038533000,0.027445000,-0.000048446,-0.000008120,0.000305439,0.002395115,0.009271046,0.002247188,0.008638072,0.008556970,1.000735020,0.000088374,-0.003582115,-0.001062895,0.000000000,0.000000000,0.000000000,0.000000000,0.015897898,0.005751254,0.072164882,0.039856356,0.015571012,-0.000018584,0.011426243,0.004610293,0.001555087,0.243202847,-0.154165337,1.110624327,0.002109201,0.001365851,0.009688980,0.999948928,0.000000000,0.000000000,0.000000000,0.000000000,0.000000000,0.000000000,1.110770802,0.000000000,3.995894432
1772425411.133949995,0.015132000,0.005444000,0.072176000,-0.002851540,0.019252100,0.013760030,0.999715900,-0.005176000,0.038581000,0.027426000,-0.000160451,0.000231624,0.000190870,0.003854493,0.010296764,0.003099787,0.009066277,0.009756121,0.999932016,-0.002011738,-0.004058544,0.000128308,0.000000000,0.000000000,0.000000000,0.000000000,0.015895499,0.005754153,0.072170605,0.039863057,0.015614295,0.000056712,0.010956269,0.006134910,0.000567888,0.242759187,-0.152954566,1.111067252,0.002105427,0.001355256,0.009692872,0.999948881,0.000000000,0.000000000,0.000000000,0.000000000,0.000000000,0.000000000,1.111041448,0.000000000,3.995894432
1772425411.143949509,0.015133000,0.005447000,0.072163000,-0.002821060,0.019391470,0.013741840,0.999713550,-0.005111000,0.038859000,0.027391000,-0.000101243,0.000246989,-0.000036519,0.006174347,0.008518333,0.004267926,0.008143498,0.010340969,1.002199274,-0.001022233,0.002395814,0.001419740,0.000000000,0.000000000,0.000000000,0.000000000,0.015897535,0.005756033,0.072175395,0.039789760,0.015774358,0.000181479,0.010501094,0.005431371,0.002639393,0.242396651,-0.150821328,1.110105237,0.002102455,0.001336592,0.009684522,0.999948976,0.000000000,0.000000000,0.000000000,0.000000000,0.000000000,0.000000000,1.109882150,0.000000000,3.995894432
1772425411.153949499,0.015121000,0.005459000,0.072169000,-0.002818580,0.019404430,0.013774420,0.999712850,-0.005105000,0.038885000,0.027456000,-0.000225408,0.000147805,-0.000249612,0.006938990,0.010828177,0.006683439,0.009750816,0.010654405,1.001534569,-0.002912367,0.002602830,0.001058725,0.000000000,0.000000000,0.000000000,0.000000000,0.015897862,0.005757541,0.072176188,0.039810759,0.015890658,0.000438416,0.012456073,0.006173860,0.001998353,0.241064473,-0.151956232,1.109339740,0.002090743,0.001346369,0.009677836,0.999949079,0.000000000,0.000000000,0.000000000,0.000000000,0.000000000,0.000000000,1.109313985,0.000000000,3.995894432
1772425411.163949966,0.015123000,0.005460000,0.072173000,-0.002751200,0.019511980,0.013851730,0.999709880,-0.004964000,0.039099000,0.027613000,-0.000110762,-0.000002370,-0.000244076,0.006005478,0.011137788,0.004308521,0.009741611,0.010155897,0.999676435,0.000907634,-0.001345448,0.003235385,0.000000000,0.000000000,0.000000000,0.000000000,0.015903075,0.005757956,0.072178379,0.039942125,0.016042308,0.000514379,0.012105870,0.005857712,-0.000050025,0.240841856,-0.151374246,1.108691568,0.002088857,0.001341260,0.009672194,0.999949146,0.000000000,0.000000000,0.000000000,0.000000000,0.000000000,0.000000000,1.108612124,0.000000000,3.995894432
1772425411.173950434,0.015132000,0.005447000,0.072166000,-0.002745310,0.019461080,0.013814670,0.999711400,-0.004955000,0.038997000,0.027539000,0.000118376,-0.000242774,-0.000100583,0.005986157,0.003009636,0.004605712,0.008765025,0.008974669,0.998424076,0.001888772,-0.003582804,0.000735775,0.000000000,0.000000000,0.000000000,0.000000000,0.015905296,0.005758107,0.072179983,0.040003319,0.016070154,0.000408221,0.011471706,0.005189415,-0.001162177,0.240788763,-0.151462447,1.107874929,0.002088396,0.001342010,0.009665067,0.999949222,0.000000000,0.000000000,0.000000000,0.000000000,0.000000000,0.000000000,1.107662246,0.000000000,3.995894432
1772425411.183950424,0.015129000,0.005447000,0.072160000,-0.002674430,0.019529170,0.013888710,0.999709240,-0.004809000,0.039131000,0.027690000,0.000335257,-0.000214880,0.000051671,0.002356447,-0.002841707,0.001656129,0.009438977,0.008961440,0.999890193,-0.000757537,0.001501229,0.002532851,0.000000000,0.000000000,0.000000000,0.000000000,0.015903394,0.005763424,0.072176262,0.039996529,0.016137804,0.000269475,0.011673443,0.004866851,-0.000076297,0.241090116,-0.149590111,1.106338550,0.002091202,0.001325669,0.009651691,0.999949336,0.000000000,0.000000000,0.000000000,0.000000000,0.000000000,0.000000000,1.106411907,0.000000000,3.995404675
1772425411.193949699,0.015119000,0.005451000,0.072163000,-0.002696680,0.019526860,0.013869910,0.999709490,-0.004854000,0.039127000,0.027651000,0.000195183,-0.000061111,-0.000049340,-0.001789333,-0.001889884,-0.001005930,0.009054940,0.006942653,0.999711884,0.001840987,-0.004307910,-0.004167964,0.000000000,0.000000000,0.000000000,0.000000000,0.015893398,0.005764641,0.072182028,0.040020372,0.016052389,0.000294512,0.011466561,0.003128618,-0.000406267,0.240429817,-0.148145465,1.106044831,0.002085565,0.001313002,0.009649162,0.999949388,0.000000000,0.000000000,0.000000000,0.000000000,0.000000000,0.000000000,1.105758298,0.000000000,3.994883807
1772425411.203949451,0.015138000,0.005444000,0.072165000,-0.002717080,0.019486360,0.013826580,0.999710820,-0.004897000,0.039047000,0.027564000,-0.000078769,0.000201768,0.000070493,-0.003160316,-0.001180672,-0.002615316,0.008563298,0.007885416,1.001240006,0.002073312,0.000361301,-0.001278684,0.000000000,0.000000000,0.000000000,0.000000000,0.015893183,0.005766796,0.072180453,0.039999187,0.015867108,0.000286068,0.011036040,0.003878843,0.000664633,0.240606691,-0.146184072,1.104818333,0.002087288,0.001295879,0.009638494,0.999949563,0.000000000,0.000000000,0.000000000,0.000000000,0.000000000,0.000000000,1.104920260,0.000000000,3.994362914
1772425411.213948727,0.015138000,0.005449000,0.072172000,-0.002736210,0.019394810,0.013854160,0.999712170,-0.004937000,0.038864000,0.027619000,-0.000221348,0.000215657,0.000084246,-0.000864023,0.002709207,-0.000040701,0.010123454,0.010313880,0.999526281,-0.002150032,0.002224688,0.000734593,0.000000000,0.000000000,0.000000000,0.000000000,0.015892653,0.005765577,0.072174275,0.040017342,0.015902019,0.000278141,0.012527797,0.005488994,0.000156576,0.240556110,-0.145328877,1.104966981,0.002086917,0.001288415,0.009639807,0.999949517,0.000000000,0.000000000,0.000000000,0.000000000,0.000000000,0.000000000,1.104554324,0.000000000,3.993842046
1772425411.223948240,0.015130000,0.005460000,0.072167000,-0.002759390,0.019492290,0.013823480,0.999710630,-0.004982000,0.039060000,0.027556000,-0.000164724,0.000024398,-0.000105439,0.002419152,0.004468578,0.000889527,0.011114457,0.007916154,1.000398561,-0.003758622,-0.000222281,0.001451857,0.000000000,0.000000000,0.000000000,0.000000000,0.015893757,0.005762085,0.072169186,0.040186654,0.015926734,0.000250234,0.013504172,0.004774560,0.000005627,0.239181119,-0.146125007,1.103492995,0.002074867,0.001295220,0.009626945,0.999949683,0.000000000,0.000000000,0.000000000,0.000000000,0.000000000,0.000000000,1.103489638,0.000000000,3.993321166
1772425411.233948231,0.015114000,0.005453000,0.072160000,-0.002748130,0.019596350,0.013855020,0.999708190,-0.004955000,0.039268000,0.027619000,-0.000269037,-0.000005556,-0.000170338,0.005861259,0.006446855,0.005452474,0.011104929,0.006774679,1.000180478,0.000376537,-0.001369659,0.004219008,0.000000000,0.000000000,0.000000000,0.000000000,0.015897016,0.005759382,0.072168613,0.040384662,0.015787639,0.000250379,0.013344029,0.002494745,0.000524729,0.239021857,-0.146003538,1.103463284,0.002073489,0.001294146,0.009626690,0.999949694,0.000000000,0.000000000,0.000000000,0.000000000,0.000000000,0.000000000,1.103459651,0.000000000,3.992800261
1772425411.243947983,0.015124000,0.005452000,0.072167000,-0.002640450,0.019555750,0.013858490,0.999709230,-0.004741000,0.039183000,0.027630000,-0.000224204,0.000005575,0.000031002,0.006140652,0.006217019,0.004899266,0.010436895,0.007414095,0.999375682,0.000515929,-0.001230976,-0.000266426,0.000000000,0.000000000,0.000000000,0.000000000,0.015905715,0.005756131,0.072170130,0.040575666,0.015606237,0.000221636,0.012923124,0.003715814,-0.000396550,0.238488240,-0.145144367,1.104254677,0.002068895,0.001286618,0.009633617,0.999949651,0.000000000,0.000000000,0.000000000,0.000000000,0.000000000,0.000000000,1.104376141,0.000000000,3.992279368
1772425411.253948212,0.015124000,0.005447000,0.072161000,-0.002622450,0.019600710,0.013946460,0.999707170,-0.004700000,0.039273000,0.027807000,0.000052001,-0.000036403,0.000212724,0.004625921,0.003326775,0.002364754,0.009841437,0.009800207,0.998521788,-0.000159454,-0.001217675,-0.001332072,0.000000000,0.000000000,0.000000000,0.000000000,0.015914440,0.005754265,0.072174925,0.040733457,0.015595711,0.000135164,0.012208811,0.005882885,-0.000856324,0.238503097,-0.144878156,1.103370656,0.002069057,0.001284280,0.009625906,0.999949677,0.000000000,0.000000000,0.000000000,0.000000000,0.000000000,0.000000000,1.103235903,0.000000000,3.991758451
1772425411.263948202,0.015128000,0.005451000,0.072163000,-0.002621150,0.019586970,0.013901960,0.999708070,-0.004700000,0.039245000,0.027718000,0.000182518,0.000051457,0.000328555,0.003008218,0.001939119,0.001341808,0.007844081,0.010060932,0.998151088,-0.002113467,-0.000132609,0.004506756,0.000000000,0.000000000,0.000000000,0.000000000,0.015916474,0.005755091,0.072176317,0.040734999,0.015774251,-0.000013237,0.010705947,0.006421760,-0.001391968,0.237793966,-0.142618218,1.100406251,0.002063092,0.001264447,0.009600088,0.999949941,0.000000000,0.000000000,0.000000000,0.000000000,0.000000000,0.000000000,1.100301933,0.000000000,3.991237545
1772425411.273948431,0.015121000,0.005457000,0.072175000,-0.002648430,0.019577510,0.013946560,0.999707560,-0.004753000,0.039228000,0.027806000,0.000255284,0.000132654,0.000254274,-0.001442419,0.000239454,-0.002753536,0.006947652,0.009198153,0.999235725,0.000618456,0.002369832,0.000800863,0.000000000,0.000000000,0.000000000,0.000000000,0.015913439,0.005758174,0.072169637,0.040567421,0.015854757,-0.000151358,0.009638953,0.004793449,-0.000922861,0.236336152,-0.143185244,1.100770363,0.002050319,0.001269279,0.009603272,0.999949992,0.000000000,0.000000000,0.000000000,0.000000000,0.000000000,0.000000000,1.100642528,0.000000000,3.990716628
1772425411.283948660,0.015130000,0.005455000,0.072179000,-0.002653190,0.019603830,0.013830490,0.999708640,-0.004766000,0.039280000,0.027574000,0.000180672,-0.000038908,0.000158372,-0.005445229,-0.004002743,-0.008994031,0.008023475,0.008064938,0.999895851,-0.002391236,0.000174133,-0.000567685,0.000000000,0.000000000,0.000000000,0.000000000,0.015905681,0.005760495,0.072161887,0.040370491,0.015813700,-0.000220569,0.010423441,0.004247350,-0.000098439,0.235519836,-0.143347977,1.099567818,0.002043196,0.001270609,0.009592785,0.999950098,0.000000000,0.000000000,0.000000000,0.000000000,0.000000000,0.000000000,1.099430760,0.000000000,3.990615845
1772425411.293949127,0.015126000,0.005454000,0.072171000,-0.002650160,0.019587340,0.013850880,0.999708690,-0.004760000,0.039247000,0.027615000,0.000318784,-0.000065035,-0.000042405,-0.004362455,-0.011226836,-0.011475010,0.009883622,0.007346729,0.999252113,-0.003716037,-0.000626113,-0.000302871,0.000000000,0.000000000,0.000000000,0.000000000,0.015897414,0.005757983,0.072159181,0.040334831,0.015699673,-0.000245061,0.012268039,0.003651079,-0.000832949,0.235689281,-0.143603361,1.098360339,0.002044666,0.001272830,0.009582241,0.999950169,0.000000000,0.000000000,0.000000000,0.000000000,0.000000000,0.000000000,1.098279906,0.000000000,3.990615845
1772425411.303949118,0.015133000,0.005452000,0.072170000,-0.002655000,0.019580630,0.013837860,0.999708990,-0.004770000,0.039233000,0.027588000,0.000077448,-0.000125447,-0.000101593,-0.004947245,-0.019998398,-0.008293104,0.009737601,0.007514388,0.998285175,-0.000467105,-0.001163398,0.000110665,0.000000000,0.000000000,0.000000000,0.000000000,0.015900710,0.005754933,0.072160339,0.040433181,0.015574082,-0.000362624,0.012605022,0.004003644,-0.001476856,0.233716188,-0.143112748,1.097727885,0.002027497,0.001268373,0.009576752,0.999950277,0.000000000,0.000000000,0.000000000,0.000000000,0.000000000,0.000000000,1.097519231,0.000000000,3.990615845
1772425411.313949585,0.015138000,0.005449000,0.072172000,-0.002765140,0.019352910,0.013704460,0.999714960,-0.005002000,0.038780000,0.027318000,-0.000151787,0.000013656,0.000009965,-0.004133953,-0.020311114,-0.005204502,0.009538492,0.009189933,0.999364314,-0.000597606,0.000099966,0.001398468,0.000000000,0.000000000,0.000000000,0.000000000,0.015910118,0.005753389,0.072162636,0.040533931,0.015547901,-0.000450890,0.012255759,0.005138741,-0.000650614,0.232310390,-0.143020180,1.096357217,0.002015252,0.001267424,0.009564808,0.999950391,0.000000000,0.000000000,0.000000000,0.000000000,0.000000000,0.000000000,1.096224939,0.000000000,3.990615845
1772425411.323949575,0.015131000,0.005449000,0.072173000,-0.002751300,0.019273870,0.013642390,0.999717380,-0.004979000,0.038622000,0.027195000,-0.000411442,0.000217075,0.000109460,-0.002083702,-0.009948939,0.000137072,0.009990815,0.009168681,0.999979825,-0.001645295,-0.003912075,-0.000989846,0.000000000,0.000000000,0.000000000,0.000000000,0.015912598,0.005755125,0.072162033,0.040626983,0.015609739,-0.000463815,0.012533722,0.005573914,0.000315200,0.231648631,-0.143031758,1.095450467,0.002009486,0.001267454,0.009556905,0.999950505,0.000000000,0.000000000,0.000000000,0.000000000,0.000000000,0.000000000,1.095357026,0.000000000,3.990615845
1772425411.333949089,0.015128000,0.005459000,0.072166000,-0.002690820,0.019231590,0.013773610,0.999716560,-0.004854000,0.038536000,0.027460000,-0.000454760,0.000208392,-0.000024223,0.001401122,0.005965318,0.002153626,0.008750369,0.009540712,1.000704304,-0.001732382,-0.001659126,-0.001029916,0.000000000,0.000000000,0.000000000,0.000000000,0.015911743,0.005756156,0.072158272,0.040682831,0.015686910,-0.000408744,0.011923171,0.005084816,0.000938780,0.230821631,-0.142033778,1.094922124,0.002002359,0.001258667,0.009552320,0.999950572,0.000000000,0.000000000,0.000000000,0.000000000,0.000000000,0.000000000,1.094871275,0.000000000,3.990615845
1772425411.343949318,0.015110000,0.005455000,0.072183000,-0.002755590,0.019210090,0.013804530,0.999716370,-0.004983000,0.038495000,0.027519000,-0.000525350,0.000144736,-0.000227040,0.002879741,0.020696615,0.005628513,0.007459369,0.008331849,1.000323707,-0.003125027,0.001621817,0.000676358,0.000000000,0.000000000,0.000000000,0.000000000,0.015913007,0.005755073,0.072155259,0.040606415,0.015710936,-0.000334318,0.009627408,0.004607057,0.000704935,0.230122290,-0.141704461,1.093146100,0.001996303,0.001255704,0.009536837,0.999950725,0.000000000,0.000000000,0.000000000,0.000000000,0.000000000,0.000000000,1.092915085,0.000000000,3.990615845
1772425411.353949070,0.015119000,0.005461000,0.072173000,-0.002692780,0.019556530,0.013782910,0.999710120,-0.004849000,0.039186000,0.027477000,-0.000100330,-0.000068706,-0.000381430,0.003655802,0.030352449,0.006268146,0.007451834,0.007085748,1.000527348,0.000312149,-0.000731118,0.001499551,0.000000000,0.000000000,0.000000000,0.000000000,0.015910142,0.005754534,0.072153936,0.040415898,0.015614288,-0.000285029,0.009435638,0.003305289,0.000418813,0.229693572,-0.141162602,1.092559056,0.001992614,0.001250929,0.009531728,0.999950809,0.000000000,0.000000000,0.000000000,0.000000000,0.000000000,0.000000000,1.092513415,0.000000000,3.990615845
1772425411.363949537,0.015118000,0.005458000,0.072161000,-0.002670040,0.019717320,0.013807860,0.999706680,-0.004798000,0.039507000,0.027527000,0.000292502,-0.000177914,-0.000157207,0.003108832,0.027568912,0.003067112,0.008357148,0.008006225,1.001027732,0.000123438,0.000334969,-0.000182171,0.000000000,0.000000000,0.000000000,0.000000000,0.015906312,0.005755191,0.072154160,0.040255663,0.015496860,-0.000204116,0.010507145,0.004054907,0.000749420,0.228861982,-0.140308767,1.092755897,0.001985426,0.001243413,0.009533469,0.999950826,0.000000000,0.000000000,0.000000000,0.000000000,0.000000000,0.000000000,1.092743596,0.000000000,3.990615845
1772425411.373949528,0.015119000,0.005450000,0.072158000,-0.002668990,0.019748900,0.013798640,0.999706180,-0.004795000,0.039570000,0.027509000,0.000520164,-0.000255148,0.000077176,0.004266474,0.011800679,-0.000139929,0.008530306,0.008874215,1.000887927,-0.001514790,-0.001761546,-0.003066208,0.000000000,0.000000000,0.000000000,0.000000000,0.015903600,0.005756611,0.072159321,0.040173270,0.015531860,-0.000062873,0.010959247,0.005631354,0.001157310,0.228206812,-0.139634058,1.091932269,0.001979774,0.001237457,0.009526299,0.999950883,0.000000000,0.000000000,0.000000000,0.000000000,0.000000000,0.000000000,1.091690308,0.000000000,3.990615845
1772425411.383949518,0.015122000,0.005452000,0.072166000,-0.002697910,0.019769200,0.013836570,0.999705180,-0.004851000,0.039612000,0.027583000,0.000496115,-0.000094056,0.000183741,0.006247995,-0.004415386,0.000662320,0.008147019,0.009154618,0.999946918,0.000082087,-0.001541954,-0.001111243,0.000000000,0.000000000,0.000000000,0.000000000,0.015902241,0.005757045,0.072164590,0.040087206,0.015600628,0.000025827,0.010736717,0.005215447,0.000476815,0.229279244,-0.139548907,1.089652376,0.001989164,0.001236763,0.009506396,0.999951072,0.000000000,0.000000000,0.000000000,0.000000000,0.000000000,0.000000000,1.089464564,0.000000000,3.990615845
1772425411.393950224,0.015141000,0.005448000,0.072168000,-0.002619170,0.019758490,0.013830100,0.999705690,-0.004694000,0.039588000,0.027574000,0.000151418,0.000043687,0.000250428,0.003798054,-0.017917611,0.001701475,0.008979957,0.010164901,1.000830832,-0.000105391,-0.004526803,-0.000806946,0.000000000,0.000000000,0.000000000,0.000000000,0.015904386,0.005752904,0.072167049,0.040028535,0.015655851,0.000083736,0.011343000,0.006139565,0.000470574,0.229140409,-0.137745492,1.087683567,0.001988123,0.001220980,0.009489249,0.999951255,0.000000000,0.000000000,0.000000000,0.000000000,0.000000000,0.000000000,1.087352617,0.000000000,3.990615845
1772425411.403950691,0.015130000,0.005456000,0.072184000,-0.002584460,0.019615050,0.013826080,0.999708660,-0.004629000,0.039300000,0.027567000,-0.000244134,0.000166065,0.000002525,-0.000616161,-0.017309356,0.001566235,0.011131024,0.009205745,1.002083137,-0.000115441,-0.001723652,0.001510182,0.000000000,0.000000000,0.000000000,0.000000000,0.015903553,0.005750916,0.072168547,0.040095453,0.015779146,0.000190479,0.013362036,0.005578872,0.001273155,0.229711790,-0.136313455,1.085172489,0.001993254,0.001208488,0.009467356,0.999951482,0.000000000,0.000000000,0.000000000,0.000000000,0.000000000,0.000000000,1.085187460,0.000000000,3.990615845
1772425411.413950682,0.015130000,0.005451000,0.072170000,-0.002593580,0.019379770,0.013802380,0.999713560,-0.004654000,0.038830000,0.027521000,-0.000532576,0.000103885,-0.000273407,-0.004307378,-0.015140263,-0.000936953,0.010409290,0.006277130,1.000375522,0.000036555,0.000451854,-0.000530660,0.000000000,0.000000000,0.000000000,0.000000000,0.015904887,0.005748927,0.072172476,0.040326145,0.015721183,0.000314848,0.012785812,0.001928938,0.000630682,0.228936921,-0.136289674,1.084753884,0.001986499,0.001208209,0.009463711,0.999951506,0.000000000,0.000000000,0.000000000,0.000000000,0.000000000,0.000000000,1.084516543,0.000000000,3.990615845
1772425411.423951149,0.015120000,0.005459000,0.072162000,-0.002608360,0.019509800,0.013838180,0.999710490,-0.004679000,0.039090000,0.027591000,-0.000324340,-0.000055944,-0.000260878,-0.006322363,-0.011884152,-0.005251665,0.010149500,0.006694919,0.999698631,-0.001134840,0.002618222,0.004242371,0.000000000,0.000000000,0.000000000,0.000000000,0.015906898,0.005749162,0.072170712,0.040411046,0.015426321,0.000297634,0.012259281,0.002949649,0.000357813,0.228942040,-0.136142954,1.083328531,0.001986571,0.001206904,0.009451276,0.999951619,0.000000000,0.000000000,0.000000000,0.000000000,0.000000000,0.000000000,1.083174990,0.000000000,3.990615845
1772425411.433951139,0.015114000,0.005456000,0.072157000,-0.002720260,0.019421000,0.013855470,0.999711680,-0.004905000,0.038916000,0.027622000,-0.000102700,-0.000023873,-0.000056197,-0.006339771,-0.003270326,-0.004003842,0.009798682,0.008357631,1.000443823,0.000028848,-0.000674985,0.000086569,0.000000000,0.000000000,0.000000000,0.000000000,0.015908911,0.005748533,0.072171618,0.040465872,0.015383966,0.000319943,0.011948576,0.004892069,0.000498299,0.229697157,-0.136292003,1.082449355,0.001993157,0.001208252,0.009443595,0.999951702,0.000000000,0.000000000,0.000000000,0.000000000,0.000000000,0.000000000,1.082346507,0.000000000,3.990615845
1772425411.443951130,0.015109000,0.005450000,0.072164000,-0.002784690,0.019470260,0.013781800,0.999711570,-0.005035000,0.039016000,0.027472000,0.000257052,-0.000056488,0.000068862,-0.003014442,0.009653923,-0.002307432,0.009452958,0.009259516,1.000838805,0.001716187,-0.002268372,-0.000930872,0.000000000,0.000000000,0.000000000,0.000000000,0.015909558,0.005748716,0.072172256,0.040492808,0.015410029,0.000349131,0.011281638,0.005862845,0.000661308,0.229024529,-0.136932932,1.082425154,0.001987235,0.001213789,0.009443379,0.999951720,0.000000000,0.000000000,0.000000000,0.000000000,0.000000000,0.000000000,1.082439949,0.000000000,3.990615845
1772425411.453950882,0.015129000,0.005450000,0.072169000,-0.002690980,0.019409430,0.013694280,0.999714210,-0.004853000,0.038891000,0.027300000,0.000371582,-0.000018629,0.000230187,-0.001942885,0.014471191,0.000024126,0.009106801,0.009253128,1.000750934,0.003741577,-0.001820766,0.001637117,0.000000000,0.000000000,0.000000000,0.000000000,0.015907006,0.005751169,0.072171140,0.040465610,0.015492088,0.000377394,0.011521190,0.005470340,0.000523932,0.228964080,-0.137090625,1.082029615,0.001986698,0.001215153,0.009439925,0.999951732,0.000000000,0.000000000,0.000000000,0.000000000,0.000000000,0.000000000,1.081901911,0.000000000,3.990615845
1772425411.463950872,0.015141000,0.005453000,0.072175000,-0.002685460,0.019488780,0.013732770,0.999712150,-0.004838000,0.039050000,0.027377000,0.000297864,-0.000071037,-0.000005458,-0.001288778,0.011802493,0.001390687,0.008542116,0.009114619,0.998423499,-0.003796229,-0.000682375,-0.000667543,0.000000000,0.000000000,0.000000000,0.000000000,0.015908578,0.005752617,0.072177477,0.040450772,0.015541411,0.000357341,0.011051953,0.005387307,-0.000858005,0.229694684,-0.136691548,1.081153023,0.001993116,0.001211716,0.009432274,0.999951779,0.000000000,0.000000000,0.000000000,0.000000000,0.000000000,0.000000000,1.081179413,0.000000000,3.990615845
1772425411.473950863,0.015121000,0.005459000,0.072167000,-0.002707860,0.019681050,0.013871420,0.999706410,-0.004872000,0.039436000,0.027653000,0.000080284,0.000046406,-0.000270222,-0.002105424,0.007715416,0.001529990,0.008067563,0.010164439,0.997351921,0.004638358,0.000436679,0.001866228,0.000000000,0.000000000,0.000000000,0.000000000,0.015909436,0.005755693,0.072178092,0.040350774,0.015629275,0.000113669,0.010239911,0.006478641,-0.002468112,0.229069749,-0.136509352,1.081433423,0.001987675,0.001210079,0.009434731,0.999951780,0.000000000,0.000000000,0.000000000,0.000000000,0.000000000,0.000000000,1.081483939,0.000000000,3.990615845
1772425411.483950615,0.015127000,0.005451000,0.072159000,-0.002754640,0.019769090,0.013806820,0.999705440,-0.004966000,0.039613000,0.027522000,-0.000191628,0.000092580,-0.000340171,-0.002766744,-0.003080104,0.000094621,0.009574428,0.009497763,0.998408976,0.001229577,-0.005082106,0.001067654,0.000000000,0.000000000,0.000000000,0.000000000,0.015905795,0.005755599,0.072173549,0.040261276,0.015787915,-0.000149518,0.011542866,0.006008677,-0.000768827,0.230250845,-0.133486889,1.081540994,0.001998229,0.001183804,0.009435712,0.999951792,0.000000000,0.000000000,0.000000000,0.000000000,0.000000000,0.000000000,1.081443386,0.000000000,3.990615845
1772425411.493949890,0.015128000,0.005451000,0.072160000,-0.002815150,0.019573110,0.013793070,0.999709320,-0.005093000,0.039223000,0.027493000,-0.000344736,0.000136791,-0.000155439,-0.001673920,-0.009639604,-0.004633923,0.009013606,0.010537898,1.001757937,0.002851472,-0.002264500,-0.000387767,0.000000000,0.000000000,0.000000000,0.000000000,0.015908423,0.005755137,0.072165541,0.040307848,0.015898188,-0.000135094,0.011264177,0.006482175,0.000764486,0.230096633,-0.132559235,1.080577287,0.001996970,0.001175679,0.009427320,0.999951859,0.000000000,0.000000000,0.000000000,0.000000000,0.000000000,0.000000000,1.080374481,0.000000000,3.990615845
1772425411.503949881,0.015120000,0.005453000,0.072157000,-0.002758690,0.019479630,0.013737750,0.999712060,-0.004984000,0.039034000,0.027384000,-0.000042716,0.000086830,0.000095804,0.001192446,-0.015245704,-0.007474299,0.008700295,0.009226108,1.001363143,-0.000512169,0.000292827,-0.001040221,0.000000000,0.000000000,0.000000000,0.000000000,0.015905928,0.005754849,0.072165770,0.040234241,0.016043904,-0.000003742,0.011353152,0.005530564,0.001289010,0.230649662,-0.131467308,1.078796925,0.002001904,0.001166165,0.009411796,0.999951991,0.000000000,0.000000000,0.000000000,0.000000000,0.000000000,0.000000000,1.078474454,0.000000000,3.990615845
1772425411.513949156,0.015126000,0.005459000,0.072161000,-0.002753320,0.019377820,0.013691310,0.999714690,-0.004978000,0.038830000,0.027292000,0.000158159,0.000025486,0.000273252,0.003470774,-0.017397491,-0.004732801,0.009800976,0.008085663,1.001244332,0.002175151,0.003943959,0.003994730,0.000000000,0.000000000,0.000000000,0.000000000,0.015908640,0.005755186,0.072169767,0.040261608,0.016034750,0.000175832,0.011936848,0.004350021,0.001329715,0.231208574,-0.131451665,1.076685450,0.002006804,0.001166038,0.009393366,0.999952168,0.000000000,0.000000000,0.000000000,0.000000000,0.000000000,0.000000000,1.076511588,0.000000000,3.990615845
1772425411.523948431,0.015122000,0.005459000,0.072169000,-0.002683910,0.019375470,0.013704890,0.999714740,-0.004839000,0.038823000,0.027322000,0.000087316,-0.000124806,0.000317658,0.001631401,-0.015930528,-0.000816303,0.010009146,0.007384801,0.999332030,0.001880100,0.000252039,0.003545608,0.000000000,0.000000000,0.000000000,0.000000000,0.015905819,0.005761030,0.072175489,0.040294180,0.015973394,0.000235274,0.012821134,0.002944005,-0.000018802,0.231549019,-0.132073336,1.075708518,0.002009733,0.001171473,0.009384827,0.999952257,0.000000000,0.000000000,0.000000000,0.000000000,0.000000000,0.000000000,1.075623845,0.000000000,3.990615845
1772425411.533947706,0.015126000,0.005457000,0.072169000,-0.002727180,0.019417660,0.013692340,0.999713980,-0.004925000,0.038909000,0.027295000,0.000142716,-0.000304993,0.000156410,-0.000830418,-0.000564617,0.002904993,0.010620733,0.007232405,1.000070318,-0.001106593,0.002579945,0.005166391,0.000000000,0.000000000,0.000000000,0.000000000,0.015906870,0.005763226,0.072177944,0.040457129,0.015778841,0.000208504,0.012569234,0.003003961,-0.000004938,0.231457804,-0.132483276,1.075011036,0.002008911,0.001175031,0.009378734,0.999952286,0.000000000,0.000000000,0.000000000,0.000000000,0.000000000,0.000000000,1.074904397,0.000000000,3.990615845
1772425411.543946743,0.015133000,0.005446000,0.072168000,-0.002757680,0.019313310,0.013752660,0.999715090,-0.004986000,0.038701000,0.027415000,0.000204254,-0.000364686,0.000079759,-0.002108206,0.007513470,0.005231179,0.010195050,0.006589495,1.000028720,-0.002310749,0.002023827,-0.002251774,0.000000000,0.000000000,0.000000000,0.000000000,0.015905788,0.005764372,0.072176733,0.040531700,0.015599233,0.000191846,0.012358163,0.003082729,0.000845221,0.230799940,-0.132806541,1.074041611,0.002003154,0.001177781,0.009370275,0.999952395,0.000000000,0.000000000,0.000000000,0.000000000,0.000000000,0.000000000,1.073878576,0.000000000,3.990615845
1772425411.553946733,0.015127000,0.005446000,0.072167000,-0.002724180,0.019225800,0.013764390,0.999716700,-0.004921000,0.038525000,0.027440000,0.000002836,-0.000201729,-0.000163986,-0.000678103,0.012216892,0.005232083,0.010062674,0.007329890,1.002854440,0.000935147,-0.005744372,-0.001630171,0.000000000,0.000000000,0.000000000,0.000000000,0.015905516,0.005757714,0.072172355,0.040613247,0.015415189,0.000320065,0.011901378,0.003663772,0.002067765,0.230932014,-0.131647160,1.072216181,0.002004420,0.001167643,0.009354365,0.999952542,0.000000000,0.000000000,0.000000000,0.000000000,0.000000000,0.000000000,1.071770853,0.000000000,3.990615845
1772425411.563946486,0.015129000,0.005443000,0.072171000,-0.002795840,0.019360290,0.013738140,0.999714270,-0.005062000,0.038796000,0.027384000,-0.000053302,0.000039239,-0.000082343,0.001580305,0.006874223,0.003170584,0.009272543,0.008100656,1.001378909,0.001188880,-0.004671423,-0.003120639,0.000000000,0.000000000,0.000000000,0.000000000,0.015938300,0.005767352,0.072169460,0.040709502,0.015361174,0.000504102,0.011301955,0.004315047,0.001116071,0.231188934,-0.129673906,1.069155778,0.002006854,0.001150391,0.009327692,0.999952807,0.000000000,0.000000000,0.000000000,0.000000000,0.000000000,0.000000000,1.068834685,0.000000000,3.990615845
1772425411.573946714,0.015128000,0.005450000,0.072163000,-0.002716740,0.019789690,0.013848330,0.999704560,-0.004888000,0.039653000,0.027606000,-0.000081100,0.000292949,0.000090443,0.006103425,0.007014375,0.001856125,0.008557990,0.008045965,0.999621205,0.001722460,0.000957155,-0.000398143,0.000000000,0.000000000,0.000000000,0.000000000,0.015928368,0.005758984,0.072171454,0.040557179,0.015273826,0.000513647,0.010800042,0.004202200,-0.000884349,0.231030334,-0.128355670,1.067295260,0.002005596,0.001138842,0.009311482,0.999952972,0.000000000,0.000000000,0.000000000,0.000000000,0.000000000,0.000000000,1.067367815,0.000000000,3.990615845
1772425411.583946705,0.015131000,0.005450000,0.072169000,-0.002682280,0.019502220,0.013780640,0.999711240,-0.004829000,0.039077000,0.027473000,-0.000128943,0.000372728,0.000207984,0.005941114,0.011024925,-0.000045278,0.011026456,0.008052847,0.999056652,0.002341907,-0.001820385,-0.000182160,0.000000000,0.000000000,0.000000000,0.000000000,0.015920853,0.005750989,0.072176653,0.040466068,0.015162476,0.000371617,0.012768944,0.004889653,-0.000694659,0.230608001,-0.127496615,1.067184376,0.002001981,0.001131310,0.009310532,0.999952998,0.000000000,0.000000000,0.000000000,0.000000000,0.000000000,0.000000000,1.066935976,0.000000000,3.990647078
1772425411.593946695,0.015120000,0.005457000,0.072163000,-0.002679080,0.019467660,0.013789970,0.999711790,-0.004823000,0.039008000,0.027492000,0.000012646,0.000220999,0.000116356,0.004126584,0.013199914,-0.000855355,0.011379715,0.010747359,1.000339302,-0.004501127,0.005268200,0.004696725,0.000000000,0.000000000,0.000000000,0.000000000,0.015915083,0.005749366,0.072184162,0.040623981,0.015258443,0.000356275,0.012823328,0.006734296,0.000638035,0.230207959,-0.127261103,1.065441489,0.001998526,0.001129192,0.009295332,0.999953151,0.000000000,0.000000000,0.000000000,0.000000000,0.000000000,0.000000000,1.065413303,0.000000000,3.991137354
1772425411.603946447,0.015129000,0.005455000,0.072180000,-0.002639230,0.019414240,0.013768940,0.999713230,-0.004746000,0.038900000,0.027452000,-0.000048038,0.000043551,0.000000330,0.001537266,0.008719265,-0.001806917,0.009635275,0.010581548,0.999737095,-0.001988157,0.001083048,0.000625890,0.000000000,0.000000000,0.000000000,0.000000000,0.015911357,0.005751354,0.072187664,0.040658971,0.015532218,0.000399391,0.011667968,0.006258169,-0.000377035,0.229752022,-0.128208400,1.065397183,0.001994471,0.001137420,0.009294934,0.999953151,0.000000000,0.000000000,0.000000000,0.000000000,0.000000000,0.000000000,1.065429538,0.000000000,3.991627618
1772425411.613946676,0.015129000,0.005459000,0.072173000,-0.002623190,0.019785330,0.013789260,0.999705710,-0.004703000,0.039642000,0.027492000,0.000072125,-0.000242502,-0.000070940,-0.002535625,0.008106711,-0.002047383,0.009077496,0.009152291,0.999735005,-0.002143293,0.000616888,0.002345060,0.000000000,0.000000000,0.000000000,0.000000000,0.015905791,0.005755040,0.072178863,0.040583132,0.015628332,0.000259797,0.011482546,0.004732368,0.000374267,0.229132934,-0.129732361,1.065675826,0.001988943,0.001150673,0.009297346,0.999953151,0.000000000,0.000000000,0.000000000,0.000000000,0.000000000,0.000000000,1.065688529,0.000000000,3.992117906
1772425411.623946667,0.015122000,0.005452000,0.072170000,-0.002702620,0.019850980,0.013766350,0.999704520,-0.004861000,0.039775000,0.027442000,0.000074340,-0.000250389,-0.000123310,-0.003283445,0.002881679,-0.000278272,0.009703997,0.007150151,1.001998251,0.001430113,0.001367944,0.000948159,0.000000000,0.000000000,0.000000000,0.000000000,0.015901522,0.005757869,0.072172469,0.040559695,0.015559450,0.000310553,0.012343710,0.004091488,0.001313944,0.228359524,-0.130992817,1.065430640,0.001982094,0.001161605,0.009295192,0.999953158,0.000000000,0.000000000,0.000000000,0.000000000,0.000000000,0.000000000,1.065362353,0.000000000,3.992608182
1772425411.633946896,0.015133000,0.005449000,0.072161000,-0.002690880,0.019756850,0.013760280,0.999706500,-0.004840000,0.039586000,0.027431000,0.000091337,-0.000184596,0.000004487,0.000436467,-0.019078860,0.000319836,0.011087669,0.008524105,1.001132057,0.003127015,-0.001687472,-0.003264715,0.000000000,0.000000000,0.000000000,0.000000000,0.015900942,0.005757122,0.072169507,0.040652807,0.015489080,0.000399906,0.012790223,0.004222481,0.001326718,0.227978239,-0.130980899,1.064626991,0.001978776,0.001161457,0.009288183,0.999953221,0.000000000,0.000000000,0.000000000,0.000000000,0.000000000,0.000000000,1.064387114,0.000000000,3.993098469
1772425411.643946409,0.015124000,0.005447000,0.072168000,-0.002697320,0.019472870,0.013771370,0.999711900,-0.004860000,0.039019000,0.027454000,-0.000046931,0.000131682,0.000116958,0.002262796,-0.027041189,0.001034687,0.009659689,0.009127172,1.000289030,-0.002100228,-0.001443292,-0.000631078,0.000000000,0.000000000,0.000000000,0.000000000,0.015902874,0.005753578,0.072170538,0.040723759,0.015459374,0.000452548,0.011962380,0.004990698,0.000484985,0.228755114,-0.130924979,1.062747237,0.001985579,0.001160999,0.009271773,0.999953372,0.000000000,0.000000000,0.000000000,0.000000000,0.000000000,0.000000000,1.062420612,0.000000000,3.993588722
1772425411.653946638,0.015133000,0.005446000,0.072172000,-0.002679280,0.019426780,0.013775680,0.999712790,-0.004825000,0.038926000,0.027464000,-0.000034382,0.000244911,0.000290074,0.002171630,-0.027530092,-0.000013370,0.008359349,0.008202259,0.999638753,-0.000895953,-0.002686342,0.001204498,0.000000000,0.000000000,0.000000000,0.000000000,0.015905713,0.005750974,0.072176938,0.040687651,0.015459364,0.000453875,0.010543969,0.005203226,-0.000100682,0.228971758,-0.129094952,1.060106560,0.001987644,0.001145002,0.009248758,0.999953596,0.000000000,0.000000000,0.000000000,0.000000000,0.000000000,0.000000000,1.059899164,0.000000000,3.994079010
1772425411.663945913,0.015124000,0.005459000,0.072177000,-0.002637570,0.019176490,0.013771300,0.999717790,-0.004749000,0.038424000,0.027457000,-0.000183295,0.000335490,0.000060839,0.001414717,-0.009011644,-0.000356769,0.008544759,0.008627695,0.999815337,-0.000800148,-0.002307213,0.001584869,0.000000000,0.000000000,0.000000000,0.000000000,0.015693244,0.005666892,0.072179415,0.040046740,0.015462224,0.000443704,0.010449458,0.004736467,0.000087970,0.227891513,-0.128802194,1.059009595,0.001978251,0.001142341,0.009239202,0.999953677,0.000000000,0.000000000,0.000000000,0.000000000,0.000000000,0.000000000,1.058856603,0.000000000,3.994569250
1772425411.673945904,0.015127000,0.005459000,0.072176000,-0.002551950,0.019224950,0.013808260,0.999716570,-0.004575000,0.038519000,0.027534000,-0.000316706,0.000203341,-0.000220494,-0.000700158,0.006693552,-0.000275675,0.009031825,0.008028150,1.001651557,0.000230373,-0.001478010,-0.002437383,0.000000000,0.000000000,0.000000000,0.000000000,0.015702878,0.005668235,0.072179053,0.040020495,0.015455031,0.000475767,0.011398533,0.004822361,0.000497684,0.227716886,-0.128213405,1.057839638,0.001976787,0.001137168,0.009229005,0.999953778,0.000000000,0.000000000,0.000000000,0.000000000,0.000000000,0.000000000,1.057709264,0.000000000,3.995059526
1772425411.683945894,0.015122000,0.005464000,0.072172000,-0.002704070,0.019504420,0.013753840,0.999711510,-0.004874000,0.039082000,0.027419000,-0.000081838,-0.000025505,-0.000438326,-0.001025193,0.017900584,-0.000315069,0.008269081,0.007729568,1.002001151,-0.000480129,0.000495105,-0.001879581,0.000000000,0.000000000,0.000000000,0.000000000,0.015783610,0.005698769,0.072177907,0.040190620,0.015297489,0.000504573,0.009938873,0.003353625,0.002178810,0.227549814,-0.128086444,1.056507050,0.001975353,0.001136024,0.009217381,0.999953909,0.000000000,0.000000000,0.000000000,0.000000000,0.000000000,0.000000000,1.056279269,0.000000000,3.995549802
1772425411.693945885,0.015121000,0.005452000,0.072163000,-0.002723550,0.019422280,0.013741130,0.999713230,-0.004916000,0.038918000,0.027393000,0.000015190,-0.000198233,-0.000232149,-0.003426710,0.018357574,0.000072365,0.007339465,0.008084768,1.001030129,-0.001893757,0.002414007,0.001123837,0.000000000,0.000000000,0.000000000,0.000000000,0.015511008,0.005595867,0.072174514,0.039417336,0.014981283,0.000487140,0.009793708,0.004404874,0.001213152,0.227534022,-0.127755515,1.054648060,0.001975260,0.001133103,0.009201165,0.999954067,0.000000000,0.000000000,0.000000000,0.000000000,0.000000000,0.000000000,1.054263932,0.000000000,3.995894432
1772425411.703945160,0.015117000,0.005456000,0.072158000,-0.002667050,0.019618470,0.013778400,0.999709040,-0.004796000,0.039309000,0.027469000,0.000212937,-0.000239375,0.000193279,-0.003165204,0.019159192,0.000217942,0.009745382,0.008235241,1.000490670,0.002527822,-0.000651007,-0.005694018,0.000000000,0.000000000,0.000000000,0.000000000,0.015509846,0.005594219,0.072171816,0.039244176,0.014888071,0.000591841,0.011297468,0.004239063,0.000612487,0.227649894,-0.127248129,1.052534029,0.001976332,0.001128648,0.009182725,0.999954242,0.000000000,0.000000000,0.000000000,0.000000000,0.000000000,0.000000000,1.052215514,0.000000000,3.995894432
1772425411.713945150,0.015125000,0.005452000,0.072165000,-0.002663360,0.019589310,0.013800750,0.999709310,-0.004788000,0.039251000,0.027514000,0.000154274,-0.000079371,0.000468415,-0.003007476,0.009798897,-0.000505401,0.010418017,0.007515144,0.999487190,0.002724447,-0.001377905,-0.001215668,0.000000000,0.000000000,0.000000000,0.000000000,0.015510425,0.005596220,0.072170483,0.039183656,0.014879461,0.000625103,0.012295934,0.003906041,0.000179640,0.227888409,-0.126811023,1.050635748,0.001978467,0.001124820,0.009166166,0.999954390,0.000000000,0.000000000,0.000000000,0.000000000,0.000000000,0.000000000,1.050331522,0.000000000,3.995894432
1772425411.723944426,0.015134000,0.005451000,0.072174000,-0.002693370,0.019687750,0.013767280,0.999707760,-0.004847000,0.039448000,0.027445000,0.000013947,0.000089297,0.000409266,-0.000807816,0.006453584,0.001953021,0.009374080,0.008159578,1.000263588,0.000675133,-0.000915457,-0.000992250,0.000000000,0.000000000,0.000000000,0.000000000,0.015508082,0.005597323,0.072169614,0.039221416,0.014824081,0.000600540,0.011895944,0.004178626,0.000262096,0.228999157,-0.126713802,1.048676867,0.001988187,0.001124027,0.009149063,0.999954545,0.000000000,0.000000000,0.000000000,0.000000000,0.000000000,0.000000000,1.048451594,0.000000000,3.995894432
1772425411.733943939,0.015125000,0.005456000,0.072185000,-0.002767930,0.019657260,0.013775860,0.999708040,-0.004997000,0.039389000,0.027460000,-0.000213928,0.000254934,0.000095513,-0.003153568,0.002284892,-0.000031751,0.008974812,0.009378757,1.000394908,-0.001315500,0.002886756,-0.000750807,0.000000000,0.000000000,0.000000000,0.000000000,0.015508803,0.005595683,0.072169468,0.039288460,0.014746148,0.000572720,0.011034244,0.005350149,0.001094011,0.229363406,-0.125929434,1.047778638,0.001991437,0.001117196,0.009141235,0.999954581,0.000000000,0.000000000,0.000000000,0.000000000,0.000000000,0.000000000,1.047697764,0.000000000,3.995894432
1772425411.743943930,0.015123000,0.005457000,0.072183000,-0.002717970,0.019758210,0.013768430,0.999706280,-0.004894000,0.039590000,0.027446000,-0.000359946,0.000132440,-0.000366570,-0.003098496,-0.007911274,-0.000509971,0.009877730,0.008307843,0.999781622,0.000883524,-0.000772442,-0.001181970,0.000000000,0.000000000,0.000000000,0.000000000,0.015514376,0.005593810,0.072167573,0.039290229,0.014780242,0.000593994,0.011901212,0.004991222,-0.000112381,0.228844001,-0.127238370,1.047780397,0.001986800,0.001128576,0.009141232,0.999954628,0.000000000,0.000000000,0.000000000,0.000000000,0.000000000,0.000000000,1.047726696,0.000000000,3.995894432
1772425411.753943920,0.015116000,0.005458000,0.072166000,-0.002769970,0.019595990,0.013777130,0.999709220,-0.005002000,0.039267000,0.027462000,-0.000405031,0.000063345,-0.000500331,0.000055081,-0.013901383,0.004012354,0.009798107,0.005594526,0.999195364,0.002610872,-0.004313418,-0.001091482,0.000000000,0.000000000,0.000000000,0.000000000,0.015517739,0.005593031,0.072165300,0.039308815,0.014836878,0.000583581,0.012246996,0.002522485,-0.000747047,0.228939163,-0.126782938,1.045368057,0.001987691,0.001124568,0.009120187,0.999954793,0.000000000,0.000000000,0.000000000,0.000000000,0.000000000,0.000000000,1.044989059,0.000000000,3.995894432
1772425411.763943911,0.015112000,0.005461000,0.072159000,-0.002705840,0.019615680,0.013854460,0.999707940,-0.004870000,0.039305000,0.027620000,-0.000106138,-0.000131294,-0.000256566,0.000510162,-0.020710038,0.005070779,0.008649462,0.005526972,0.998543800,0.002872304,-0.004060273,-0.000748868,0.000000000,0.000000000,0.000000000,0.000000000,0.015518243,0.005591789,0.072165328,0.039376974,0.014753809,0.000511390,0.010835508,0.000864698,-0.001924165,0.229458329,-0.124599377,1.044123129,0.001992407,0.001105533,0.009109358,0.999954910,0.000000000,0.000000000,0.000000000,0.000000000,0.000000000,0.000000000,1.044048458,0.000000000,3.995894432
1772425411.773943901,0.015116000,0.005457000,0.072160000,-0.002750940,0.019390320,0.013762040,0.999713490,-0.004970000,0.038855000,0.027434000,0.000317502,-0.000247261,0.000029798,0.001160498,-0.014826239,0.004367977,0.007866844,0.009070262,0.998491727,0.001079283,-0.002339591,-0.000230355,0.000000000,0.000000000,0.000000000,0.000000000,0.015516081,0.005589904,0.072167195,0.039398607,0.014462840,0.000379143,0.009671833,0.004584559,-0.001141325,0.229770706,-0.123314733,1.043648571,0.001995239,0.001094340,0.009105236,0.999954939,0.000000000,0.000000000,0.000000000,0.000000000,0.000000000,0.000000000,1.043589786,0.000000000,3.995894432
1772425411.783943892,0.015119000,0.005450000,0.072165000,-0.002729470,0.019356620,0.013868690,0.999712720,-0.004924000,0.038788000,0.027648000,0.000356061,-0.000243260,0.000355167,-0.001058056,-0.006735423,0.003427687,0.008583772,0.010615223,0.998799312,-0.000026710,-0.002649540,-0.000385609,0.000000000,0.000000000,0.000000000,0.000000000,0.015511546,0.005589607,0.072167973,0.039258072,0.014353082,0.000178313,0.010663600,0.007576787,-0.000833556,0.229357499,-0.123671376,1.043013567,0.001991611,0.001097408,0.009099692,0.999955010,0.000000000,0.000000000,0.000000000,0.000000000,0.000000000,0.000000000,1.042926719,0.000000000,3.995894432
1772425411.793944359,0.015123000,0.005451000,0.072180000,-0.002705660,0.019313870,0.013945040,0.999712550,-0.004875000,0.038702000,0.027802000,0.000337549,-0.000255187,0.000350486,-0.000243388,-0.000592921,0.000799110,0.008930575,0.010522100,0.999061759,0.000872734,-0.004027163,-0.001230206,0.000000000,0.000000000,0.000000000,0.000000000,0.015505424,0.005590925,0.072163972,0.039137063,0.014522233,0.000053875,0.010637726,0.005990112,-0.001832136,0.229299479,-0.122624727,1.041533458,0.001991202,0.001088244,0.009086795,0.999955131,0.000000000,0.000000000,0.000000000,0.000000000,0.000000000,0.000000000,1.041320522,0.000000000,3.995894432
1772425411.803944349,0.015132000,0.005448000,0.072177000,-0.002759970,0.019364510,0.013813980,0.999713250,-0.004987000,0.038804000,0.027537000,0.000259383,-0.000107945,0.000045435,0.001125561,0.005125046,-0.001510833,0.009001474,0.010302199,1.000388314,-0.001496206,-0.003904291,-0.000450430,0.000000000,0.000000000,0.000000000,0.000000000,0.015509925,0.005591976,0.072160634,0.039122240,0.014745299,-0.000058052,0.011110770,0.007216535,0.000304454,0.229326947,-0.121052645,1.041502689,0.001991567,0.001074528,0.009086554,0.999955149,0.000000000,0.000000000,0.000000000,0.000000000,0.000000000,0.000000000,1.041589629,0.000000000,3.995894432
1772425411.813944340,0.015131000,0.005450000,0.072167000,-0.002695620,0.019561950,0.013860850,0.999708930,-0.004851000,0.039197000,0.027633000,-0.000027875,0.000091356,-0.000244853,0.006832157,0.010001005,-0.001107021,0.009098440,0.008506242,1.000658157,-0.002942669,-0.002161243,0.000198993,0.000000000,0.000000000,0.000000000,0.000000000,0.015510795,0.005595005,0.072164160,0.039072796,0.014910824,-0.000113641,0.011114472,0.004976128,0.000300753,0.228481444,-0.119797551,1.041042462,0.001984293,0.001063500,0.009082568,0.999955184,0.000000000,0.000000000,0.000000000,0.000000000,0.000000000,0.000000000,1.040797166,0.000000000,3.995894432
1772425411.823944807,0.015120000,0.005449000,0.072170000,-0.002736790,0.019436880,0.013850680,0.999711400,-0.004937000,0.038948000,0.027611000,-0.000136267,0.000122533,-0.000312160,0.010380470,0.003989004,-0.002298322,0.009182362,0.007683276,0.998921831,-0.000538026,0.001397366,0.003350887,0.000000000,0.000000000,0.000000000,0.000000000,0.015513020,0.005596652,0.072162799,0.039063181,0.015034099,-0.000047498,0.011255684,0.004569542,-0.000634738,0.227042437,-0.119861332,1.039954741,0.001971741,0.001063924,0.009073089,0.999955347,0.000000000,0.000000000,0.000000000,0.000000000,0.000000000,0.000000000,1.040002740,0.000000000,3.995894432
1772425411.833944082,0.015128000,0.005448000,0.072163000,-0.002623560,0.019363620,0.013820270,0.999713540,-0.004714000,0.038798000,0.027555000,-0.000058353,0.000075622,-0.000305439,0.011617616,-0.002999537,0.001365050,0.009535277,0.010036720,0.999216233,0.000963531,-0.000833335,0.002275081,0.000000000,0.000000000,0.000000000,0.000000000,0.015515594,0.005597401,0.072166703,0.039065051,0.015002175,-0.000058692,0.011565152,0.005624970,-0.000784978,0.226665344,-0.121535606,1.040232959,0.001968315,0.001078509,0.009075492,0.999955297,0.000000000,0.000000000,0.000000000,0.000000000,0.000000000,0.000000000,1.040274546,0.000000000,3.995894432
1772425411.843943834,0.015129000,0.005456000,0.072163000,-0.002547870,0.019559930,0.013846610,0.999709550,-0.004556000,0.039189000,0.027610000,0.000155478,0.000037898,-0.000172086,0.008200885,-0.004618070,0.004689861,0.009651593,0.009832528,0.999020555,0.001714931,-0.000691465,0.000197911,0.000000000,0.000000000,0.000000000,0.000000000,0.015515368,0.005596282,0.072169092,0.039073471,0.015020029,-0.000101817,0.011881646,0.006833856,-0.000520249,0.226921182,-0.121179300,1.040447670,0.001970574,0.001075424,0.009077369,0.999955297,0.000000000,0.000000000,0.000000000,0.000000000,0.000000000,0.000000000,1.040486735,0.000000000,3.995894432
1772425411.853943825,0.015119000,0.005453000,0.072163000,-0.002479600,0.019432770,0.013892110,0.999711570,-0.004421000,0.038933000,0.027704000,0.000317852,-0.000085451,-0.000135257,0.000177800,-0.004529020,0.001766948,0.009575377,0.008897594,0.998809044,0.001919210,-0.000006830,-0.001951991,0.000000000,0.000000000,0.000000000,0.000000000,0.015513625,0.005594237,0.072170275,0.039084502,0.015076165,-0.000156042,0.011582055,0.005174673,-0.001566030,0.227038776,-0.121034856,1.040253870,0.001971613,0.001074169,0.009075679,0.999955312,0.000000000,0.000000000,0.000000000,0.000000000,0.000000000,0.000000000,1.040123287,0.000000000,3.995894432
1772425411.863943100,0.015134000,0.005448000,0.072165000,-0.002529640,0.019306930,0.013878520,0.999714070,-0.004525000,0.038683000,0.027676000,0.000393318,-0.000159305,-0.000039627,-0.005563428,-0.005346263,0.000624209,0.008604732,0.008229036,0.999562167,-0.000246604,-0.000563125,-0.002427738,0.000000000,0.000000000,0.000000000,0.000000000,0.015510486,0.005596219,0.072171889,0.039130994,0.015205408,-0.000215107,0.010396477,0.004634329,-0.000371758,0.226702734,-0.121138573,1.039312571,0.001968681,0.001075032,0.009067466,0.999955370,0.000000000,0.000000000,0.000000000,0.000000000,0.000000000,0.000000000,1.039086136,0.000000000,3.995894432
1772425411.873943090,0.015139000,0.005449000,0.072156000,-0.002609320,0.019330490,0.013907870,0.999713010,-0.004683000,0.038732000,0.027731000,-0.000049320,-0.000149573,0.000097222,-0.009318033,-0.012607657,0.001287280,0.007267806,0.008619606,1.001021682,-0.004258837,0.002104455,-0.003617826,0.000000000,0.000000000,0.000000000,0.000000000,0.015507883,0.005599639,0.072168420,0.039133481,0.015227844,-0.000321601,0.009711505,0.004568424,0.001037224,0.225657013,-0.121144005,1.037823976,0.001959570,0.001074971,0.009054487,0.999955470,0.000000000,0.000000000,0.000000000,0.000000000,0.000000000,0.000000000,1.037599818,0.000000000,3.995894432
1772425411.883942842,0.015137000,0.005447000,0.072159000,-0.002680340,0.019418820,0.013896650,0.999711260,-0.004823000,0.038911000,0.027706000,-0.000166939,-0.000102564,-0.000036344,-0.008168097,-0.016170834,0.000005173,0.008624689,0.007609493,1.000903163,-0.000226963,0.000642983,0.001512348,0.000000000,0.000000000,0.000000000,0.000000000,0.015507179,0.005601145,0.072159899,0.039029256,0.015229972,-0.000325975,0.010265957,0.004003443,0.001040823,0.224926046,-0.121365400,1.036229652,0.001953188,0.001076818,0.009040576,0.999955636,0.000000000,0.000000000,0.000000000,0.000000000,0.000000000,0.000000000,1.036276202,0.000000000,3.995894432
1772425411.893943071,0.015130000,0.005445000,0.072164000,-0.002702010,0.019192330,0.013837480,0.999716400,-0.004875000,0.038458000,0.027587000,-0.000295746,0.000078924,0.000027584,-0.002818319,-0.016437405,0.002507673,0.009124236,0.006813125,1.000498310,0.000170080,0.000614390,0.000925550,0.000000000,0.000000000,0.000000000,0.000000000,0.015504964,0.005603098,0.072155133,0.038936308,0.015199511,-0.000227947,0.011327648,0.002931055,0.000108523,0.225055431,-0.121739701,1.036656653,0.001954284,0.001080102,0.009044294,0.999955604,0.000000000,0.000000000,0.000000000,0.000000000,0.000000000,0.000000000,1.036574325,0.000000000,3.995894432
1772425411.903942347,0.015130000,0.005448000,0.072168000,-0.002647860,0.019052970,0.013898730,0.999718360,-0.004768000,0.038178000,0.027712000,-0.000342327,0.000155614,-0.000008974,0.001611364,-0.017958098,0.002563841,0.009703772,0.007155857,1.000303326,-0.001089588,-0.000703093,0.002187252,0.000000000,0.000000000,0.000000000,0.000000000,0.015502745,0.005604522,0.072157309,0.038924580,0.015092497,-0.000133580,0.011254580,0.002844246,0.000119170,0.224606236,-0.122263237,1.034585767,0.001950342,0.001084599,0.009026218,0.999955727,0.000000000,0.000000000,0.000000000,0.000000000,0.000000000,0.000000000,1.034317764,0.000000000,3.995894432
1772425411.913942337,0.015110000,0.005452000,0.072160000,-0.002627880,0.019009520,0.013973990,0.999718190,-0.004726000,0.038091000,0.027864000,0.000019930,0.000196057,0.000061286,0.002614953,-0.017341538,0.000014130,0.009375907,0.007940732,0.998547632,-0.001091953,-0.002171631,0.001093462,0.000000000,0.000000000,0.000000000,0.000000000,0.015504256,0.005603679,0.072162393,0.038985070,0.014938740,-0.000087809,0.011437991,0.004212174,-0.000922109,0.223469854,-0.122235165,1.034708261,0.001940427,0.001084267,0.009027299,0.999955773,0.000000000,0.000000000,0.000000000,0.000000000,0.000000000,0.000000000,1.034831488,0.000000000,3.995894432
1772425411.923942804,0.015134000,0.005450000,0.072155000,-0.002657860,0.018990370,0.013891350,0.999719630,-0.004790000,0.038053000,0.027698000,0.000288132,0.000109615,0.000059868,0.000904263,-0.007833168,-0.001324936,0.008494943,0.008344455,0.997879039,0.000875420,-0.002781812,-0.002322122,0.000000000,0.000000000,0.000000000,0.000000000,0.015507169,0.005601835,0.072166799,0.039050856,0.014842001,-0.000113208,0.010522268,0.004563838,-0.002342339,0.223864737,-0.121461414,1.033944073,0.001943941,0.001077533,0.009020641,0.999955848,0.000000000,0.000000000,0.000000000,0.000000000,0.000000000,0.000000000,1.033795379,0.000000000,3.995593080
1772425411.933943033,0.015130000,0.005454000,0.072169000,-0.002602640,0.018889560,0.013955980,0.999720780,-0.004680000,0.037850000,0.027829000,0.000338190,-0.000037762,0.000262277,-0.000865142,-0.001100510,-0.003451294,0.008929389,0.008578340,0.999999081,0.000839932,-0.002717651,-0.000779901,0.000000000,0.000000000,0.000000000,0.000000000,0.015509319,0.005598217,0.072169603,0.039037371,0.014813106,-0.000293310,0.010865240,0.004592002,0.000078851,0.223233027,-0.120747245,1.033268721,0.001938491,0.001071240,0.009014765,0.999955933,0.000000000,0.000000000,0.000000000,0.000000000,0.000000000,0.000000000,1.033212179,0.000000000,3.995092211
1772425411.943943501,0.015135000,0.005453000,0.072162000,-0.002676800,0.018979780,0.013821320,0.999720750,-0.004831000,0.038032000,0.027557000,0.000139549,-0.000071737,0.000446077,-0.001643289,0.001107088,-0.006847972,0.009504785,0.009065289,1.000189018,-0.001385925,-0.001608441,0.002037942,0.000000000,0.000000000,0.000000000,0.000000000,0.015509359,0.005594578,0.072167292,0.038992351,0.014809078,-0.000366541,0.011538517,0.005190529,0.000163172,0.223261244,-0.119582653,1.032329576,0.001938838,0.001061064,0.009006589,0.999955996,0.000000000,0.000000000,0.000000000,0.000000000,0.000000000,0.000000000,1.032182099,0.000000000,3.994591330
1772425411.953943491,0.015138000,0.005452000,0.072174000,-0.002664960,0.018969370,0.013825810,0.999720920,-0.004807000,0.038011000,0.027566000,-0.000040307,-0.000061480,0.000236383,-0.000225312,0.008376714,-0.007389602,0.009273207,0.009884566,1.000279858,-0.001672840,0.001294747,0.001985350,0.000000000,0.000000000,0.000000000,0.000000000,0.015508079,0.005595374,0.072161857,0.039009153,0.014851721,-0.000344937,0.011022679,0.005801757,-0.000547144,0.223227615,-0.118198040,1.030903988,0.001938666,0.001048955,0.008994173,0.999956097,0.000000000,0.000000000,0.000000000,0.000000000,0.000000000,0.000000000,1.030711787,0.000000000,3.994090473
1772425411.963943958,0.015130000,0.005445000,0.072173000,-0.002666260,0.019089400,0.013855060,0.999718220,-0.004806000,0.038251000,0.027624000,-0.000410237,0.000061305,-0.000211286,0.000952935,0.029093030,-0.003061341,0.008869404,0.009934644,1.000140769,-0.000477264,0.001289774,-0.000972345,0.000000000,0.000000000,0.000000000,0.000000000,0.015511018,0.005598985,0.072157857,0.039039948,0.014958561,-0.000354426,0.010937992,0.006331552,0.000404601,0.222568966,-0.118638872,1.030461947,0.001932888,0.001052742,0.008990314,0.999956131,0.000000000,0.000000000,0.000000000,0.000000000,0.000000000,0.000000000,1.030431456,0.000000000,3.993589592
1772425411.973943710,0.015125000,0.005451000,0.072176000,-0.002638180,0.019042320,0.013812190,0.999719790,-0.004752000,0.038156000,0.027540000,-0.000355595,0.000143046,-0.000466706,0.000906859,0.037879231,0.001681276,0.009013799,0.009119397,1.000303319,0.000189681,0.000502843,-0.001872521,0.000000000,0.000000000,0.000000000,0.000000000,0.015514355,0.005600072,0.072159478,0.039029045,0.015088548,-0.000339090,0.011143489,0.005778800,-0.000546795,0.222603574,-0.119053811,1.028540673,0.001933175,0.001056333,0.008973541,0.999956253,0.000000000,0.000000000,0.000000000,0.000000000,0.000000000,0.000000000,1.028217811,0.000000000,3.993088747
1772425411.983944654,0.015122000,0.005457000,0.072165000,-0.002652790,0.019354850,0.013771270,0.999714310,-0.004775000,0.038781000,0.027456000,-0.000289239,0.000244270,-0.000388831,0.001885758,0.041019912,0.008145913,0.009647694,0.008599290,1.001288111,-0.000147944,0.001297201,0.001008310,0.000000000,0.000000000,0.000000000,0.000000000,0.015511781,0.005600839,0.072160948,0.038990198,0.015193217,-0.000309315,0.011965167,0.004571198,0.002126694,0.222772462,-0.119071152,1.026737948,0.001934664,0.001056468,0.008957809,0.999956415,0.000000000,0.000000000,0.000000000,0.000000000,0.000000000,0.000000000,1.026547251,0.000000000,3.992587843
1772425411.993944407,0.015126000,0.005454000,0.072148000,-0.002647260,0.019699680,0.013821330,0.999706900,-0.004752000,0.039471000,0.027555000,-0.000076457,0.000212860,-0.000195552,-0.001586083,0.039557192,0.008807133,0.009839206,0.009219092,1.000416061,0.000112099,0.000795023,0.001900795,0.000000000,0.000000000,0.000000000,0.000000000,0.015507107,0.005605046,0.072160087,0.038995021,0.015262706,-0.000274398,0.011884191,0.005585159,0.000146234,0.222672545,-0.119823884,1.025715904,0.001933743,0.001063011,0.008948879,0.999956506,0.000000000,0.000000000,0.000000000,0.000000000,0.000000000,0.000000000,1.025646225,0.000000000,3.992086998
