t,px,py,pz,qx,qy,qz,qw,roll,pitch,yaw,vx,vy,vz,wx_vicon,wy_vicon,wz_vicon,imu_acc_x,imu_acc_y,imu_acc_z,imu_gyro_x,imu_gyro_y,imu_gyro_z,motor_motor_m1,motor_motor_m2,motor_motor_m3,motor_motor_m4,est_stateEstimate_x,est_stateEstimate_y,est_stateEstimate_z,est_stateEstimate_vx,est_stateEstimate_vy,est_stateEstimate_vz,est_stateEstimate_ax,est_stateEstimate_ay,est_stateEstimate_az,att_stateEstimate_roll,att_stateEstimate_pitch,att_stateEstimate_yaw,att_stateEstimate_qx,att_stateEstimate_qy,att_stateEstimate_qz,att_stateEstimate_qw,sp_ctrltarget_x,sp_ctrltarget_y,sp_ctrltarget_z,sp_ctrltarget_yaw,pid_controller_roll,pid_controller_pitch,pid_controller_yaw,pid_controller_cmd_thrust,pwr_pm_vbat
1772662595.495331526,0.026218000,0.006711000,0.071117000,-0.001865890,0.004870470,0.006299010,0.999966560,-0.003670000,0.009764000,0.012580000,-0.000798214,0.001039861,-0.001382888,0.018718812,-0.071472663,-0.008677389,0.014387211,-0.003649722,1.000739654,-0.002082323,-0.004438740,0.000986071,0.000000000,0.000000000,0.000000000,0.000000000,0.026633345,0.006706399,0.071128806,0.021414266,-0.000380351,0.001011336,0.007905243,-0.001143084,0.000003780,-0.139051833,0.333312942,0.490884639,-0.001200978,-0.002913872,0.004280209,0.999984920,0.000000000,0.000000000,0.000000000,0.000000000,0.000000000,0.000000000,0.491030723,0.000000000,4.212316990
1772662595.505331516,0.026222000,0.006712000,0.071108000,-0.001877280,0.004836650,0.006238910,0.999967080,-0.003694000,0.009697000,0.012460000,-0.000357887,0.000128089,-0.000586151,0.002017944,-0.030832489,-0.002416402,0.014497473,-0.003122747,1.000948633,0.000084749,-0.001559035,-0.000592774,0.000000000,0.000000000,0.000000000,0.000000000,0.026630503,0.006709970,0.071130307,0.021584478,-0.000433985,0.001037199,0.009816178,-0.000788733,0.001091947,-0.139258836,0.334988557,0.491328508,-0.001202711,-0.002928507,0.004284059,0.999984834,0.000000000,0.000000000,0.000000000,0.000000000,0.000000000,0.000000000,0.491349202,0.000000000,4.212316990
1772662595.515331507,0.026210000,0.006715000,0.071103000,-0.001923670,0.004589030,0.006262280,0.999968010,-0.003790000,0.009202000,0.012507000,-0.000062549,-0.000287180,-0.000075311,-0.007408491,-0.002378942,0.002163604,0.012254136,-0.002148880,1.000931598,0.000199828,0.001672357,0.000122276,0.000000000,0.000000000,0.000000000,0.000000000,0.026627871,0.006710787,0.071133726,0.021774291,-0.000456899,0.001096575,0.006588404,0.000446568,0.000869590,-0.139508513,0.334968196,0.491324421,-0.001204890,-0.002928339,0.004284017,0.999984801,0.000000000,0.000000000,0.000000000,0.000000000,0.000000000,0.000000000,0.491310725,0.000000000,4.212316990
1772662595.525331974,0.026211000,0.006715000,0.071104000,-0.001867040,0.004556850,0.006280810,0.999968150,-0.003677000,0.009137000,0.012545000,0.000110179,-0.000338812,0.000196484,-0.010965743,0.015300119,0.005189242,0.010168982,-0.001962770,1.000975293,0.000008919,0.002016291,0.000637677,0.000000000,0.000000000,0.000000000,0.000000000,0.026631553,0.006710897,0.071134196,0.021687729,-0.000351438,0.001139891,0.004046856,0.000271486,0.000839589,-0.139695183,0.334282862,0.491622107,-0.001206537,-0.002922368,0.004286617,0.999984801,0.000000000,0.000000000,0.000000000,0.000000000,0.000000000,0.000000000,0.491804064,0.000000000,4.212316990
1772662595.535332441,0.026210000,0.006708000,0.071111000,-0.001865490,0.004704490,0.006339950,0.999967100,-0.003671000,0.009432000,0.012663000,0.000182673,-0.000159674,0.000276088,-0.010065251,0.023615095,0.006788189,0.011610630,-0.001102226,1.001412260,0.000831672,0.001215958,0.001495381,0.000000000,0.000000000,0.000000000,0.000000000,0.026634569,0.006710977,0.071129921,0.021455415,-0.000306275,0.001179231,0.005895225,0.001138407,0.001654415,-0.139644302,0.333403376,0.491513526,-0.001206129,-0.002914690,0.004285680,0.999984837,0.000000000,0.000000000,0.000000000,0.000000000,0.000000000,0.000000000,0.491473637,0.000000000,4.212316990
1772662595.545331955,0.026224000,0.006700000,0.071109000,-0.001988600,0.004842830,0.006356480,0.999966090,-0.003916000,0.009711000,0.012694000,0.000177312,0.000117366,0.000210354,-0.006118224,0.023974689,0.007097207,0.013828278,-0.000191168,0.999823656,-0.000726451,0.000498080,-0.000717007,0.000000000,0.000000000,0.000000000,0.000000000,0.026635845,0.006709195,0.071130063,0.021473497,-0.000064816,0.001246443,0.007673342,0.003866628,0.000159291,-0.139656848,0.332000397,0.491983994,-0.001206279,-0.002902453,0.004289801,0.999984860,0.000000000,0.000000000,0.000000000,0.000000000,0.000000000,0.000000000,0.492021802,0.000000000,4.212316990
1772662595.555332899,0.026219000,0.006716000,0.071111000,-0.002128690,0.005072720,0.006340760,0.999964760,-0.004193000,0.010172000,0.012660000,0.000114413,0.000145630,-0.000062490,-0.000872204,0.017339245,0.004539923,0.015237100,-0.004029668,0.999259895,0.002176144,0.000511953,0.001002405,0.000000000,0.000000000,0.000000000,0.000000000,0.026728081,0.006710625,0.071139381,0.021993412,0.000132941,0.001177625,0.010603799,-0.001221585,-0.001133318,-0.141083323,0.331507989,0.491725521,-0.001218752,-0.002898206,0.004287514,0.999984860,0.000000000,0.000000000,0.000000000,0.000000000,0.000000000,0.000000000,0.492208745,0.000000000,4.212316990
1772662595.565333605,0.026219000,0.006713000,0.071111000,-0.002048230,0.005146990,0.006394350,0.999964210,-0.004031000,0.010320000,0.012768000,0.000046309,0.000113326,-0.000242794,0.004563328,-0.000790512,0.003967583,0.014669592,-0.004661332,1.000955453,0.001335744,0.003992897,-0.001144827,0.000000000,0.000000000,0.000000000,0.000000000,0.026719540,0.006712272,0.071135422,0.022111881,-0.000045168,0.001056326,0.008794795,-0.003146734,0.000406545,-0.141583853,0.339533691,0.493410126,-0.001222776,-0.002968280,0.004302115,0.999984595,0.000000000,0.000000000,0.000000000,0.000000000,0.000000000,0.000000000,0.493377361,0.000000000,4.212316990
1772662595.575333834,0.026214000,0.006721000,0.071106000,-0.001938260,0.004896430,0.006446640,0.999965350,-0.003813000,0.009818000,0.012875000,0.000017444,0.000106915,-0.000227992,0.008167776,-0.010947082,0.003036599,0.014577096,-0.004212861,1.003173916,-0.000803970,0.003585432,0.002844202,0.000000000,0.000000000,0.000000000,0.000000000,0.026594833,0.006712574,0.071124591,0.021865505,-0.000242629,0.001123518,0.008428369,-0.001178422,0.002538606,-0.140500068,0.338923854,0.493292821,-0.001213344,-0.002962916,0.004301126,0.999984620,0.000000000,0.000000000,0.000000000,0.000000000,0.000000000,0.000000000,0.493176285,0.000000000,4.212316990
1772662595.585334778,0.026220000,0.006714000,0.071106000,-0.001850130,0.004929160,0.006426350,0.999965490,-0.003637000,0.009882000,0.012835000,-0.000065579,0.000019775,0.000088617,0.007857519,-0.008025184,0.001881954,0.011969271,-0.003895819,1.001582553,0.000869890,0.000763694,0.003180151,0.000000000,0.000000000,0.000000000,0.000000000,0.026618724,0.006708057,0.071129464,0.022157788,-0.000383689,0.001410845,0.006680933,-0.001112456,0.002481555,-0.141548372,0.335668300,0.493144438,-0.001222618,-0.002934544,0.004299839,0.999984684,0.000000000,0.000000000,0.000000000,0.000000000,0.000000000,0.000000000,0.493449274,0.000000000,4.212316990
1772662595.595335245,0.026215000,0.006708000,0.071096000,-0.001893590,0.004804210,0.006393430,0.999966230,-0.003726000,0.009632000,0.012769000,-0.000062607,-0.000007362,0.000146678,0.000969761,0.003296151,0.000193170,0.010126021,-0.003507039,0.999681799,-0.000059758,0.001550922,0.000685881,0.000000000,0.000000000,0.000000000,0.000000000,0.026638100,0.006699361,0.071134265,0.022136645,-0.000491384,0.001477335,0.004716351,-0.001120742,-0.000067899,-0.140627675,0.333085822,0.493866612,-0.001214663,-0.002911981,0.004306193,0.999984758,0.000000000,0.000000000,0.000000000,0.000000000,0.000000000,0.000000000,0.493995197,0.000000000,4.212316990
1772662595.605334759,0.026225000,0.006713000,0.071109000,-0.001916370,0.004841670,0.006455050,0.999965610,-0.003770000,0.009708000,0.012892000,-0.000229662,0.000267463,-0.000014472,-0.007188242,0.012320577,-0.002647338,0.012526392,-0.004354753,0.999559828,0.002399639,0.002939269,-0.001028159,0.000000000,0.000000000,0.000000000,0.000000000,0.026642516,0.006702596,0.071136543,0.021984384,-0.000622203,0.001401936,0.006288753,-0.001705407,-0.000337036,-0.140584237,0.330816144,0.493312206,-0.001214383,-0.002892167,0.004301381,0.999984826,0.000000000,0.000000000,0.000000000,0.000000000,0.000000000,0.000000000,0.492845551,0.000000000,4.212316990
1772662595.615335464,0.026213000,0.006722000,0.071113000,-0.001995490,0.005080420,0.006410960,0.999964550,-0.003926000,0.010186000,0.012802000,-0.000393085,0.000228691,-0.000223194,-0.008728109,0.016585251,-0.002808826,0.014970178,-0.001988182,0.999780343,0.001189213,0.003412242,-0.001531978,0.000000000,0.000000000,0.000000000,0.000000000,0.026643729,0.006702651,0.071136029,0.022147080,-0.000674846,0.001296707,0.009452295,-0.000139838,-0.000690715,-0.140217523,0.329919585,0.492232908,-0.001211244,-0.002884318,0.004291981,0.999984860,0.000000000,0.000000000,0.000000000,0.000000000,0.000000000,0.000000000,0.492017432,0.000000000,4.212316990
1772662595.625335217,0.026207000,0.006721000,0.071115000,-0.001984810,0.005192280,0.006386160,0.999964160,-0.003903000,0.010410000,0.012752000,-0.000482984,0.000166589,-0.000366162,-0.004774886,0.006586580,-0.003094350,0.013674243,-0.002151931,1.001250229,-0.000160295,0.003388680,-0.000710400,0.000000000,0.000000000,0.000000000,0.000000000,0.026645023,0.006705377,0.071132817,0.022454451,-0.000579442,0.001242218,0.008312862,0.000919708,0.000950234,-0.140027985,0.329196738,0.492226530,-0.001209617,-0.002878003,0.004291938,0.999984900,0.000000000,0.000000000,0.000000000,0.000000000,0.000000000,0.000000000,0.492029073,0.000000000,4.212316990
1772662595.635335445,0.026205000,0.006723000,0.071092000,-0.002039780,0.005141600,0.006383380,0.999964330,-0.004014000,0.010309000,0.012746000,-0.000207926,-0.000112995,-0.000216278,-0.000055378,-0.007433669,-0.005527093,0.012186863,-0.003304045,1.001586787,0.001755597,0.002424787,-0.000148226,0.000000000,0.000000000,0.000000000,0.000000000,0.026649286,0.006703481,0.071129714,0.022535796,-0.000543824,0.001329375,0.006444967,-0.000872229,0.001777040,-0.140353391,0.327367558,0.490772804,-0.001212561,-0.002862037,0.004279264,0.999985006,0.000000000,0.000000000,0.000000000,0.000000000,0.000000000,0.000000000,0.490440223,0.000000000,4.212316990
1772662595.645334721,0.026203000,0.006723000,0.071087000,-0.002031790,0.004929450,0.006336580,0.999965710,-0.004001000,0.009884000,0.012654000,0.000098213,-0.000417211,-0.000145552,-0.000406952,-0.021383760,-0.005769232,0.012971057,-0.002886232,1.000536780,0.002048040,-0.000232914,-0.000489014,0.000000000,0.000000000,0.000000000,0.000000000,0.026651860,0.006701193,0.071128310,0.022555571,-0.000591013,0.001421238,0.007783326,-0.000126703,0.001300875,-0.138933850,0.326176602,0.490194328,-0.001200233,-0.002851585,0.004274264,0.999985086,0.000000000,0.000000000,0.000000000,0.000000000,0.000000000,0.000000000,0.489974283,0.000000000,4.212316990
1772662595.655335188,0.026203000,0.006709000,0.071097000,-0.001994310,0.004955340,0.006348050,0.999965580,-0.003926000,0.009936000,0.012677000,0.000397261,-0.000321018,0.000149048,-0.003762796,-0.027822172,-0.001799516,0.012221100,-0.002847391,1.000406154,-0.000459845,0.000929876,-0.000943204,0.000000000,0.000000000,0.000000000,0.000000000,0.026654040,0.006703690,0.071133723,0.022633805,-0.000579340,0.001463552,0.006501732,-0.000346318,0.000446838,-0.138545257,0.326567325,0.489501183,-0.001196844,-0.002854973,0.004268221,0.999985099,0.000000000,0.000000000,0.000000000,0.000000000,0.000000000,0.000000000,0.489176073,0.000000000,4.212316990
1772662595.665335178,0.026211000,0.006711000,0.071106000,-0.001978750,0.004699180,0.006293740,0.999967200,-0.003898000,0.009423000,0.012569000,0.000313637,-0.000024864,0.000300797,-0.008326773,-0.024942025,-0.001068100,0.012633099,-0.003271537,0.999598999,-0.003251397,0.001295268,0.000438393,0.000000000,0.000000000,0.000000000,0.000000000,0.026649689,0.006707637,0.071137973,0.022572616,-0.000579360,0.001442369,0.005848125,-0.000268711,0.000001305,-0.137708397,0.326537120,0.488584472,-0.001189566,-0.002854669,0.004260242,0.999985099,0.000000000,0.000000000,0.000000000,0.000000000,0.000000000,0.000000000,0.488029945,0.000000000,4.212316990
1772662595.675335169,0.026222000,0.006709000,0.071113000,-0.002065480,0.004584630,0.006274840,0.999967670,-0.004073000,0.009195000,0.012531000,0.000179449,0.000011014,0.000316531,-0.006864173,-0.015243785,-0.001263908,0.013203583,-0.003199625,0.999266447,-0.002809781,-0.000086209,0.001326089,0.000000000,0.000000000,0.000000000,0.000000000,0.026646742,0.006708979,0.071137266,0.022544696,-0.000581257,0.001392015,0.008299580,-0.000095495,-0.000648062,-0.137791901,0.325707818,0.488147027,-0.001190336,-0.002847431,0.004256431,0.999985134,0.000000000,0.000000000,0.000000000,0.000000000,0.000000000,0.000000000,0.487190181,0.000000000,4.212316990
1772662595.685335636,0.026217000,0.006711000,0.071100000,-0.002170460,0.004631030,0.006342560,0.999966810,-0.004282000,0.009289000,0.012665000,0.000000350,0.000111616,-0.000123699,-0.004919660,-0.009638736,-0.002933021,0.013059666,-0.003004023,0.999687301,-0.001546422,-0.000338844,0.001219983,0.000000000,0.000000000,0.000000000,0.000000000,0.026645773,0.006709631,0.071133804,0.022581767,-0.000573990,0.001341887,0.007555074,-0.000244075,-0.000321756,-0.137875409,0.324878476,0.487709561,-0.001191106,-0.002840192,0.004252620,0.999985171,0.000000000,0.000000000,0.000000000,0.000000000,0.000000000,0.000000000,0.487102442,0.000000000,4.212316990
1772662595.695335150,0.026211000,0.006724000,0.071102000,-0.002185960,0.004543930,0.006343070,0.999967170,-0.004314000,0.009115000,0.012667000,-0.000114180,0.000154837,-0.000317230,0.000066892,-0.003581413,-0.005726472,0.012915762,-0.002808440,1.000108114,-0.000283184,-0.000591455,0.001113887,0.000000000,0.000000000,0.000000000,0.000000000,0.026644805,0.006710284,0.071130342,0.022618835,-0.000566723,0.001291763,0.006810640,-0.000392641,0.000004520,-0.137958910,0.324049213,0.487272137,-0.001191877,-0.002832954,0.004248810,0.999985208,0.000000000,0.000000000,0.000000000,0.000000000,0.000000000,0.000000000,0.487014712,0.000000000,4.212316990
1772662595.705334902,0.026209000,0.006717000,0.071100000,-0.002114560,0.004548990,0.006234980,0.999967980,-0.004172000,0.009124000,0.012451000,-0.000009984,-0.000114025,-0.000007382,0.009009020,0.010145933,-0.005302663,0.011497919,-0.002145907,1.000040324,0.001155081,-0.001921412,0.000171252,0.000000000,0.000000000,0.000000000,0.000000000,0.026643422,0.006711062,0.071125483,0.022621861,-0.000560302,0.001229581,0.006066188,-0.000541210,0.000330803,-0.138745715,0.324640018,0.486999464,-0.001198728,-0.002838136,0.004246405,0.999985258,0.000000000,0.000000000,0.000000000,0.000000000,0.000000000,0.000000000,0.486998253,0.000000000,4.212316990
1772662595.715334654,0.026214000,0.006704000,0.071102000,-0.001983220,0.004668640,0.006213160,0.999967830,-0.003908000,0.009362000,0.012408000,0.000251379,-0.000265773,0.000155517,0.015006299,0.016343210,-0.004674802,0.009912344,-0.002034086,0.999759287,0.001132499,-0.000672870,-0.000910178,0.000000000,0.000000000,0.000000000,0.000000000,0.026640372,0.006709943,0.071118441,0.022458826,-0.000518507,0.001146433,0.004331881,0.001713394,0.000428346,-0.137625073,0.326661952,0.487428878,-0.001188862,-0.002855743,0.004250158,0.999985201,0.000000000,0.000000000,0.000000000,0.000000000,0.000000000,0.000000000,0.487534004,0.000000000,4.212316990
1772662595.725333929,0.026215000,0.006715000,0.071096000,-0.002005430,0.004608850,0.006182030,0.999968260,-0.003954000,0.009242000,0.012346000,0.000298446,-0.000157090,0.000337180,0.014459316,0.021844736,-0.000648844,0.012765056,-0.003171250,0.999851052,0.000608491,0.001386480,-0.000556798,0.000000000,0.000000000,0.000000000,0.000000000,0.026638854,0.006705027,0.071120180,0.022293347,-0.000464869,0.001126727,0.006341166,-0.001402882,0.000547571,-0.137672705,0.327539238,0.487644939,-0.001189240,-0.002863403,0.004252034,0.999985158,0.000000000,0.000000000,0.000000000,0.000000000,0.000000000,0.000000000,0.487368834,0.000000000,4.212316990
1772662595.735333920,0.026222000,0.006712000,0.071110000,-0.001922850,0.004857220,0.006209410,0.999967080,-0.003785000,0.009738000,0.012401000,0.000093396,0.000097475,0.000051515,0.009498466,0.022486157,0.004968516,0.014504659,-0.003299460,1.000568419,0.001960224,0.002716974,-0.000701889,0.000000000,0.000000000,0.000000000,0.000000000,0.026644091,0.006702808,0.071126094,0.022451933,-0.000523998,0.001097181,0.008920253,-0.000514439,-0.000088397,-0.136942372,0.324902809,0.486466436,-0.001182994,-0.002840357,0.004241795,0.999985269,0.000000000,0.000000000,0.000000000,0.000000000,0.000000000,0.000000000,0.486186795,0.000000000,4.212316990
1772662595.745333195,0.026227000,0.006704000,0.071118000,-0.001821450,0.005041330,0.006283720,0.999965890,-0.003580000,0.010105000,0.012550000,0.000026204,0.000306100,-0.000139549,0.002419770,0.013963246,0.006597982,0.013355375,-0.003474209,1.000205411,0.002563965,0.000722892,-0.000264810,0.000000000,0.000000000,0.000000000,0.000000000,0.026650052,0.006701210,0.071125989,0.022655068,-0.000608072,0.001112189,0.007163046,-0.001364463,0.001049905,-0.137644029,0.323705412,0.485536338,-0.001189185,-0.002829924,0.004233674,0.999985337,0.000000000,0.000000000,0.000000000,0.000000000,0.000000000,0.000000000,0.485115471,0.000000000,4.212316990
1772662595.755332708,0.026220000,0.006714000,0.071098000,-0.001875940,0.004985550,0.006285180,0.999966060,-0.003689000,0.009994000,0.012552000,-0.000094872,0.000320707,-0.000115812,-0.002571997,-0.001296859,0.004357126,0.012575130,-0.000250582,0.998831135,-0.002106679,-0.003630666,-0.000281754,0.000000000,0.000000000,0.000000000,0.000000000,0.026650044,0.006705938,0.071123964,0.022702512,-0.000568036,0.001073416,0.007119268,0.000696171,-0.000672847,-0.137177693,0.323186319,0.484412289,-0.001185162,-0.002825365,0.004223882,0.999985359,0.000000000,0.000000000,0.000000000,0.000000000,0.000000000,0.000000000,0.484202988,0.000000000,4.212316990
1772662595.765331984,0.026208000,0.006727000,0.071106000,-0.001902180,0.004994620,0.006333060,0.999965660,-0.003741000,0.010013000,0.012648000,-0.000172397,0.000146737,0.000075699,-0.004053976,-0.008749953,0.003632464,0.014549141,-0.000778345,0.999118265,0.005446868,0.004006316,0.003508131,0.000000000,0.000000000,0.000000000,0.000000000,0.026648411,0.006708012,0.071121226,0.022732552,-0.000329615,0.000900657,0.008034458,0.001843972,-0.001059286,-0.136945313,0.323037621,0.484082855,-0.001183148,-0.002824055,0.004221015,0.999985438,0.000000000,0.000000000,0.000000000,0.000000000,0.000000000,0.000000000,0.484147104,0.000000000,4.212316990
1772662595.775331497,0.026216000,0.006720000,0.071092000,-0.001930510,0.004853870,0.006306040,0.999966470,-0.003800000,0.009732000,0.012594000,-0.000077253,0.000029196,0.000109169,-0.005891585,-0.017854609,-0.000071084,0.014303935,-0.002160504,0.999925407,0.002258628,0.000761385,-0.001731202,0.000000000,0.000000000,0.000000000,0.000000000,0.026666139,0.006703603,0.071119983,0.023014491,-0.000160137,0.000789594,0.008731944,0.000720616,0.000398375,-0.135647160,0.323673060,0.484440453,-0.001171787,-0.002829557,0.004224161,0.999985397,0.000000000,0.000000000,0.000000000,0.000000000,0.000000000,0.000000000,0.484626953,0.000000000,4.212316990
1772662595.785331488,0.026226000,0.006714000,0.071107000,-0.001987130,0.004747960,0.006282670,0.999967020,-0.003915000,0.009521000,0.012547000,-0.000416065,0.000109868,0.000241123,-0.003697498,-0.016571956,0.006864545,0.012149419,-0.002573581,0.998524100,-0.000796337,-0.000953999,-0.001183021,0.000000000,0.000000000,0.000000000,0.000000000,0.026923440,0.006701998,0.071128742,0.023858435,-0.000134634,0.000801471,0.006832323,0.000240489,-0.001501424,-0.133715659,0.322984780,0.484367279,-0.001154959,-0.002823478,0.004223577,0.999985426,0.000000000,0.000000000,0.000000000,0.000000000,0.000000000,0.000000000,0.484237738,0.000000000,4.212316990
1772662595.795331001,0.026213000,0.006719000,0.071120000,-0.001951140,0.004640480,0.006319640,0.999967360,-0.003844000,0.009305000,0.012622000,0.000388307,-0.000450777,0.000181100,0.002013238,-0.009971769,-0.000386563,0.012550273,-0.002039972,0.999375356,0.000830041,-0.002667013,-0.000234883,0.000000000,0.000000000,0.000000000,0.000000000,0.027007594,0.006702175,0.071131717,0.023791439,-0.000100938,0.000580269,0.006926572,0.000255084,-0.001032925,-0.134122014,0.335540498,0.485193898,-0.001158020,-0.002933070,0.004230650,0.999985151,0.000000000,0.000000000,0.000000000,0.000000000,0.000000000,0.000000000,0.485544907,0.000000000,4.212316990
1772662595.805330515,0.026215000,0.006711000,0.071115000,-0.001925060,0.004828330,0.006353360,0.999966310,-0.003789000,0.009681000,0.012689000,0.000869678,-0.000668027,-0.000183916,0.002570355,-0.002797838,-0.012419393,0.012147959,-0.001857656,1.000167180,-0.002262892,0.000823286,-0.000372444,0.000000000,0.000000000,0.000000000,0.000000000,0.026552118,0.006708502,0.071117091,0.021536135,0.000027648,0.000423164,0.006338843,0.000986092,0.001328167,-0.133326330,0.341344238,0.484759874,-0.001150874,-0.002983683,0.004226824,0.999984963,0.000000000,0.000000000,0.000000000,0.000000000,0.000000000,0.000000000,0.484566412,0.000000000,4.212316990
1772662595.815329552,0.026222000,0.006710000,0.071101000,-0.001944750,0.004629900,0.006280540,0.999967670,-0.003831000,0.009284000,0.012544000,0.000946368,-0.000638482,-0.000267133,0.001556483,0.008354238,-0.018682545,0.011909480,-0.002164814,0.999040164,0.002053599,0.001385968,-0.001453600,0.000000000,0.000000000,0.000000000,0.000000000,0.026597978,0.006714750,0.071112750,0.021808810,0.000135320,0.000421307,0.005830663,0.000458801,-0.001179644,-0.133523815,0.341450244,0.484391300,-0.001152603,-0.002984611,0.004223601,0.999984980,0.000000000,0.000000000,0.000000000,0.000000000,0.000000000,0.000000000,0.484494017,0.000000000,4.212316990
1772662595.825329542,0.026213000,0.006716000,0.071101000,-0.001924680,0.004721490,0.006383980,0.999966620,-0.003789000,0.009467000,0.012750000,0.000596970,-0.000419503,-0.000235975,-0.003030523,0.016422637,-0.019155088,0.012592422,-0.001683174,1.000527494,0.000617502,-0.000796670,-0.000566162,0.000000000,0.000000000,0.000000000,0.000000000,0.026619258,0.006721948,0.071109531,0.021919797,0.000205121,0.000342836,0.005881628,0.000102687,-0.000088082,-0.131779470,0.342532910,0.484955372,-0.001137326,-0.002994000,0.004228558,0.999984928,0.000000000,0.000000000,0.000000000,0.000000000,0.000000000,0.000000000,0.483935826,0.000000000,4.212316990
1772662595.835329056,0.026292000,0.006670000,0.071100000,-0.001899250,0.004846380,0.005753600,0.999969900,-0.003743000,0.009714000,0.011489000,0.000211014,-0.000150369,0.000053749,-0.008356178,0.026478619,-0.015214905,0.010610455,-0.003296657,1.001090946,0.001400015,-0.003140698,-0.001978960,0.000000000,0.000000000,0.000000000,0.000000000,0.026634916,0.006721705,0.071108502,0.021989085,0.000268181,0.000434618,0.006023345,-0.000134109,0.001070798,-0.131583749,0.341983514,0.482049340,-0.001135714,-0.002989170,0.004203209,0.999985039,0.000000000,0.000000000,0.000000000,0.000000000,0.000000000,0.000000000,0.481957530,0.000000000,4.212316990
1772662595.845328808,0.026239000,0.006699000,0.071103000,-0.002024810,0.004978890,0.005912360,0.999968080,-0.003991000,0.009982000,0.011805000,-0.000451457,0.000409130,0.000398757,-0.008136497,0.026759397,-0.004112873,0.012424584,-0.004048319,0.998866513,0.001213202,-0.001045630,-0.001999808,0.000000000,0.000000000,0.000000000,0.000000000,0.026638753,0.006721619,0.071117875,0.021900076,0.000123516,0.000447093,0.005597640,-0.002074009,-0.000729375,-0.131746662,0.343656609,0.481448775,-0.001137090,-0.003003770,0.004197947,0.999985039,0.000000000,0.000000000,0.000000000,0.000000000,0.000000000,0.000000000,0.480918531,0.000000000,4.212316990
1772662595.855328798,0.026223000,0.006707000,0.071112000,-0.002046580,0.005142730,0.006090670,0.999966130,-0.004031000,0.010310000,0.012161000,-0.001027487,0.000807674,0.000261403,-0.005422936,0.014618408,0.010087631,0.011585927,-0.002830016,1.000809273,0.000721191,-0.002046711,-0.003773764,0.000000000,0.000000000,0.000000000,0.000000000,0.026638343,0.006716955,0.071121501,0.021938288,-0.000055355,0.000407064,0.006032929,-0.001269646,0.000517980,-0.130259477,0.345491322,0.479788889,-0.001124088,-0.003019710,0.004183483,0.999985058,0.000000000,0.000000000,0.000000000,0.000000000,0.000000000,0.000000000,0.479163118,0.000000000,4.212316990
1772662595.865329266,0.026206000,0.006720000,0.071117000,-0.002116990,0.005212540,0.006151390,0.999965250,-0.004170000,0.010451000,0.012281000,-0.001177857,0.000971738,-0.000045455,-0.001483063,-0.007652306,0.018321324,0.012723488,-0.002844696,0.999986097,-0.001726283,-0.001032877,0.002658642,0.000000000,0.000000000,0.000000000,0.000000000,0.026641700,0.006712462,0.071114856,0.021862075,-0.000163948,0.000448423,0.006521145,-0.000576428,0.000486696,-0.128979226,0.345863061,0.478190209,-0.001112945,-0.003022892,0.004169562,0.999985124,0.000000000,0.000000000,0.000000000,0.000000000,0.000000000,0.000000000,0.477713937,0.000000000,4.212316990
1772662595.875329018,0.026221000,0.006717000,0.071107000,-0.002072610,0.005261660,0.006156960,0.999965050,-0.004081000,0.010549000,0.012293000,-0.000934539,0.000621757,-0.000255148,0.002753009,-0.020167221,0.021767458,0.013173676,-0.002595039,0.999941589,0.000497824,-0.001253958,-0.003816035,0.000000000,0.000000000,0.000000000,0.000000000,0.026643383,0.006709911,0.071111812,0.021944931,-0.000196813,0.000428415,0.006967375,-0.000182424,0.000088417,-0.128297655,0.346324150,0.477866768,-0.001106989,-0.003026888,0.004166753,0.999985137,0.000000000,0.000000000,0.000000000,0.000000000,0.000000000,0.000000000,0.478162115,0.000000000,4.212316990
1772662595.885328293,0.026209000,0.006732000,0.071109000,-0.001979720,0.004886670,0.006287640,0.999966330,-0.003898000,0.009798000,0.012556000,0.000220202,-0.000205925,-0.000279895,0.005713512,-0.021844981,0.007994347,0.012831564,-0.003113381,1.000765040,-0.000209227,-0.003608085,0.003390017,0.000000000,0.000000000,0.000000000,0.000000000,0.026674455,0.006691325,0.071110452,0.022082885,-0.000272047,0.000426641,0.006595840,-0.000682492,0.000277176,-0.128051159,0.347130018,0.477723522,-0.001104812,-0.003033910,0.004165501,0.999985109,0.000000000,0.000000000,0.000000000,0.000000000,0.000000000,0.000000000,0.476817182,0.000000000,4.212316990
1772662595.895327806,0.026203000,0.006725000,0.071095000,-0.001985830,0.004642660,0.006332730,0.999967200,-0.003913000,0.009310000,0.012647000,0.000274359,-0.000318843,0.000025155,0.005890992,-0.006712353,0.002783531,0.011488423,-0.003449027,0.998768424,0.000715134,-0.006032135,-0.000793293,0.000000000,0.000000000,0.000000000,0.000000000,0.026673002,0.006690285,0.071110929,0.022060568,-0.000382392,0.000439410,0.005582368,-0.000957869,-0.000386744,-0.127836320,0.347027610,0.476547244,-0.001102972,-0.003032997,0.004155243,0.999985158,0.000000000,0.000000000,0.000000000,0.000000000,0.000000000,0.000000000,0.476663852,0.000000000,4.212316990
1772662595.905327082,0.026214000,0.006715000,0.071104000,-0.001976080,0.004807420,0.006280490,0.999966770,-0.003892000,0.009639000,0.012542000,0.000322728,-0.000393862,0.000342172,0.005634200,0.008019175,0.001377815,0.012371731,-0.003360827,1.000863180,0.001404970,0.000369984,0.003865604,0.000000000,0.000000000,0.000000000,0.000000000,0.026660009,0.006695301,0.071115183,0.021898460,-0.000395405,0.000362474,0.006406734,-0.001161386,0.000841413,-0.128002101,0.347017610,0.475942483,-0.001104435,-0.003032910,0.004149961,0.999985158,0.000000000,0.000000000,0.000000000,0.000000000,0.000000000,0.000000000,0.475386809,0.000000000,4.212316990
1772662595.915326357,0.026215000,0.006705000,0.071108000,-0.001983730,0.004969570,0.006326770,0.999965670,-0.003905000,0.009964000,0.012634000,-0.000276865,-0.000007246,0.000324690,0.003504107,0.017637212,0.004555764,0.012867246,-0.003910368,1.001510325,-0.000968729,0.001726680,0.003204274,0.000000000,0.000000000,0.000000000,0.000000000,0.026643827,0.006704543,0.071120648,0.021929604,-0.000481136,0.000547990,0.006529659,-0.001304257,0.001158462,-0.128136329,0.346885231,0.475226542,-0.001105630,-0.003031753,0.004143712,0.999985186,0.000000000,0.000000000,0.000000000,0.000000000,0.000000000,0.000000000,0.475259405,0.000000000,4.212316990
1772662595.925325155,0.026223000,0.006714000,0.071118000,-0.001940440,0.005103130,0.006268870,0.999965450,-0.003817000,0.010230000,0.012518000,0.000419542,-0.000247320,0.000105964,0.002866431,0.010699084,-0.008288599,0.011993078,-0.004820255,1.001659645,0.000740733,-0.001218919,0.001658336,0.000000000,0.000000000,0.000000000,0.000000000,0.026643240,0.006707020,0.071119389,0.021913018,-0.000615452,0.000616094,0.005919510,-0.002644672,0.001769601,-0.127583423,0.346093427,0.475139770,-0.001100837,-0.003024822,0.004142977,0.999985249,0.000000000,0.000000000,0.000000000,0.000000000,0.000000000,0.000000000,0.475070965,0.000000000,4.212316990
1772662595.935325146,0.026220000,0.006716000,0.071122000,-0.001888570,0.005240860,0.006224340,0.999965110,-0.003712000,0.010505000,0.012429000,0.000754702,-0.000291006,-0.000028361,0.002146504,-0.008823425,-0.018151908,0.012068255,-0.003000355,1.001802533,0.000035625,0.002108877,-0.000977277,0.000000000,0.000000000,0.000000000,0.000000000,0.026636181,0.006712574,0.071119547,0.021827550,-0.000785512,0.000757794,0.006398502,-0.001011169,0.001370515,-0.127694364,0.346435404,0.475239315,-0.001101790,-0.003027811,0.004143839,0.999985243,0.000000000,0.000000000,0.000000000,0.000000000,0.000000000,0.000000000,0.475365232,0.000000000,4.212316990
1772662595.945325613,0.026214000,0.006715000,0.071107000,-0.001914450,0.004885330,0.006291730,0.999966440,-0.003767000,0.009795000,0.012565000,0.000889803,-0.000438617,-0.000241686,-0.001646704,-0.026694901,-0.022447611,0.012736735,-0.001584728,1.002488659,-0.000574407,0.005570705,-0.000770283,0.000000000,0.000000000,0.000000000,0.000000000,0.026631158,0.006709778,0.071116114,0.021819608,-0.000767351,0.000919013,0.006573718,0.000595907,0.003676824,-0.127896243,0.346110023,0.475940401,-0.001103545,-0.003024986,0.004149955,0.999985218,0.000000000,0.000000000,0.000000000,0.000000000,0.000000000,0.000000000,0.476088747,0.000000000,4.212316990
1772662595.955325127,0.026209000,0.006718000,0.071098000,-0.001933440,0.004779370,0.006195810,0.999967520,-0.003808000,0.009583000,0.012374000,0.000695649,-0.000220610,-0.000122300,-0.005021227,-0.030239502,-0.020061119,0.012475329,-0.003568657,1.001706062,-0.002865409,0.001656399,0.000431482,0.000000000,0.000000000,0.000000000,0.000000000,0.026633908,0.006702644,0.071121628,0.021845572,-0.000713860,0.001161096,0.006466233,-0.000030858,0.001067215,-0.127244860,0.344996007,0.476147244,-0.001097895,-0.003015243,0.004151788,0.999985218,0.000000000,0.000000000,0.000000000,0.000000000,0.000000000,0.000000000,0.475840647,0.000000000,4.212316990
1772662595.965325832,0.026288000,0.006676000,0.071108000,-0.001959630,0.004516370,0.005617140,0.999972100,-0.003869000,0.009055000,0.011217000,0.000223660,0.000013423,-0.000109382,-0.005238484,-0.022967427,-0.010542433,0.012643714,-0.003969500,1.000481446,-0.000727894,0.001783542,0.000524582,0.000000000,0.000000000,0.000000000,0.000000000,0.026638563,0.006698527,0.071130634,0.021921763,-0.000883770,0.001284190,0.007220751,-0.002569568,0.001095347,-0.126982599,0.341984981,0.475120977,-0.001095743,-0.002988948,0.004142868,0.999985337,0.000000000,0.000000000,0.000000000,0.000000000,0.000000000,0.000000000,0.474746143,0.000000000,4.212316990
1772662595.975325108,0.026242000,0.006703000,0.071112000,-0.001999340,0.004621390,0.005889020,0.999969980,-0.003944000,0.009266000,0.011760000,-0.000285878,0.000429954,-0.000056352,-0.004174012,-0.006571100,-0.000022784,0.010720484,-0.002035963,1.000592084,-0.003071812,0.002684183,-0.000017493,0.000000000,0.000000000,0.000000000,0.000000000,0.026641827,0.006698257,0.071138785,0.021900911,-0.000945822,0.001292265,0.005050578,-0.000169068,-0.000147004,-0.128267808,0.341651365,0.474110415,-0.001106996,-0.002986073,0.004134020,0.999985345,0.000000000,0.000000000,0.000000000,0.000000000,0.000000000,0.000000000,0.473825858,0.000000000,4.212316990
1772662595.985325098,0.026230000,0.006714000,0.071110000,-0.002034540,0.004574720,0.006036360,0.999969250,-0.004014000,0.009174000,0.012055000,-0.000848253,0.000665910,0.000012937,-0.004324324,0.010189841,0.011421737,0.011271776,-0.002917133,1.001906012,0.002661989,-0.006096052,-0.000604537,0.000000000,0.000000000,0.000000000,0.000000000,0.026638924,0.006697912,0.071136786,0.021744428,-0.000944877,0.001341991,0.004634539,-0.000365798,0.001378147,-0.127846260,0.340910517,0.473536718,-0.001103360,-0.002979587,0.004129032,0.999985456,0.000000000,0.000000000,0.000000000,0.000000000,0.000000000,0.000000000,0.473536840,0.000000000,4.212316990
1772662595.995324850,0.026212000,0.006734000,0.071109000,-0.002010970,0.004652960,0.006117190,0.999968440,-0.003965000,0.009330000,0.012216000,-0.001547729,0.001058820,-0.000241006,-0.002104609,0.021150748,0.028409045,0.011940063,-0.001625466,1.001289384,-0.003332830,-0.002366335,-0.003121109,0.000000000,0.000000000,0.000000000,0.000000000,0.026632714,0.006698859,0.071130430,0.021579406,-0.000931811,0.001423984,0.005986935,0.000645400,0.001082993,-0.127558678,0.341187947,0.472975363,-0.001100855,-0.002981993,0.004124138,0.999985456,0.000000000,0.000000000,0.000000000,0.000000000,0.000000000,0.000000000,0.472571406,0.000000000,4.212316990
1772662596.005323887,0.026214000,0.006721000,0.071096000,-0.001976990,0.004757870,0.006149080,0.999967820,-0.003896000,0.009540000,0.012280000,-0.000542755,0.000326651,-0.000171717,0.000214174,0.020071467,0.018886496,0.013872399,-0.001375495,0.999734730,0.001952381,-0.003328567,0.000776119,0.000000000,0.000000000,0.000000000,0.000000000,0.026670931,0.006678691,0.071132521,0.021774553,-0.000815562,0.001412470,0.007210694,0.000901893,0.000196153,-0.126829353,0.342466426,0.471829269,-0.001094474,-0.002993112,0.004114143,0.999985480,0.000000000,0.000000000,0.000000000,0.000000000,0.000000000,0.000000000,0.471511838,0.000000000,4.212316990
1772662596.015323400,0.026213000,0.006725000,0.071101000,-0.002060510,0.004886850,0.006187110,0.999966800,-0.004061000,0.009799000,0.012355000,0.001045378,-0.000619639,0.000129759,0.002986542,0.012641440,-0.006135792,0.012009378,-0.004516981,1.001009673,-0.000276308,-0.003488862,0.003567133,0.000000000,0.000000000,0.000000000,0.000000000,0.026665388,0.006685131,0.071135870,0.021819275,-0.000753670,0.001387183,0.005613181,-0.001802752,0.001260199,-0.126739004,0.343056337,0.471399039,-0.001093675,-0.002998252,0.004110385,0.999985485,0.000000000,0.000000000,0.000000000,0.000000000,0.000000000,0.000000000,0.471393032,0.000000000,4.212316990
1772662596.025322914,0.026213000,0.006724000,0.071108000,-0.002068940,0.004941690,0.006260400,0.999966050,-0.004076000,0.009909000,0.012501000,0.001130790,-0.000808703,0.000355614,0.001777146,0.006296325,-0.014581667,0.012391442,-0.003403991,1.000440505,0.000616024,-0.002612115,0.001654267,0.000000000,0.000000000,0.000000000,0.000000000,0.026653508,0.006696140,0.071136374,0.021658853,-0.000873874,0.001446238,0.005573031,-0.001036903,0.000004312,-0.127134671,0.344723192,0.471652631,-0.001097062,-0.003012815,0.004112571,0.999985416,0.000000000,0.000000000,0.000000000,0.000000000,0.000000000,0.000000000,0.471685236,0.000000000,4.212316990
1772662596.035322428,0.026218000,0.006729000,0.071103000,-0.001934080,0.005048740,0.006315350,0.999965440,-0.003804000,0.010122000,0.012612000,0.000785043,-0.000581197,0.000287918,0.001979138,-0.005408743,-0.014979388,0.014730382,-0.001998693,1.001283979,-0.000764433,-0.000824629,0.000808384,0.000000000,0.000000000,0.000000000,0.000000000,0.026640665,0.006705556,0.071133260,0.021663679,-0.000867291,0.001457302,0.008422782,-0.000448865,0.001827679,-0.126564480,0.345884435,0.471561638,-0.001092047,-0.003022927,0.004111782,0.999985397,0.000000000,0.000000000,0.000000000,0.000000000,0.000000000,0.000000000,0.471489272,0.000000000,4.212316990
1772662596.045321703,0.026291000,0.006673000,0.071121000,-0.001974370,0.004710870,0.005726000,0.999970560,-0.003895000,0.009444000,0.011434000,0.000128089,-0.000089239,0.000086791,0.004738528,-0.011971697,-0.012002811,0.014447378,-0.002683507,1.001645298,-0.000463541,-0.001219773,-0.000422101,0.000000000,0.000000000,0.000000000,0.000000000,0.026636786,0.006706788,0.071129575,0.021879138,-0.000798393,0.001522300,0.008720181,0.000716661,0.000924721,-0.126238330,0.345023990,0.471251089,-0.001089239,-0.003015404,0.004109088,0.999985397,0.000000000,0.000000000,0.000000000,0.000000000,0.000000000,0.000000000,0.470914119,0.000000000,4.212316990
1772662596.055321455,0.026235000,0.006713000,0.071113000,-0.001954210,0.004848480,0.005886230,0.999969010,-0.003851000,0.009720000,0.011754000,-0.000386675,0.000247844,-0.000178458,0.004482641,-0.016062134,-0.003175933,0.012855848,-0.002902767,0.999006357,-0.000805113,0.001606372,-0.002390972,0.000000000,0.000000000,0.000000000,0.000000000,0.026636886,0.006708630,0.071132603,0.022057246,-0.000784458,0.001545091,0.007346240,-0.000854265,0.000783904,-0.125817705,0.345656487,0.470233487,-0.001085573,-0.003020899,0.004100213,0.999985456,0.000000000,0.000000000,0.000000000,0.000000000,0.000000000,0.000000000,0.469936582,0.000000000,4.212316990
1772662596.065320492,0.026219000,0.006714000,0.071108000,-0.002017460,0.004740220,0.006036040,0.999968510,-0.003978000,0.009505000,0.012053000,-0.000928536,0.000598757,-0.000117580,0.001775138,-0.007227573,0.008040015,0.012600931,-0.003174595,1.001973284,-0.001527794,-0.000043090,-0.001230716,0.000000000,0.000000000,0.000000000,0.000000000,0.026640141,0.006711266,0.071132994,0.022069460,-0.000781707,0.001527348,0.006593274,-0.000889275,0.000989787,-0.126046958,0.346563034,0.469285772,-0.001087566,-0.003028809,0.004091928,0.999985456,0.000000000,0.000000000,0.000000000,0.000000000,0.000000000,0.000000000,0.468805694,0.000000000,4.212316990
1772662596.075320244,0.026212000,0.006728000,0.071100000,-0.001895720,0.004672660,0.006149240,0.999968380,-0.003734000,0.009368000,0.012281000,-0.000935898,0.000630984,-0.000020960,-0.001002716,0.002532601,0.018813873,0.012674204,-0.004488574,1.000596933,0.002405553,-0.002234119,0.003720253,0.000000000,0.000000000,0.000000000,0.000000000,0.026680571,0.006683518,0.071142267,0.022264401,-0.001011578,0.001678253,0.006575993,-0.001840118,0.001020205,-0.126831132,0.345355800,0.467885920,-0.001094489,-0.003018289,0.004079703,0.999985498,0.000000000,0.000000000,0.000000000,0.000000000,0.000000000,0.000000000,0.467380878,0.000000000,4.212316990
1772662596.085319519,0.026218000,0.006725000,0.071106000,-0.001888070,0.004736120,0.006120710,0.999968270,-0.003718000,0.009495000,0.012224000,-0.000442561,0.000371407,0.000034810,0.001609189,0.012704685,0.021975514,0.012990978,-0.002465137,1.000695015,0.001263077,-0.005669635,0.003310088,0.000000000,0.000000000,0.000000000,0.000000000,0.026673773,0.006687302,0.071143344,0.022205362,-0.001093161,0.001659367,0.006431711,-0.001258852,0.000667292,-0.126917386,0.344222923,0.467135648,-0.001095302,-0.003008398,0.004073164,0.999985576,0.000000000,0.000000000,0.000000000,0.000000000,0.000000000,0.000000000,0.466852809,0.000000000,4.212316990
1772662596.095319271,0.026219000,0.006726000,0.071112000,-0.001972730,0.004743270,0.006252350,0.999967260,-0.003886000,0.009511000,0.012486000,0.000443940,-0.000360121,0.000123058,0.000640871,0.011754947,0.008305330,0.013229656,-0.002349448,1.001160279,0.000827198,-0.003891005,0.002229440,0.000000000,0.000000000,0.000000000,0.000000000,0.026670557,0.006688503,0.071143254,0.022197176,-0.001096237,0.001666880,0.007000333,-0.000133373,0.001169589,-0.126515696,0.344436480,0.467004655,-0.001091793,-0.003010247,0.004072029,0.999985576,0.000000000,0.000000000,0.000000000,0.000000000,0.000000000,0.000000000,0.466634310,0.000000000,4.212316990
1772662596.105319500,0.026214000,0.006720000,0.071116000,-0.001939810,0.005027370,0.006264350,0.999965860,-0.003817000,0.010079000,0.012510000,0.000181138,-0.000175894,-0.000159227,0.003183479,0.012555494,0.004133230,0.013468347,-0.002233754,1.001625565,0.000391298,-0.002112291,0.001148741,0.000000000,0.000000000,0.000000000,0.000000000,0.026668313,0.006689008,0.071142945,0.022201160,-0.001082806,0.001680883,0.007161753,-0.000127187,0.001570805,-0.126113987,0.344650048,0.466873656,-0.001088283,-0.003012095,0.004070895,0.999985576,0.000000000,0.000000000,0.000000000,0.000000000,0.000000000,0.000000000,0.466650882,0.000000000,4.212316990
1772662596.115318775,0.026230000,0.006715000,0.071107000,-0.001959410,0.004915770,0.006310220,0.999966090,-0.003857000,0.009856000,0.012602000,0.000082945,-0.000050602,-0.000352021,0.001630663,0.003403715,0.001004635,0.013707014,-0.002118070,1.002090807,-0.000044560,-0.000333746,0.000068145,0.000000000,0.000000000,0.000000000,0.000000000,0.026666070,0.006689513,0.071142636,0.022205142,-0.001069376,0.001694884,0.007246202,-0.000332528,0.001952877,-0.125712316,0.344863595,0.466742670,-0.001084774,-0.003013943,0.004069760,0.999985576,0.000000000,0.000000000,0.000000000,0.000000000,0.000000000,0.000000000,0.466667452,0.000000000,4.212316990
1772662596.125318766,0.026221000,0.006718000,0.071103000,-0.001856040,0.004972370,0.006293280,0.999966110,-0.003650000,0.009968000,0.012569000,0.000131488,-0.000055187,-0.000410451,-0.000170382,-0.005459323,-0.002147891,0.013945699,-0.002002379,1.002556083,-0.000480449,0.001444926,-0.001012528,0.000000000,0.000000000,0.000000000,0.000000000,0.026663827,0.006690018,0.071142328,0.022209126,-0.001055946,0.001708887,0.007330657,-0.000537883,0.002334976,-0.125312285,0.345143109,0.466631312,-0.001081276,-0.003016367,0.004068796,0.999985576,0.000000000,0.000000000,0.000000000,0.000000000,0.000000000,0.000000000,0.466684023,0.000000000,4.212316990
1772662596.135318279,0.026215000,0.006721000,0.071094000,-0.001913450,0.004881030,0.006224970,0.999966880,-0.003766000,0.009786000,0.012432000,0.000241123,-0.000205867,-0.000082964,-0.003096355,-0.005033315,-0.009455944,0.013995399,-0.002279715,1.002648882,-0.000520605,0.001904398,-0.001959537,0.000000000,0.000000000,0.000000000,0.000000000,0.026661584,0.006690523,0.071142019,0.022213109,-0.001042515,0.001722888,0.007415109,-0.000743228,0.002717057,-0.124924755,0.345915918,0.466666851,-0.001077866,-0.003023097,0.004069109,0.999985576,0.000000000,0.000000000,0.000000000,0.000000000,0.000000000,0.000000000,0.466700593,0.000000000,4.212316990
1772662596.145317554,0.026225000,0.006723000,0.071094000,-0.001858070,0.004839140,0.006215450,0.999967250,-0.003656000,0.009701000,0.012413000,0.000326826,-0.000316084,0.000240618,-0.005717467,0.000729659,-0.008476835,0.013645375,-0.003388378,1.001953855,0.000276262,-0.000426370,-0.002623903,0.000000000,0.000000000,0.000000000,0.000000000,0.026659040,0.006691466,0.071141534,0.022219183,-0.001031496,0.001745678,0.007499558,-0.000948568,0.003099129,-0.124537234,0.346688708,0.466702390,-0.001074456,-0.003029828,0.004069422,0.999985576,0.000000000,0.000000000,0.000000000,0.000000000,0.000000000,0.000000000,0.466717163,0.000000000,4.212316990
1772662596.155318022,0.026231000,0.006717000,0.071106000,-0.002030770,0.004801620,0.006191630,0.999967240,-0.004002000,0.009628000,0.012364000,0.000311597,-0.000390696,0.000315113,-0.004030874,0.006298352,-0.003718242,0.013295310,-0.004497172,1.001258745,0.001073224,-0.002757417,-0.003288348,0.000000000,0.000000000,0.000000000,0.000000000,0.026653094,0.006697341,0.071139070,0.022248845,-0.001047665,0.001867594,0.007472704,-0.001389964,0.001778555,-0.124480862,0.346684883,0.466657060,-0.001073965,-0.003029792,0.004069028,0.999985576,0.000000000,0.000000000,0.000000000,0.000000000,0.000000000,0.000000000,0.466617669,0.000000000,4.212316990
1772662596.165318727,0.026236000,0.006698000,0.071110000,-0.002053050,0.004932920,0.006143290,0.999966860,-0.004046000,0.009891000,0.012267000,0.000252778,-0.000214938,0.000036616,-0.004361872,0.007324675,0.001978547,0.013633906,-0.003943141,0.999128519,0.001941338,-0.000180298,0.000924152,0.000000000,0.000000000,0.000000000,0.000000000,0.026649518,0.006701290,0.071138718,0.022293129,-0.001120397,0.001890971,0.007522863,-0.001721908,-0.000143399,-0.124680899,0.346079739,0.466549118,-0.001075735,-0.003024517,0.004068087,0.999985576,0.000000000,0.000000000,0.000000000,0.000000000,0.000000000,0.000000000,0.466321584,0.000000000,4.212316990
1772662596.175318718,0.026232000,0.006706000,0.071114000,-0.001965340,0.005087950,0.006080930,0.999966640,-0.003869000,0.010200000,0.012142000,-0.000097358,0.000113209,-0.000194561,0.001002884,0.003506234,0.004232724,0.014322520,-0.003128860,1.000063382,0.001842698,0.000176081,0.002631726,0.000000000,0.000000000,0.000000000,0.000000000,0.026649518,0.006702752,0.071141180,0.022408721,-0.001192309,0.001773796,0.008384363,-0.000646531,-0.000864075,-0.123535399,0.344765598,0.465908521,-0.001065802,-0.003013003,0.004062539,0.999985630,0.000000000,0.000000000,0.000000000,0.000000000,0.000000000,0.000000000,0.466058842,0.000000000,4.212316990
1772662596.185318708,0.026234000,0.006710000,0.071101000,-0.001936360,0.005018620,0.006271580,0.999965870,-0.003810000,0.010061000,0.012524000,-0.000722650,0.000587938,-0.000284713,0.004368795,-0.002591784,0.010757050,0.015178644,-0.003299057,1.001553677,0.002914942,-0.002767787,-0.001663565,0.000000000,0.000000000,0.000000000,0.000000000,0.026649927,0.006701516,0.071144341,0.022583128,-0.001210235,0.001737450,0.008459526,-0.000903310,0.001636349,-0.123967403,0.344290632,0.466290070,-0.001069579,-0.003008877,0.004065862,0.999985635,0.000000000,0.000000000,0.000000000,0.000000000,0.000000000,0.000000000,0.466171246,0.000000000,4.212316990
1772662596.195318699,0.026227000,0.006717000,0.071092000,-0.001931490,0.004837330,0.006293480,0.999966630,-0.003802000,0.009699000,0.012569000,0.000067657,0.000206197,-0.000057945,0.011602269,-0.008670259,-0.000478010,0.013709638,-0.003553254,1.001686762,-0.001103319,-0.003211103,0.000299225,0.000000000,0.000000000,0.000000000,0.000000000,0.026656593,0.006697243,0.071144012,0.022793982,-0.001274711,0.001842736,0.008540182,-0.001426509,0.001808401,-0.124571564,0.343574769,0.465865786,-0.001074888,-0.003002647,0.004062151,0.999985695,0.000000000,0.000000000,0.000000000,0.000000000,0.000000000,0.000000000,0.465575054,0.000000000,4.212316990
1772662596.205318689,0.026220000,0.006725000,0.071093000,-0.001983550,0.004934390,0.006215210,0.999966540,-0.003906000,0.009893000,0.012411000,0.000655750,-0.000310995,0.000205167,0.011371692,-0.010601042,-0.014076571,0.013288159,-0.003526985,1.000343235,-0.000287272,0.001747867,-0.000381489,0.000000000,0.000000000,0.000000000,0.000000000,0.026660748,0.006694663,0.071141524,0.022900136,-0.001355756,0.001896353,0.006984377,-0.001299187,0.000860598,-0.124459328,0.342807033,0.465203697,-0.001073953,-0.002995937,0.004056383,0.999985695,0.000000000,0.000000000,0.000000000,0.000000000,0.000000000,0.000000000,0.465203507,0.000000000,4.212316990
1772662596.215318441,0.026223000,0.006719000,0.071107000,-0.001805810,0.004758010,0.006169780,0.999968020,-0.003553000,0.009538000,0.012323000,0.000745358,-0.000673971,0.000333703,0.009499657,-0.009025160,-0.026470370,0.011616087,-0.001765915,1.001416655,-0.000557570,-0.001736991,-0.002103673,0.000000000,0.000000000,0.000000000,0.000000000,0.026659175,0.006694667,0.071136639,0.022832003,-0.001374763,0.001869807,0.006240951,-0.000199777,0.000733492,-0.124577942,0.343051486,0.465237773,-0.001074978,-0.002998075,0.004056675,0.999985695,0.000000000,0.000000000,0.000000000,0.000000000,0.000000000,0.000000000,0.465308839,0.000000000,4.212316990
1772662596.225318432,0.026228000,0.006712000,0.071115000,-0.001777540,0.004863090,0.006173990,0.999967540,-0.003495000,0.009748000,0.012331000,0.000380847,-0.000601963,0.000340501,0.008002771,-0.002838996,-0.028296649,0.014056461,-0.000887738,0.999647039,0.001236716,-0.004496561,0.002360604,0.000000000,0.000000000,0.000000000,0.000000000,0.026851012,0.006683990,0.071151100,0.023377543,-0.001252259,0.001959227,0.007039427,0.000885172,0.000752279,-0.124316734,0.343140529,0.465203238,-0.001072697,-0.002998842,0.004056380,0.999985695,0.000000000,0.000000000,0.000000000,0.000000000,0.000000000,0.000000000,0.465000909,0.000000000,4.212316990
1772662596.235317945,0.026296000,0.006669000,0.071115000,-0.001666530,0.004800580,0.005554420,0.999971660,-0.003280000,0.009620000,0.011093000,-0.000016725,-0.000243687,0.000051243,0.003759322,0.001446013,-0.017099604,0.010494315,-0.002144561,0.999434029,-0.001762727,0.001514958,-0.001687621,0.000000000,0.000000000,0.000000000,0.000000000,0.027115213,0.006670438,0.071172899,0.024133680,-0.001179949,0.001951447,0.005532933,0.000417815,-0.001190687,-0.124786664,0.344140462,0.464914895,-0.001076770,-0.003007582,0.004053842,0.999985695,0.000000000,0.000000000,0.000000000,0.000000000,0.000000000,0.000000000,0.464982473,0.000000000,4.212316990
1772662596.245317698,0.026234000,0.006702000,0.071102000,-0.001791550,0.004815680,0.005783170,0.999970080,-0.003527000,0.009652000,0.011550000,-0.000527662,0.000237102,-0.000286034,-0.003927280,0.001747188,-0.000199242,0.011483554,-0.001017956,1.000149359,0.004056290,-0.000244987,-0.001503127,0.000000000,0.000000000,0.000000000,0.000000000,0.026683735,0.006697003,0.071131298,0.019976376,-0.000844780,0.001286740,0.004705845,0.001146893,-0.000402979,-0.125781922,0.357115423,0.465320365,-0.001084984,-0.003120848,0.004057227,0.999985390,0.000000000,0.000000000,0.000000000,0.000000000,0.000000000,0.000000000,0.465590696,0.000000000,4.212316990
1772662596.255317211,0.026216000,0.006714000,0.071103000,-0.001829670,0.004743960,0.005830100,0.999970080,-0.003604000,0.009509000,0.011643000,-0.000888482,0.000636578,-0.000310878,-0.011343888,0.002975667,0.016597662,0.012597069,-0.000721294,1.002185484,0.002118168,-0.000175500,-0.000341311,0.000000000,0.000000000,0.000000000,0.000000000,0.026543204,0.006695200,0.071126871,0.019559277,-0.000659062,0.001288252,0.005733232,0.002297864,0.001325339,-0.126199203,0.369274732,0.465291604,-0.001088195,-0.003226971,0.004056847,0.999984946,0.000000000,0.000000000,0.000000000,0.000000000,0.000000000,0.000000000,0.465052924,0.000000000,4.212316990
1772662596.265317440,0.026216000,0.006714000,0.071104000,-0.001824800,0.004877370,0.006025100,0.999968290,-0.003591000,0.009777000,0.012033000,-0.000838462,0.000733004,-0.000173563,-0.011689845,-0.004374375,0.027764037,0.012143075,-0.001678808,1.000111683,-0.000363875,0.000771307,0.001465711,0.000000000,0.000000000,0.000000000,0.000000000,0.026533219,0.006697342,0.071125038,0.019570800,-0.000594289,0.001300675,0.005785283,0.001244083,0.000490611,-0.125763428,0.367906165,0.464435864,-0.001084465,-0.003215005,0.004049405,0.999985012,0.000000000,0.000000000,0.000000000,0.000000000,0.000000000,0.000000000,0.464154766,0.000000000,4.212316990
1772662596.275316715,0.026225000,0.006720000,0.071101000,-0.001892420,0.004870570,0.006116790,0.999967640,-0.003725000,0.009764000,0.012216000,-0.000294017,0.000456527,0.000039685,-0.010949475,-0.006889233,0.029901118,0.011971638,-0.002653043,1.000277966,0.000224580,0.000515724,-0.000401027,0.000000000,0.000000000,0.000000000,0.000000000,0.026502522,0.006709388,0.071116610,0.019731444,-0.000291514,0.001351643,0.005557313,-0.000885179,-0.000136890,-0.125807375,0.366985597,0.464263031,-0.001084886,-0.003206971,0.004047905,0.999985079,0.000000000,0.000000000,0.000000000,0.000000000,0.000000000,0.000000000,0.464194147,0.000000000,4.212316990
1772662596.285316706,0.026222000,0.006717000,0.071101000,-0.001985190,0.004756330,0.006275010,0.999967030,-0.003911000,0.009537000,0.012532000,0.000523854,-0.000047183,0.000133625,-0.005783116,-0.006520334,0.014342559,0.010974057,-0.001881023,1.001053420,0.001156975,0.001380604,0.001550388,0.000000000,0.000000000,0.000000000,0.000000000,0.026560767,0.006713847,0.071120567,0.020047949,-0.000301633,0.001346909,0.004602251,0.000301395,0.000537463,-0.125889926,0.366173073,0.463690480,-0.001085651,-0.003199878,0.004042914,0.999985099,0.000000000,0.000000000,0.000000000,0.000000000,0.000000000,0.000000000,0.463630708,0.000000000,4.212316990
1772662596.295316219,0.026224000,0.006718000,0.071108000,-0.001988990,0.004682590,0.006296220,0.999967240,-0.003919000,0.009390000,0.012574000,0.000150058,0.000144755,0.000046970,-0.001645072,-0.008465994,0.007594219,0.010250896,-0.002023422,1.001147439,0.000100590,0.003886736,0.003839039,0.000000000,0.000000000,0.000000000,0.000000000,0.026589460,0.006712790,0.071128946,0.020097407,-0.000255661,0.001429695,0.003534138,-0.000007399,0.001906397,-0.125762807,0.365889636,0.463640242,-0.001084553,-0.003197400,0.004042483,0.999985145,0.000000000,0.000000000,0.000000000,0.000000000,0.000000000,0.000000000,0.463844465,0.000000000,4.212316990
1772662596.305315495,0.026226000,0.006721000,0.071101000,-0.001974840,0.004597140,0.006271690,0.999967820,-0.003892000,0.009219000,0.012526000,-0.000075039,0.000077661,0.000090851,0.002358341,-0.008364626,-0.000882448,0.011593081,-0.002326898,1.000539402,-0.000889677,0.001292270,0.000760376,0.000000000,0.000000000,0.000000000,0.000000000,0.026619364,0.006700937,0.071136380,0.020105240,-0.000268893,0.001488451,0.004746962,-0.000151432,-0.000376997,-0.125720740,0.365056355,0.464377183,-0.001084195,-0.003190134,0.004048923,0.999985113,0.000000000,0.000000000,0.000000000,0.000000000,0.000000000,0.000000000,0.464650459,0.000000000,4.212316990
1772662596.315315485,0.026226000,0.006720000,0.071107000,-0.001968500,0.004690560,0.006300850,0.999967210,-0.003878000,0.009406000,0.012584000,-0.000177797,-0.000048135,-0.000017385,0.004176451,-0.002297057,-0.007000286,0.013990132,-0.002708952,1.000132279,-0.000547332,0.000477146,-0.000046747,0.000000000,0.000000000,0.000000000,0.000000000,0.026641191,0.006688780,0.071136773,0.020241143,-0.000325083,0.001460693,0.006749869,-0.000495026,0.001336898,-0.125702401,0.365609103,0.465007653,-0.001083998,-0.003194962,0.004054419,0.999985099,0.000000000,0.000000000,0.000000000,0.000000000,0.000000000,0.000000000,0.464890391,0.000000000,4.212316990
1772662596.325315475,0.026215000,0.006727000,0.071104000,-0.001900560,0.004737370,0.006228780,0.999967570,-0.003742000,0.009498000,0.012440000,-0.000293066,-0.000005808,-0.000151340,0.002381324,-0.002306086,-0.010886194,0.014614505,-0.003210566,0.998894776,0.002222530,-0.002625348,-0.000623598,0.000000000,0.000000000,0.000000000,0.000000000,0.026628714,0.006696162,0.071132721,0.020434817,-0.000334092,0.001377493,0.008485772,-0.000836032,-0.001453237,-0.126433293,0.364374791,0.464547087,-0.001090432,-0.003184213,0.004050392,0.999985155,0.000000000,0.000000000,0.000000000,0.000000000,0.000000000,0.000000000,0.464397864,0.000000000,4.212316990
1772662596.335315466,0.026221000,0.006722000,0.071103000,-0.001879590,0.004533910,0.006182380,0.999968840,-0.003703000,0.009091000,0.012348000,-0.000292522,0.000008256,-0.000175175,-0.000641914,-0.008381764,-0.010006496,0.014587739,-0.003536451,0.999659434,0.002099334,-0.000330710,-0.001106769,0.000000000,0.000000000,0.000000000,0.000000000,0.026620519,0.006702169,0.071130049,0.020649748,-0.000405573,0.001185422,0.008018183,-0.001681134,-0.001319793,-0.125946385,0.365166257,0.464026513,-0.001086170,-0.003191097,0.004045855,0.999985100,0.000000000,0.000000000,0.000000000,0.000000000,0.000000000,0.000000000,0.463698563,0.000000000,4.212316990
1772662596.345315218,0.026217000,0.006712000,0.071104000,-0.001958650,0.004628630,0.006141260,0.999968510,-0.003861000,0.009281000,0.012265000,-0.000144425,0.000008120,-0.000085140,-0.002191567,-0.007495253,-0.007515134,0.014511150,-0.002093418,1.001408420,-0.001356653,-0.002149994,0.000490248,0.000000000,0.000000000,0.000000000,0.000000000,0.026621542,0.006706114,0.071126563,0.020894241,-0.000459556,0.001091519,0.008306197,-0.000390893,0.000863037,-0.125074894,0.365731511,0.463135464,-0.001078569,-0.003195991,0.004038098,0.999985156,0.000000000,0.000000000,0.000000000,0.000000000,0.000000000,0.000000000,0.463341510,0.000000000,4.212316990
1772662596.355314493,0.026213000,0.006721000,0.071095000,-0.001982470,0.004595800,0.006062530,0.999969100,-0.003909000,0.009215000,0.012107000,0.000122747,0.000014899,-0.000021173,-0.002521188,0.001603908,-0.002689985,0.013849403,-0.002089446,1.000198503,-0.003074886,0.001669475,-0.001895967,0.000000000,0.000000000,0.000000000,0.000000000,0.026625896,0.006708209,0.071124093,0.021114789,-0.000418531,0.001176701,0.007422014,0.000289085,0.001374336,-0.124582354,0.366109494,0.463673556,-0.001074243,-0.003199277,0.004042804,0.999985158,0.000000000,0.000000000,0.000000000,0.000000000,0.000000000,0.000000000,0.463678506,0.000000000,4.212316990
1772662596.365314007,0.026210000,0.006727000,0.071101000,-0.001966020,0.004466720,0.006103430,0.999969470,-0.003878000,0.008957000,0.012190000,0.000251341,0.000006643,0.000274048,-0.002079605,0.008400812,0.003400751,0.012648876,-0.001681362,0.999556824,-0.000652406,-0.000375159,-0.002491779,0.000000000,0.000000000,0.000000000,0.000000000,0.026629627,0.006709502,0.071126347,0.021222108,-0.000395987,0.001134001,0.007001504,0.000532236,-0.000371605,-0.126204055,0.365984942,0.463333236,-0.001088409,-0.003198244,0.004039790,0.999985158,0.000000000,0.000000000,0.000000000,0.000000000,0.000000000,0.000000000,0.462883803,0.000000000,4.212316990
1772662596.375313997,0.026224000,0.006723000,0.071105000,-0.001948320,0.004529440,0.006133250,0.999969040,-0.003841000,0.009083000,0.012249000,0.000236636,-0.000028458,0.000366045,-0.000284979,0.012113679,0.006581079,0.013428704,-0.003335955,1.001148076,-0.000040266,-0.003624598,-0.004122904,0.000000000,0.000000000,0.000000000,0.000000000,0.026633573,0.006712216,0.071124414,0.021336002,-0.000275320,0.001066727,0.006568212,-0.000112446,0.000889590,-0.127158032,0.367555181,0.461670320,-0.001096725,-0.003211964,0.004025237,0.999985158,0.000000000,0.000000000,0.000000000,0.000000000,0.000000000,0.000000000,0.460904484,0.000000000,4.212316990
1772662596.385313272,0.026224000,0.006718000,0.071108000,-0.001955910,0.004829880,0.006187910,0.999967280,-0.003852000,0.009684000,0.012357000,0.000238423,-0.000141337,0.000386772,0.001355902,0.011357694,0.008107571,0.012978863,-0.004394611,1.001748820,-0.001827049,-0.000428669,-0.002655729,0.000000000,0.000000000,0.000000000,0.000000000,0.026636340,0.006713684,0.071126297,0.021383547,-0.000392810,0.001202442,0.006305477,-0.002340577,0.001571570,-0.126703987,0.368449069,0.460016342,-0.001092777,-0.003219733,0.004010807,0.999985183,0.000000000,0.000000000,0.000000000,0.000000000,0.000000000,0.000000000,0.459669425,0.000000000,4.212316990
1772662596.395313263,0.026227000,0.006718000,0.071113000,-0.001958850,0.004877720,0.006231130,0.999966770,-0.003857000,0.009780000,0.012444000,0.000014083,-0.000240229,0.000076981,0.000415814,0.006750994,0.008308737,0.013909701,-0.004574578,1.002076413,-0.000073439,-0.001462928,-0.000190796,0.000000000,0.000000000,0.000000000,0.000000000,0.026632637,0.006715367,0.071126993,0.021444176,-0.000658342,0.001289591,0.007294370,-0.002445894,0.002476280,-0.126518801,0.367045347,0.459294367,-0.001091231,-0.003207470,0.004004525,0.999985245,0.000000000,0.000000000,0.000000000,0.000000000,0.000000000,0.000000000,0.459045275,0.000000000,4.212316990
