t,px,py,pz,qx,qy,qz,qw,roll,pitch,yaw,vx,vy,vz,wx_vicon,wy_vicon,wz_vicon,imu_acc_x,imu_acc_y,imu_acc_z,imu_gyro_x,imu_gyro_y,imu_gyro_z,motor_motor_m1,motor_motor_m2,motor_motor_m3,motor_motor_m4,est_stateEstimate_x,est_stateEstimate_y,est_stateEstimate_z,est_stateEstimate_vx,est_stateEstimate_vy,est_stateEstimate_vz,est_stateEstimate_ax,est_stateEstimate_ay,est_stateEstimate_az,att_stateEstimate_roll,att_stateEstimate_pitch,att_stateEstimate_yaw,att_stateEstimate_qx,att_stateEstimate_qy,att_stateEstimate_qz,att_stateEstimate_qw,sp_ctrltarget_x,sp_ctrltarget_y,sp_ctrltarget_z,sp_ctrltarget_yaw,pid_controller_roll,pid_controller_pitch,pid_controller_yaw,pid_controller_cmd_thrust,pwr_pm_vbat
1772426731.260768414,0.016728000,0.008029000,0.053694000,-0.003174680,0.004676250,-0.003685690,0.999977230,-0.006384000,0.009329000,-0.007401000,-0.001096621,0.001597049,0.000585257,0.021603585,0.048201111,-0.004319893,0.009899800,0.000535035,0.998644137,-0.001197527,0.001535834,-0.000421713,0.000000000,0.000000000,0.000000000,0.000000000,0.016917247,0.008057875,0.053678249,0.018943837,0.002802736,-0.000590960,0.007894246,0.002164543,-0.000843392,-0.113820624,0.097331451,-0.235029811,-0.000995011,-0.000847339,-0.002051861,0.999996006,0.000000000,0.000000000,0.000000000,0.000000000,0.000000000,0.000000000,-0.235434723,0.000000000,4.085630417
1772426731.270767927,0.016735000,0.008026000,0.053696000,-0.003057000,0.004869200,-0.003664460,0.999976760,-0.006150000,0.009716000,-0.007359000,-0.000367599,0.000553575,-0.000669989,0.006638213,0.024172794,0.000236202,0.008478555,-0.000314337,0.998898547,0.000831190,-0.001072855,0.000753495,0.000000000,0.000000000,0.000000000,0.000000000,0.016915674,0.008060764,0.053675193,0.019079264,0.002960964,-0.000669782,0.007618862,0.001668458,-0.001721492,-0.114163618,0.097664501,-0.234899164,-0.000998009,-0.000850240,-0.002050726,0.999996031,0.000000000,0.000000000,0.000000000,0.000000000,0.000000000,0.000000000,-0.235137607,0.000000000,4.085630417
1772426731.280767918,0.016726000,0.008040000,0.053691000,-0.003087930,0.004874760,-0.003676860,0.999976590,-0.006212000,0.009727000,-0.007384000,0.000096387,-0.000078477,-0.000994115,-0.000998548,0.008393630,0.002419885,0.008100885,-0.001846925,0.997994746,0.001663702,-0.001229966,-0.002591979,0.000000000,0.000000000,0.000000000,0.000000000,0.016911002,0.008063995,0.053672341,0.019114862,0.003119120,-0.000737247,0.006549503,0.000577756,-0.001632087,-0.113811315,0.098466084,-0.234830980,-0.000994948,-0.000857242,-0.002050135,0.999996043,0.000000000,0.000000000,0.000000000,0.000000000,0.000000000,0.000000000,-0.234795617,0.000000000,4.085630417
1772426731.290768385,0.016721000,0.008038000,0.053674000,-0.003116670,0.004968920,-0.003695790,0.999975970,-0.006270000,0.009915000,-0.007423000,0.000334499,-0.000377428,-0.000680129,-0.003277535,-0.000762564,0.002797811,0.008294544,-0.002137522,0.998315244,0.000411158,-0.000762105,-0.001020176,0.000000000,0.000000000,0.000000000,0.000000000,0.016919773,0.008064495,0.053666582,0.019154175,0.003104677,-0.000915119,0.006752971,-0.000340881,-0.001694623,-0.113235317,0.098341054,-0.234678411,-0.000989919,-0.000856163,-0.002048798,0.999996023,0.000000000,0.000000000,0.000000000,0.000000000,0.000000000,0.000000000,-0.234879528,0.000000000,4.085630417
1772426731.300767899,0.016724000,0.008036000,0.053667000,-0.003133770,0.004953100,-0.003623830,0.999976260,-0.006304000,0.009883000,-0.007279000,0.000385898,-0.000421601,-0.000021037,-0.002171551,-0.004920492,0.001940536,0.009019765,-0.001514425,0.998443100,-0.000024882,0.001326481,-0.001012968,0.000000000,0.000000000,0.000000000,0.000000000,0.016917584,0.008062082,0.053674544,0.019149312,0.003005600,-0.000983079,0.007085524,0.000112998,-0.001451722,-0.112667507,0.098076838,-0.234259657,-0.000984956,-0.000853871,-0.002045138,0.999996066,0.000000000,0.000000000,0.000000000,0.000000000,0.000000000,0.000000000,-0.234586841,0.000000000,4.085630417
1772426731.310767174,0.016734000,0.008024000,0.053673000,-0.003055410,0.004925340,-0.003670340,0.999976470,-0.006147000,0.009828000,-0.007371000,0.000289744,-0.000289317,0.000690152,0.000346998,-0.005705876,0.000417645,0.007744570,-0.000521312,1.000302655,-0.000819036,0.004256374,0.001626572,0.000000000,0.000000000,0.000000000,0.000000000,0.016919035,0.008058592,0.053680560,0.019237733,0.002903509,-0.001081388,0.006381494,0.001354615,0.000101888,-0.112372507,0.097440568,-0.234434577,-0.000982371,-0.000848322,-0.002046656,0.999996066,0.000000000,0.000000000,0.000000000,0.000000000,0.000000000,0.000000000,-0.234359888,0.000000000,4.085630417
1772426731.320766687,0.016740000,0.008023000,0.053693000,-0.003117890,0.004879180,-0.003653820,0.999976560,-0.006272000,0.009735000,-0.007338000,0.000110490,-0.000158159,0.000735684,-0.000098743,-0.007491276,-0.001710829,0.008209613,0.000477413,0.999484107,-0.000633041,0.002525328,-0.001275183,0.000000000,0.000000000,0.000000000,0.000000000,0.016915580,0.008063530,0.053680492,0.019205182,0.002958336,-0.001042479,0.006829220,0.002445205,-0.000510008,-0.112643207,0.095918279,-0.234174152,-0.000984704,-0.000835035,-0.002044373,0.999996066,0.000000000,0.000000000,0.000000000,0.000000000,0.000000000,0.000000000,-0.234294768,0.000000000,4.085630417
1772426731.330766916,0.016747000,0.008022000,0.053703000,-0.003119200,0.004757370,-0.003621370,0.999977260,-0.006273000,0.009492000,-0.007273000,-0.000232984,0.000148776,0.000250039,-0.004315747,-0.003724061,-0.002426072,0.008111695,-0.001232427,0.999262979,0.000465337,0.000217997,-0.000047508,0.000000000,0.000000000,0.000000000,0.000000000,0.016911273,0.008065712,0.053672500,0.019173358,0.003147549,-0.001034423,0.005856782,0.001037553,-0.001114558,-0.113136698,0.095583580,-0.234056364,-0.000989004,-0.000832106,-0.002043346,0.999996066,0.000000000,0.000000000,0.000000000,0.000000000,0.000000000,0.000000000,-0.234175882,0.000000000,4.085630417
1772426731.340767145,0.016726000,0.008030000,0.053704000,-0.003058980,0.004901690,-0.003674190,0.999976560,-0.006154000,0.009781000,-0.007379000,-0.000580945,0.000408800,-0.000385956,-0.007375713,-0.001128789,0.000669400,0.005437178,-0.001464729,0.999529340,0.001891311,0.002801326,-0.000798919,0.000000000,0.000000000,0.000000000,0.000000000,0.016910945,0.008066191,0.053667481,0.019214386,0.003172130,-0.001077891,0.004003122,0.000350012,-0.000634880,-0.113751224,0.096193844,-0.233861608,-0.000994376,-0.000837422,-0.002041656,0.999996066,0.000000000,0.000000000,0.000000000,0.000000000,0.000000000,0.000000000,-0.234043764,0.000000000,4.085630417
1772426731.350767612,0.016718000,0.008039000,0.053691000,-0.003168860,0.004822440,-0.003705470,0.999976490,-0.006374000,0.009621000,-0.007442000,-0.000469600,0.000452390,-0.000690210,-0.007181937,-0.004238708,0.005068379,0.005384661,-0.001795818,0.999763819,0.001269433,0.003450288,0.001665777,0.000000000,0.000000000,0.000000000,0.000000000,0.016912853,0.008063585,0.053663916,0.019104916,0.003157797,-0.001113494,0.002972966,0.000012515,-0.000326885,-0.114578256,0.093610586,-0.234073630,-0.001001549,-0.000814863,-0.002043490,0.999996066,0.000000000,0.000000000,0.000000000,0.000000000,0.000000000,0.000000000,-0.233883998,0.000000000,4.085630417
1772426731.360766888,0.016721000,0.008034000,0.053668000,-0.003249690,0.004740100,-0.003663140,0.999976780,-0.006534000,0.009456000,-0.007357000,-0.000231139,0.000185082,-0.000367094,-0.000867032,-0.012802853,0.007889010,0.008162758,-0.000728761,0.997592023,-0.001128284,0.001768695,0.001038542,0.000000000,0.000000000,0.000000000,0.000000000,0.016917540,0.008058509,0.053669622,0.018821762,0.003075604,-0.001068768,0.005869324,0.000591351,-0.001922313,-0.114717966,0.091491188,-0.233605707,-0.001002727,-0.000796369,-0.002039388,0.999996067,0.000000000,0.000000000,0.000000000,0.000000000,0.000000000,0.000000000,-0.233964042,0.000000000,4.085630417
1772426731.370766878,0.016722000,0.008037000,0.053669000,-0.003234080,0.004868710,-0.003559560,0.999976580,-0.006503000,0.009714000,-0.007151000,0.000165501,-0.000063267,0.000125816,0.002809373,-0.021923051,0.008296038,0.009650359,-0.000223924,0.998215587,-0.002893568,0.002116710,0.006081264,0.000000000,0.000000000,0.000000000,0.000000000,0.016922046,0.008055524,0.053679394,0.018748004,0.003041029,-0.001119513,0.008031211,0.001741915,-0.002439512,-0.115031033,0.090099439,-0.233589057,-0.001005434,-0.000784218,-0.002039233,0.999996124,0.000000000,0.000000000,0.000000000,0.000000000,0.000000000,0.000000000,-0.233625605,0.000000000,4.085630417
1772426731.380765915,0.016721000,0.008042000,0.053686000,-0.003168220,0.004567340,-0.003486670,0.999978470,-0.006368000,0.009113000,-0.007002000,0.000431333,-0.000136267,0.000535529,0.004752597,-0.027700586,0.006457718,0.009301044,-0.000818665,0.998033812,-0.001957919,-0.000848395,-0.000495197,0.000000000,0.000000000,0.000000000,0.000000000,0.016919443,0.008056336,0.053685741,0.018840443,0.003106415,-0.001248984,0.008263054,0.001403285,-0.001233351,-0.115431885,0.089433878,-0.231631310,-0.001008907,-0.000778420,-0.002022146,0.999996126,0.000000000,0.000000000,0.000000000,0.000000000,0.000000000,0.000000000,-0.233357755,0.000000000,4.085630417
1772426731.390766621,0.016736000,0.008032000,0.053698000,-0.003104360,0.004415810,-0.003524360,0.999979220,-0.006240000,0.008810000,-0.007076000,0.000325525,-0.000105459,0.000517949,0.007116411,-0.018696146,0.001517244,0.009360075,-0.001369423,0.998713057,-0.000756668,0.000431576,-0.000924804,0.000000000,0.000000000,0.000000000,0.000000000,0.016913340,0.008060229,0.053685469,0.018955874,0.003174046,-0.001358565,0.007331762,0.000960504,-0.001347022,-0.115800861,0.089621417,-0.231918363,-0.001012133,-0.000780048,-0.002024655,0.999996126,0.000000000,0.000000000,0.000000000,0.000000000,0.000000000,0.000000000,-0.231655225,0.000000000,4.085630417
1772426731.400766373,0.016726000,0.008029000,0.053705000,-0.003036330,0.004288020,-0.003508800,0.999980040,-0.006103000,0.008555000,-0.007044000,0.000194173,0.000002953,0.000194891,0.006577583,-0.012165374,-0.001512286,0.009041874,-0.001824176,0.999046158,0.001291593,0.000648988,-0.001832353,0.000000000,0.000000000,0.000000000,0.000000000,0.016908787,0.008064073,0.053679634,0.019061452,0.003196643,-0.001454088,0.007544763,0.000133007,-0.000798574,-0.115292600,0.090382217,-0.231463131,-0.001007707,-0.000786700,-0.002020686,0.999996162,0.000000000,0.000000000,0.000000000,0.000000000,0.000000000,0.000000000,-0.231921326,0.000000000,4.085630417
1772426731.410767317,0.016736000,0.008034000,0.053687000,-0.003121470,0.004321350,-0.003578600,0.999979390,-0.006274000,0.008620000,-0.007184000,0.000076146,-0.000039413,-0.000351438,0.006731517,0.001332263,-0.002620057,0.007428694,-0.001465300,1.000173302,0.000949688,-0.000725657,-0.001825274,0.000000000,0.000000000,0.000000000,0.000000000,0.016907587,0.008065206,0.053665726,0.019176084,0.003149216,-0.001544782,0.006612568,0.000522655,-0.001186213,-0.113973684,0.091296904,-0.232161564,-0.000996219,-0.000794699,-0.002026779,0.999996145,0.000000000,0.000000000,0.000000000,0.000000000,0.000000000,0.000000000,-0.231320361,0.000000000,4.085630417
1772426731.420767546,0.016731000,0.008040000,0.053687000,-0.003129230,0.004390910,-0.003557530,0.999979140,-0.006290000,0.008759000,-0.007143000,0.000002525,-0.000003263,-0.000487063,0.003188445,0.013437960,-0.001589495,0.008346079,-0.001734925,1.000303354,0.000196812,0.001680424,-0.000973040,0.000000000,0.000000000,0.000000000,0.000000000,0.016907779,0.008067679,0.053663151,0.019170485,0.003101609,-0.001521671,0.005450536,0.000907731,0.000887604,-0.114339698,0.091606698,-0.232652167,-0.000999422,-0.000797392,-0.002031066,0.999996126,0.000000000,0.000000000,0.000000000,0.000000000,0.000000000,0.000000000,-0.232423857,0.000000000,4.085630417
1772426731.430768013,0.016732000,0.008033000,0.053678000,-0.003020290,0.004539680,-0.003548280,0.999978840,-0.006073000,0.009058000,-0.007124000,-0.000259169,0.000079002,-0.000271640,-0.001811620,0.009625673,-0.000585904,0.009773951,-0.000555693,0.999411088,-0.002201803,-0.000804346,-0.001417425,0.000000000,0.000000000,0.000000000,0.000000000,0.016911142,0.008067588,0.053671084,0.019131000,0.003077550,-0.001367379,0.008578804,0.000573422,-0.000259151,-0.114651080,0.090495136,-0.232223465,-0.001002116,-0.000787690,-0.002027317,0.999996126,0.000000000,0.000000000,0.000000000,0.000000000,0.000000000,0.000000000,-0.232605414,0.000000000,4.085630417
1772426731.440767527,0.016730000,0.008035000,0.053685000,-0.002986320,0.004417860,-0.003519080,0.999979590,-0.006004000,0.008815000,-0.007065000,-0.000168240,0.000021076,-0.000163287,-0.008845264,-0.001203967,-0.002948902,0.008550987,-0.001853775,0.996805844,0.000587584,-0.001916869,-0.002828061,0.000000000,0.000000000,0.000000000,0.000000000,0.017008566,0.008080933,0.053669370,0.019557131,0.003124492,-0.001321875,0.007489550,0.000450513,-0.002369296,-0.114492273,0.092465427,-0.231324918,-0.001000759,-0.000804895,-0.002019492,0.999996126,0.000000000,0.000000000,0.000000000,0.000000000,0.000000000,0.000000000,-0.232114941,0.000000000,4.085630417
1772426731.450766802,0.016728000,0.008031000,0.053681000,-0.003043270,0.004580290,-0.003587610,0.999978440,-0.006120000,0.009139000,-0.007203000,-0.000216647,-0.000043260,-0.000009188,-0.014188087,-0.009649561,-0.005653214,0.007919914,-0.001806248,0.998066482,-0.000929724,0.002913524,-0.004235972,0.000000000,0.000000000,0.000000000,0.000000000,0.017199247,0.008111116,0.053655828,0.020291618,0.003186283,-0.001501469,0.006348892,-0.000180320,-0.002769195,-0.113949041,0.094113754,-0.232088402,-0.000996053,-0.000819282,-0.002026165,0.999996126,0.000000000,0.000000000,0.000000000,0.000000000,0.000000000,0.000000000,-0.231337448,0.000000000,4.085630417
1772426731.460767031,0.016728000,0.008035000,0.053687000,-0.003267820,0.004390040,-0.003608640,0.999978510,-0.006567000,0.008756000,-0.007246000,0.000011694,0.000008741,-0.000102506,-0.015444027,-0.013315600,-0.007188924,0.008196561,-0.000194724,0.998729346,-0.002444041,0.001900088,-0.003918439,0.000000000,0.000000000,0.000000000,0.000000000,0.017176403,0.008104400,0.053656434,0.017959749,0.002597145,-0.001515891,0.006188699,0.001211252,0.000681630,-0.110328781,0.123565289,-0.233886348,-0.000965001,-0.001076344,-0.002042070,0.999995865,0.000000000,0.000000000,0.000000000,0.000000000,0.000000000,0.000000000,-0.232274701,0.000000000,4.085630417
1772426731.470767021,0.016717000,0.008038000,0.053681000,-0.003316740,0.004268200,-0.003637390,0.999978780,-0.006665000,0.008512000,-0.007303000,0.000279060,-0.000014375,0.000052428,-0.010233430,-0.007586779,-0.005164299,0.006133893,-0.001314551,0.998849679,0.000476841,-0.000474839,0.002943626,0.000000000,0.000000000,0.000000000,0.000000000,0.016997079,0.008073061,0.053667237,0.015379034,0.002081553,-0.001370699,0.003650066,0.000477241,-0.000703695,-0.107238609,0.147664032,-0.235335216,-0.000938476,-0.001286688,-0.002054887,0.999995589,0.000000000,0.000000000,0.000000000,0.000000000,0.000000000,0.000000000,-0.234670301,0.000000000,4.085630417
1772426731.480767012,0.016736000,0.008035000,0.053672000,-0.003362010,0.004238080,-0.003699600,0.999978520,-0.006756000,0.008451000,-0.007428000,0.000385995,-0.000138734,0.000289841,0.002105634,0.007215263,-0.002626222,0.009209655,-0.001359870,0.999042005,0.002028422,-0.000178982,-0.000949706,0.000000000,0.000000000,0.000000000,0.000000000,0.016917170,0.008060239,0.053670440,0.015527064,0.002163777,-0.001440658,0.007383861,0.000253580,-0.000887609,-0.106264816,0.147746408,-0.235378480,-0.000929980,-0.001287424,-0.002055254,0.999995626,0.000000000,0.000000000,0.000000000,0.000000000,0.000000000,0.000000000,-0.235333191,0.000000000,4.085630417
1772426731.490766764,0.016732000,0.008031000,0.053686000,-0.003264460,0.004412610,-0.003690750,0.999978130,-0.006562000,0.008801000,-0.007411000,0.000370319,-0.000065870,0.000229585,0.009371820,0.017430811,-0.001426184,0.008933401,-0.000847459,1.000003470,0.001773509,-0.000914069,-0.000206465,0.000000000,0.000000000,0.000000000,0.000000000,0.016863402,0.008050999,0.053673853,0.015718053,0.002237810,-0.001468182,0.006380468,0.001192662,0.000555776,-0.105075104,0.147928739,-0.235455851,-0.000919602,-0.001289035,-0.002055918,0.999995649,0.000000000,0.000000000,0.000000000,0.000000000,0.000000000,0.000000000,-0.235457230,0.000000000,4.085630417
1772426731.500767469,0.016741000,0.008033000,0.053686000,-0.003141550,0.004448830,-0.003631480,0.999978580,-0.006316000,0.008875000,-0.007291000,0.000031779,0.000010334,0.000057207,0.011582802,0.024046307,0.000519366,0.008166936,-0.000848243,0.999131282,0.002050505,-0.003573773,0.002047156,0.000000000,0.000000000,0.000000000,0.000000000,0.016878802,0.008051383,0.053677699,0.016017907,0.002289822,-0.001384871,0.005475844,0.001151800,-0.000593201,-0.104218309,0.147619311,-0.235302070,-0.000912118,-0.001286352,-0.002054563,0.999995649,0.000000000,0.000000000,0.000000000,0.000000000,0.000000000,0.000000000,-0.235259306,0.000000000,4.085630417
1772426731.510767937,0.016743000,0.008029000,0.053696000,-0.003134370,0.004683100,-0.003648260,0.999977470,-0.006303000,0.009343000,-0.007326000,-0.000299320,0.000190288,-0.000148213,0.008864592,0.023991164,0.003558250,0.008359089,-0.000560132,0.998167390,-0.000533126,-0.004677742,0.001129807,0.000000000,0.000000000,0.000000000,0.000000000,0.016881892,0.008054327,0.053677893,0.016155811,0.002335113,-0.001363976,0.006115912,0.001047030,-0.001571327,-0.103062468,0.147940119,-0.235027399,-0.000902034,-0.001289174,-0.002052156,0.999995649,0.000000000,0.000000000,0.000000000,0.000000000,0.000000000,0.000000000,-0.234981274,0.000000000,4.085630417
1772426731.520767927,0.016728000,0.008035000,0.053691000,-0.003097830,0.004804510,-0.003680330,0.999976890,-0.006231000,0.009586000,-0.007391000,-0.000635451,0.000370941,-0.000470261,0.001900979,0.017487472,0.004890413,0.009312623,-0.001578933,1.000483117,0.001948995,-0.002410180,-0.003465690,0.000000000,0.000000000,0.000000000,0.000000000,0.016883629,0.008059397,0.053666808,0.016294357,0.002411327,-0.001507546,0.006195972,0.000502048,-0.000845428,-0.101964392,0.149579896,-0.234544871,-0.000892475,-0.001303507,-0.002047945,0.999995649,0.000000000,0.000000000,0.000000000,0.000000000,0.000000000,0.000000000,-0.234402723,0.000000000,4.085630417
1772426731.530767918,0.016727000,0.008043000,0.053664000,-0.003209820,0.004724340,-0.003676630,0.999976930,-0.006455000,0.009425000,-0.007384000,-0.000416376,0.000305808,-0.000608956,-0.006020675,0.003648382,0.003865205,0.007495594,-0.002190280,0.999651525,0.003105204,0.001314551,0.000127392,0.000000000,0.000000000,0.000000000,0.000000000,0.016883366,0.008060924,0.053663719,0.016348659,0.002428178,-0.001536021,0.005713863,-0.000028644,0.000243653,-0.102467601,0.151189533,-0.233770274,-0.000896886,-0.001317551,-0.002041204,0.999995649,0.000000000,0.000000000,0.000000000,0.000000000,0.000000000,0.000000000,-0.233769062,0.000000000,4.085630417
1772426731.540767193,0.016714000,0.008041000,0.053675000,-0.003133860,0.004705450,-0.003553670,0.999977700,-0.006301000,0.009389000,-0.007137000,-0.000028671,-0.000104973,-0.000081682,-0.010910513,-0.011413451,0.001943756,0.007710526,-0.002036655,0.999533246,0.002123788,0.000560401,0.000806820,0.000000000,0.000000000,0.000000000,0.000000000,0.016882561,0.008061308,0.053663478,0.016377792,0.002426055,-0.001523448,0.005589604,-0.000126006,0.000140098,-0.102363779,0.151212971,-0.233760588,-0.000895981,-0.001317758,-0.002041119,0.999995649,0.000000000,0.000000000,0.000000000,0.000000000,0.000000000,0.000000000,-0.233759301,0.000000000,4.085630417
1772426731.550767183,0.016724000,0.008042000,0.053671000,-0.003152560,0.004855220,-0.003562750,0.999976900,-0.006340000,0.009688000,-0.007156000,0.000448408,-0.000446620,0.000373757,-0.010383530,-0.020163543,0.002307917,0.007925473,-0.001883019,0.999414959,0.001142302,-0.000193803,0.001486297,0.000000000,0.000000000,0.000000000,0.000000000,0.016881756,0.008061692,0.053663236,0.016406927,0.002423931,-0.001510874,0.005465336,-0.000223375,0.000036536,-0.102259950,0.151236410,-0.233750902,-0.000895075,-0.001317964,-0.002041033,0.999995649,0.000000000,0.000000000,0.000000000,0.000000000,0.000000000,0.000000000,-0.233749540,0.000000000,4.085630417
1772426731.560767412,0.016726000,0.008039000,0.053676000,-0.003337090,0.004611150,-0.003596510,0.999977330,-0.006708000,0.009198000,-0.007224000,0.000446698,-0.000498718,0.000736656,-0.004690904,-0.017236127,-0.000621733,0.008140425,-0.001729380,0.999296670,0.000160792,-0.000948025,0.002165790,0.000000000,0.000000000,0.000000000,0.000000000,0.016880952,0.008062076,0.053662994,0.016436062,0.002421807,-0.001498299,0.005341065,-0.000320747,-0.000067029,-0.102156118,0.151259849,-0.233741215,-0.000894169,-0.001318170,-0.002040948,0.999995649,0.000000000,0.000000000,0.000000000,0.000000000,0.000000000,0.000000000,-0.233739779,0.000000000,4.085630417
1772426731.570767879,0.016741000,0.008025000,0.053689000,-0.003326070,0.004388570,-0.003621060,0.999978280,-0.006684000,0.008753000,-0.007271000,0.000114297,-0.000286558,0.000463443,0.002852749,-0.006900972,-0.001191423,0.008355383,-0.001575736,0.999178377,-0.000820741,-0.001702265,0.002845299,0.000000000,0.000000000,0.000000000,0.000000000,0.016880147,0.008062460,0.053662752,0.016465198,0.002419683,-0.001485724,0.005216792,-0.000418121,-0.000170596,-0.102052284,0.151283290,-0.233731529,-0.000893263,-0.001318377,-0.002040862,0.999995649,0.000000000,0.000000000,0.000000000,0.000000000,0.000000000,0.000000000,-0.233730017,0.000000000,4.085630417
1772426731.580768108,0.016744000,0.008015000,0.053704000,-0.003321350,0.004377230,-0.003634010,0.999978300,-0.006675000,0.008730000,-0.007297000,-0.000036189,0.000054429,-0.000213073,0.004442415,0.002513367,-0.001528608,0.008570335,-0.001422097,0.999060087,-0.001802250,-0.002456487,0.003524792,0.000000000,0.000000000,0.000000000,0.000000000,0.016879342,0.008062844,0.053662510,0.016494334,0.002417560,-0.001473150,0.005092521,-0.000515492,-0.000274161,-0.101948452,0.151306729,-0.233721842,-0.000892358,-0.001318583,-0.002040777,0.999995649,0.000000000,0.000000000,0.000000000,0.000000000,0.000000000,0.000000000,-0.233720255,0.000000000,4.085630417
1772426731.590768099,0.016730000,0.008030000,0.053687000,-0.003186480,0.004600480,-0.003566340,0.999977980,-0.006406000,0.009178000,-0.007162000,-0.000293571,0.000390055,-0.000395533,0.007171304,0.013275219,0.000632733,0.008785283,-0.001268461,0.998941800,-0.002783736,-0.003210691,0.004204268,0.000000000,0.000000000,0.000000000,0.000000000,0.016880447,0.008063552,0.053661202,0.016534590,0.002382180,-0.001454223,0.005060008,-0.000494878,-0.000450138,-0.101844623,0.151330168,-0.233712156,-0.000891452,-0.001318790,-0.002040691,0.999995649,0.000000000,0.000000000,0.000000000,0.000000000,0.000000000,0.000000000,-0.233710494,0.000000000,4.085630417
1772426731.600768328,0.016715000,0.008043000,0.053679000,-0.003088340,0.004680330,-0.003625950,0.999977700,-0.006211000,0.009338000,-0.007281000,-0.000252856,0.000454099,-0.000367522,0.007663979,0.020914778,0.002290545,0.009242053,-0.000821889,0.998884154,-0.000036697,-0.002208978,0.003348113,0.000000000,0.000000000,0.000000000,0.000000000,0.016882917,0.008064129,0.053659804,0.016602882,0.002343115,-0.001444333,0.006396306,0.001285807,-0.001706397,-0.101218398,0.151106608,-0.233767461,-0.000885984,-0.001316850,-0.002041165,0.999995649,0.000000000,0.000000000,0.000000000,0.000000000,0.000000000,0.000000000,-0.233777751,0.000000000,4.085630417
1772426731.610769510,0.016726000,0.008039000,0.053665000,-0.003161200,0.004808570,-0.003545070,0.999977160,-0.006357000,0.009595000,-0.007121000,-0.000055361,0.000157867,-0.000055070,0.002761028,0.017007576,0.003460575,0.009413412,-0.000917624,0.998429904,0.003879547,0.000383471,0.001711888,0.000000000,0.000000000,0.000000000,0.000000000,0.016885380,0.008063405,0.053660762,0.016737664,0.002372475,-0.001479669,0.006678158,0.000627515,-0.001923163,-0.101219070,0.151861380,-0.233148812,-0.000885996,-0.001323441,-0.002035772,0.999995649,0.000000000,0.000000000,0.000000000,0.000000000,0.000000000,0.000000000,-0.233004634,0.000000000,4.085630417
1772426731.620769501,0.016737000,0.008040000,0.053674000,-0.003252970,0.004777910,-0.003621270,0.999976740,-0.006541000,0.009532000,-0.007274000,0.000439608,-0.000141162,0.000217794,-0.001254141,0.008568859,0.002266457,0.008431966,-0.002814332,0.997017716,0.001484919,0.002144445,0.002060449,0.000000000,0.000000000,0.000000000,0.000000000,0.016893373,0.008057705,0.053666259,0.016916638,0.002415075,-0.001516782,0.006037449,-0.000905484,-0.002307266,-0.100688646,0.152712758,-0.232587574,-0.000881376,-0.001330885,-0.002030874,0.999995649,0.000000000,0.000000000,0.000000000,0.000000000,0.000000000,0.000000000,-0.232578620,0.000000000,4.085630417
1772426731.630769491,0.016730000,0.008039000,0.053692000,-0.003168430,0.004823880,-0.003573360,0.999976960,-0.006372000,0.009625000,-0.007178000,0.000538151,-0.000353380,0.000293182,-0.002925256,0.008707621,0.000065766,0.008349011,-0.001154258,0.998505736,-0.000116397,0.000343223,-0.003038649,0.000000000,0.000000000,0.000000000,0.000000000,0.016900136,0.008050533,0.053674315,0.017042258,0.002309269,-0.001615968,0.005519412,-0.000497538,-0.001591684,-0.099331543,0.152911959,-0.232411292,-0.000869534,-0.001332648,-0.002029322,0.999995649,0.000000000,0.000000000,0.000000000,0.000000000,0.000000000,0.000000000,-0.232315844,0.000000000,4.085630417
1772426731.640769482,0.016736000,0.008024000,0.053695000,-0.003113500,0.004836750,-0.003520440,0.999977260,-0.006261000,0.009652000,-0.007071000,0.000241123,-0.000258003,-0.000015851,-0.000827080,0.011706020,-0.001675774,0.008149351,0.001255759,1.001065764,0.001458467,-0.000342869,-0.003915023,0.000000000,0.000000000,0.000000000,0.000000000,0.016901527,0.008048245,0.053676521,0.017114813,0.002258910,-0.001679325,0.005643871,0.002230569,0.000263272,-0.098566952,0.152753974,-0.231738495,-0.000862851,-0.001331288,-0.002023440,0.999995699,0.000000000,0.000000000,0.000000000,0.000000000,0.000000000,0.000000000,-0.231767861,0.000000000,4.085630417
1772426731.650769949,0.016742000,0.008025000,0.053686000,-0.003179280,0.004932710,-0.003549170,0.999976480,-0.006394000,0.009843000,-0.007130000,-0.000239006,0.000006099,-0.000219192,0.004635469,0.008547770,-0.001695810,0.008650865,0.000472791,1.000315759,0.001125420,-0.001487729,-0.001364308,0.000000000,0.000000000,0.000000000,0.000000000,0.016897417,0.008052114,0.053672902,0.017150419,0.002367532,-0.001637748,0.006131058,0.002750329,0.000343814,-0.098120526,0.152851828,-0.232015261,-0.000858960,-0.001332148,-0.002025851,0.999995708,0.000000000,0.000000000,0.000000000,0.000000000,0.000000000,0.000000000,-0.232127328,0.000000000,4.085630417
1772426731.660769224,0.016744000,0.008040000,0.053670000,-0.003200310,0.004970820,-0.003622970,0.999975960,-0.006437000,0.009918000,-0.007278000,-0.000386461,0.000181974,-0.000461850,0.003762921,0.004706874,0.000634371,0.008983085,-0.001290715,0.998628295,-0.000725445,-0.000907001,0.001484564,0.000000000,0.000000000,0.000000000,0.000000000,0.016891141,0.008058479,0.053668994,0.017171481,0.002576800,-0.001511994,0.006245876,0.000080246,-0.001156215,-0.097860790,0.152768252,-0.232660468,-0.000856700,-0.001331418,-0.002031478,0.999995708,0.000000000,0.000000000,0.000000000,0.000000000,0.000000000,0.000000000,-0.232828008,0.000000000,4.085630417
1772426731.670769691,0.016726000,0.008033000,0.053670000,-0.003139990,0.005100600,-0.003623380,0.999975500,-0.006317000,0.010178000,-0.007279000,-0.000271290,0.000306449,-0.000208392,0.001653959,-0.008535629,-0.000326182,0.007720949,-0.001210216,0.999175733,-0.003673007,0.006005513,0.001289841,0.000000000,0.000000000,0.000000000,0.000000000,0.017012457,0.008077833,0.053655088,0.017693076,0.002561523,-0.001600840,0.005620785,-0.000458263,0.000236638,-0.097723986,0.153376999,-0.232387448,-0.000855514,-0.001336735,-0.002029099,0.999995708,0.000000000,0.000000000,0.000000000,0.000000000,0.000000000,0.000000000,-0.232967202,0.000000000,4.085630417
1772426731.680768728,0.016725000,0.008034000,0.053677000,-0.003118770,0.004900670,-0.003596500,0.999976660,-0.006273000,0.009779000,-0.007224000,-0.000229177,0.000261131,0.000165987,0.002505352,-0.017064857,-0.000374378,0.007451740,-0.001166805,0.999047396,-0.001528854,0.000079571,0.000193337,0.000000000,0.000000000,0.000000000,0.000000000,0.016899463,0.008063347,0.053662815,0.017429360,0.002453580,-0.001522284,0.005138409,0.000480305,-0.001538641,-0.097299697,0.153130112,-0.232734838,-0.000851811,-0.001334586,-0.002032123,0.999995708,0.000000000,0.000000000,0.000000000,0.000000000,0.000000000,0.000000000,-0.232806981,0.000000000,4.085630417
1772426731.690768719,0.016722000,0.008041000,0.053684000,-0.003032980,0.004760950,-0.003508770,0.999977910,-0.006100000,0.009501000,-0.007047000,0.000019211,-0.000027234,0.000437821,0.002878722,-0.021223045,-0.000436429,0.009427076,-0.001077060,0.999698386,0.000524590,0.000723477,0.000221554,0.000000000,0.000000000,0.000000000,0.000000000,0.016900617,0.008060673,0.053670626,0.017428830,0.002430868,-0.001496818,0.005857030,-0.000049526,-0.000201519,-0.098168254,0.150620652,-0.232457392,-0.000859343,-0.001312673,-0.002029694,0.999995708,0.000000000,0.000000000,0.000000000,0.000000000,0.000000000,0.000000000,-0.232398687,0.000000000,4.085630417
1772426731.700768709,0.016732000,0.008039000,0.053679000,-0.003162270,0.004716100,-0.003581690,0.999977460,-0.006358000,0.009409000,-0.007193000,0.000272922,-0.000249165,0.000331216,0.001226488,-0.019619285,-0.002935782,0.010255124,-0.000704111,0.999941195,0.000429249,0.002821844,0.003382480,0.000000000,0.000000000,0.000000000,0.000000000,0.016904673,0.008054354,0.053674296,0.017544883,0.002399667,-0.001467645,0.007635646,0.001086493,0.000511735,-0.098563391,0.151285660,-0.232740012,-0.000862806,-0.001318467,-0.002032170,0.999995708,0.000000000,0.000000000,0.000000000,0.000000000,0.000000000,0.000000000,-0.232800910,0.000000000,4.085630417
1772426731.710769653,0.016739000,0.008035000,0.053689000,-0.003126770,0.004506380,-0.003644020,0.999978320,-0.006287000,0.008990000,-0.007316000,0.000420610,-0.000358936,-0.000027642,-0.002808421,-0.014324865,-0.007816042,0.010230735,-0.001177692,0.999543442,-0.001275360,0.001887887,0.002377534,0.000000000,0.000000000,0.000000000,0.000000000,0.016910026,0.008054260,0.053670675,0.017796114,0.002439979,-0.001410214,0.006813371,0.001231117,-0.001299990,-0.098636365,0.150631774,-0.231993207,-0.000863423,-0.001312765,-0.002025648,0.999995708,0.000000000,0.000000000,0.000000000,0.000000000,0.000000000,0.000000000,-0.231824669,0.000000000,4.085630417
1772426731.720769644,0.016733000,0.008031000,0.053682000,-0.003111990,0.004628550,-0.003678870,0.999977680,-0.006258000,0.009234000,-0.007387000,0.000196173,-0.000403341,-0.000302079,-0.005321034,-0.004418502,-0.010877810,0.010370791,-0.001340780,0.998600668,0.000298873,0.003632892,-0.000780992,0.000000000,0.000000000,0.000000000,0.000000000,0.016911353,0.008058305,0.053663412,0.018000167,0.002487654,-0.001443194,0.008331692,-0.000300676,-0.001396260,-0.098129292,0.149491840,-0.230426596,-0.000858960,-0.001302838,-0.002011963,0.999995728,0.000000000,0.000000000,0.000000000,0.000000000,0.000000000,0.000000000,-0.230210185,0.000000000,4.085630417
1772426731.730769873,0.016737000,0.008025000,0.053685000,-0.003114000,0.004566620,-0.003685920,0.999977930,-0.006262000,0.009110000,-0.007400000,0.000001612,-0.000275311,-0.000229526,-0.004793466,-0.002968606,-0.008716984,0.010006600,-0.000448363,0.997662171,0.002329025,0.002245201,-0.000645727,0.000000000,0.000000000,0.000000000,0.000000000,0.016907103,0.008058078,0.053660562,0.018190294,0.002453895,-0.001501380,0.006978830,0.002045073,-0.002258662,-0.097980927,0.148566702,-0.229984966,-0.000857644,-0.001294771,-0.002008100,0.999995756,0.000000000,0.000000000,0.000000000,0.000000000,0.000000000,0.000000000,-0.229959164,0.000000000,4.085630417
1772426731.740769863,0.016737000,0.008021000,0.053674000,-0.003154080,0.004514480,-0.003740480,0.999977840,-0.006342000,0.009005000,-0.007510000,-0.000035470,-0.000016356,-0.000043998,-0.004265624,-0.004889811,-0.003680263,0.009474312,0.000095008,0.997661463,0.000795483,-0.002301435,0.000487263,0.000000000,0.000000000,0.000000000,0.000000000,0.016905305,0.008058422,0.053661170,0.018326957,0.002495908,-0.001615213,0.007097321,0.001581369,-0.002089603,-0.097767713,0.147125810,-0.229895161,-0.000855757,-0.001282201,-0.002007303,0.999995793,0.000000000,0.000000000,0.000000000,0.000000000,0.000000000,0.000000000,-0.229891336,0.000000000,4.085630417
1772426731.750769138,0.016738000,0.008024000,0.053673000,-0.003267070,0.004515610,-0.003799730,0.999977250,-0.006569000,0.009006000,-0.007629000,-0.000156799,0.000293940,0.000064744,-0.006039295,-0.010983579,-0.001109079,0.008457438,-0.002166027,0.999000654,-0.002585728,0.003545984,-0.001539920,0.000000000,0.000000000,0.000000000,0.000000000,0.016903422,0.008061890,0.053663937,0.018446824,0.002625392,-0.001745628,0.006140030,0.000526983,-0.000868389,-0.097555831,0.146221695,-0.229786555,-0.000853891,-0.001274316,-0.002006347,0.999995828,0.000000000,0.000000000,0.000000000,0.000000000,0.000000000,0.000000000,-0.229739497,0.000000000,4.085630417
1772426731.760769129,0.016731000,0.008035000,0.053677000,-0.003225240,0.004530740,-0.003778350,0.999977400,-0.006485000,0.009037000,-0.007586000,-0.000189452,0.000487821,0.000141764,-0.000404783,-0.005408069,0.002089880,0.007494974,-0.000498815,1.000627679,0.001632275,-0.003802905,-0.000238387,0.000000000,0.000000000,0.000000000,0.000000000,0.016906360,0.008063333,0.053663704,0.018499610,0.002611035,-0.001767582,0.004784501,0.000863495,0.000384005,-0.097602634,0.146713240,-0.229544315,-0.000854305,-0.001278606,-0.002004237,0.999995828,0.000000000,0.000000000,0.000000000,0.000000000,0.000000000,0.000000000,-0.229502195,0.000000000,4.085630417
1772426731.770769119,0.016733000,0.008033000,0.053690000,-0.003170870,0.004404710,-0.003695140,0.999978440,-0.006374000,0.008786000,-0.007418000,-0.000283742,0.000484830,-0.000035412,0.004654708,0.007854229,0.004726067,0.005892016,0.001070766,0.999544014,0.000562540,-0.002787466,0.002704553,0.000000000,0.000000000,0.000000000,0.000000000,0.016910924,0.008062939,0.053666078,0.018468892,0.002632035,-0.001669120,0.003982852,0.002302841,0.000222609,-0.098264447,0.146370818,-0.229390313,-0.000860073,-0.001275608,-0.002002898,0.999995828,0.000000000,0.000000000,0.000000000,0.000000000,0.000000000,0.000000000,-0.229395054,0.000000000,4.085630417
1772426731.780769110,0.016736000,0.008038000,0.053684000,-0.003226710,0.004381290,-0.003704520,0.999978330,-0.006486000,0.008739000,-0.007438000,-0.000080750,0.000129740,-0.000048038,0.008521600,0.013067809,0.008170218,0.006830967,0.000969565,0.999106457,0.000695770,-0.002309021,0.001017387,0.000000000,0.000000000,0.000000000,0.000000000,0.016913018,0.008061621,0.053667963,0.018338664,0.002754013,-0.001591978,0.003743852,0.002942485,-0.001052408,-0.096785224,0.147651275,-0.229410089,-0.000847187,-0.001286807,-0.002003064,0.999995828,0.000000000,0.000000000,0.000000000,0.000000000,0.000000000,0.000000000,-0.229406391,0.000000000,4.085630417
1772426731.790769577,0.016719000,0.008045000,0.053678000,-0.003146270,0.004457380,-0.003686100,0.999978320,-0.006326000,0.008891000,-0.007400000,0.000042133,-0.000154934,-0.000017055,0.009325083,0.013317016,0.008409483,0.007987807,0.000518723,0.998907249,0.002160050,0.000584104,-0.000667144,0.000000000,0.000000000,0.000000000,0.000000000,0.016912530,0.008059533,0.053667812,0.018177754,0.002924744,-0.001603224,0.004554641,0.001727372,-0.001360725,-0.096450487,0.147979468,-0.228835211,-0.000844265,-0.001289682,-0.001998045,0.999995828,0.000000000,0.000000000,0.000000000,0.000000000,0.000000000,0.000000000,-0.228744358,0.000000000,4.085630417
1772426731.800769091,0.016732000,0.008038000,0.053672000,-0.003028210,0.004914890,-0.003631500,0.999976740,-0.006092000,0.009808000,-0.007293000,0.000147650,-0.000294522,0.000095629,0.002794143,0.010430090,0.004979347,0.008438673,-0.000355074,0.998826625,0.003045829,0.003713538,-0.001141732,0.000000000,0.000000000,0.000000000,0.000000000,0.016913106,0.008056874,0.053667809,0.018121002,0.003031122,-0.001634914,0.005102850,0.000967965,-0.001165829,-0.095557563,0.148611265,-0.228840085,-0.000836484,-0.001295211,-0.001998082,0.999995828,0.000000000,0.000000000,0.000000000,0.000000000,0.000000000,0.000000000,-0.228882656,0.000000000,4.085630417
1772426731.810768366,0.016732000,0.008031000,0.053676000,-0.003093080,0.004723830,-0.003615390,0.999977520,-0.006220000,0.009425000,-0.007260000,0.000242405,-0.000367211,0.000311325,0.000334432,0.002179116,0.001871363,0.008640129,-0.001257115,0.999348509,0.002560204,0.004176083,-0.002528654,0.000000000,0.000000000,0.000000000,0.000000000,0.016913243,0.008054277,0.053663596,0.018100108,0.003090189,-0.001687059,0.005856911,0.000574319,-0.000470030,-0.094389973,0.148600430,-0.228898945,-0.000826295,-0.001295136,-0.001998583,0.999995828,0.000000000,0.000000000,0.000000000,0.000000000,0.000000000,0.000000000,-0.228883903,0.000000000,4.085630417
1772426731.820769310,0.016741000,0.008022000,0.053691000,-0.003070830,0.004573900,-0.003554720,0.999978510,-0.006174000,0.009126000,-0.007138000,0.000098291,-0.000168609,0.000378555,-0.000893359,-0.006521763,-0.000356364,0.008814201,-0.000451594,1.000714302,0.001667665,0.003330197,-0.006122287,0.000000000,0.000000000,0.000000000,0.000000000,0.016913810,0.008054193,0.053660808,0.018115691,0.003067578,-0.001693005,0.006397326,0.000837184,-0.000150755,-0.093262838,0.147639090,-0.229050796,-0.000816444,-0.001286765,-0.001999888,0.999995828,0.000000000,0.000000000,0.000000000,0.000000000,0.000000000,0.000000000,-0.228682272,0.000000000,4.085630417
1772426731.830769062,0.016732000,0.008033000,0.053695000,-0.003107610,0.004569410,-0.003616010,0.999978190,-0.006248000,0.009116000,-0.007261000,0.000051185,0.000067133,0.000118959,-0.001372217,-0.011548727,-0.003597934,0.009903715,-0.000650663,0.998470697,0.001761936,-0.000606089,0.000278710,0.000000000,0.000000000,0.000000000,0.000000000,0.016911449,0.008058531,0.053660588,0.018162725,0.003103631,-0.001618548,0.006821241,0.001003113,-0.000919621,-0.092192390,0.146092933,-0.229597062,-0.000807082,-0.001273287,-0.002004633,0.999995842,0.000000000,0.000000000,0.000000000,0.000000000,0.000000000,0.000000000,-0.228631703,0.000000000,4.085630417
1772426731.840769053,0.016736000,0.008030000,0.053688000,-0.003205210,0.004563390,-0.003672460,0.999977710,-0.006444000,0.009103000,-0.007374000,-0.000164472,0.000174126,-0.000182265,-0.001432506,-0.007221880,-0.002521040,0.006601999,-0.000682829,0.999011864,0.004530454,-0.005610182,0.003295767,0.000000000,0.000000000,0.000000000,0.000000000,0.016911044,0.008062054,0.053663350,0.018170892,0.003135254,-0.001623354,0.004287527,0.000917759,-0.001336389,-0.090992635,0.145069994,-0.229671343,-0.000796595,-0.001264381,-0.002005260,0.999995887,0.000000000,0.000000000,0.000000000,0.000000000,0.000000000,0.000000000,-0.229034302,0.000000000,4.085630417
1772426731.850769520,0.016737000,0.008029000,0.053686000,-0.003066500,0.004530210,-0.003658030,0.999978350,-0.006166000,0.009038000,-0.007344000,0.000130828,0.000097727,-0.000520980,-0.003941559,0.005800855,-0.001025546,0.005583980,-0.000329408,0.999913489,-0.002719787,-0.002568393,-0.002556940,0.000000000,0.000000000,0.000000000,0.000000000,0.016911753,0.008064751,0.053666994,0.018160251,0.003157945,-0.001668532,0.003586167,0.000717358,0.000126889,-0.089391392,0.145677404,-0.228498363,-0.000782619,-0.001269718,-0.001995011,0.999995887,0.000000000,0.000000000,0.000000000,0.000000000,0.000000000,0.000000000,-0.228956943,0.000000000,4.085630417
1772426731.860769987,0.016724000,0.008044000,0.053674000,-0.003092190,0.004640690,-0.003651700,0.999977780,-0.006218000,0.009259000,-0.007332000,0.000241725,-0.000051690,-0.000444717,-0.008825621,0.009043471,-0.000354595,0.007345866,-0.002509693,1.000140305,-0.001466365,0.000984073,-0.001707696,0.000000000,0.000000000,0.000000000,0.000000000,0.016904440,0.008070071,0.053665489,0.017951484,0.003197508,-0.001609935,0.004457856,-0.000140744,-0.000368535,-0.088389248,0.146998025,-0.227749937,-0.000773888,-0.001281265,-0.001988477,0.999995887,0.000000000,0.000000000,0.000000000,0.000000000,0.000000000,0.000000000,-0.228476745,0.000000000,4.085630417
1772426731.870770216,0.016743000,0.008028000,0.053675000,-0.003129910,0.004605740,-0.003634380,0.999977890,-0.006293000,0.009189000,-0.007298000,0.000297203,-0.000217463,-0.000037413,-0.008918851,0.010091492,0.002840196,0.008736067,-0.000645927,0.998387643,0.007169605,0.000249822,0.001237979,0.000000000,0.000000000,0.000000000,0.000000000,0.016904345,0.008070253,0.053661915,0.017866124,0.003091109,-0.001554082,0.004766290,-0.000288725,-0.001118233,-0.087305073,0.153174637,-0.228293509,-0.000764541,-0.001335181,-0.001993247,0.999995865,0.000000000,0.000000000,0.000000000,0.000000000,0.000000000,0.000000000,-0.228327152,0.000000000,4.085630417
1772426731.880770206,0.016740000,0.008025000,0.053678000,-0.003289430,0.004696820,-0.003572240,0.999977180,-0.006613000,0.009370000,-0.007176000,-0.000028574,0.000010159,0.000293687,-0.005255831,0.006887736,0.004131494,0.008366481,-0.000912511,0.999144451,-0.002089079,0.004673045,0.000899125,0.000000000,0.000000000,0.000000000,0.000000000,0.016803037,0.008042686,0.053680147,0.015414375,0.002335672,-0.001272000,0.004942774,0.000406175,-0.000929412,-0.083005909,0.173097339,-0.228660445,-0.000727375,-0.001509111,-0.001996523,0.999995663,0.000000000,0.000000000,0.000000000,0.000000000,0.000000000,0.000000000,-0.228658146,0.000000000,4.085630417
1772426731.890770912,0.016751000,0.008030000,0.053676000,-0.003336660,0.004727430,-0.003652010,0.999976590,-0.006708000,0.009430000,-0.007336000,-0.000277273,0.000143551,0.000367327,0.000688259,0.003692124,0.004165859,0.009599018,-0.001643536,0.999131184,0.002157623,0.001627278,0.002254644,0.000000000,0.000000000,0.000000000,0.000000000,0.016923979,0.008059986,0.053663106,0.015722135,0.002289984,-0.001359930,0.006570505,-0.000672354,-0.000745895,-0.081564648,0.180099461,-0.228968410,-0.000714923,-0.001570239,-0.001999239,0.999995496,0.000000000,0.000000000,0.000000000,0.000000000,0.000000000,0.000000000,-0.228989164,0.000000000,4.085630417
1772426731.900771141,0.016733000,0.008031000,0.053691000,-0.003243690,0.004774910,-0.003620790,0.999976780,-0.006522000,0.009526000,-0.007273000,-0.000374146,0.000216745,0.000278050,0.009119382,-0.004958543,0.003923418,0.009567157,-0.000967080,0.998634852,0.001860477,0.003746213,-0.000905260,0.000000000,0.000000000,0.000000000,0.000000000,0.017009434,0.008067674,0.053654814,0.016354600,0.002211200,-0.001420229,0.007286887,0.000444324,-0.001508387,-0.081218296,0.177999703,-0.228498278,-0.000711858,-0.001551925,-0.001995118,0.999995556,0.000000000,0.000000000,0.000000000,0.000000000,0.000000000,0.000000000,-0.228330218,0.000000000,4.085630417
1772426731.910771608,0.016729000,0.008034000,0.053691000,-0.003117910,0.004720700,-0.003523300,0.999977790,-0.006269000,0.009419000,-0.007076000,-0.000255517,0.000188287,0.000038403,0.013252071,-0.003276052,0.002804789,0.008175354,-0.000767335,0.998660287,0.001199387,-0.000816422,0.002619646,0.000000000,0.000000000,0.000000000,0.000000000,0.017043398,0.008071107,0.053650996,0.016774533,0.002273649,-0.001538317,0.005678864,0.000779968,-0.001380718,-0.080044129,0.176864328,-0.227924084,-0.000701584,-0.001542041,-0.001990085,0.999995589,0.000000000,0.000000000,0.000000000,0.000000000,0.000000000,0.000000000,-0.228406986,0.000000000,4.085630417
1772426731.920772314,0.016721000,0.008045000,0.053686000,-0.003035790,0.004613940,-0.003528240,0.999978520,-0.006104000,0.009206000,-0.007085000,0.000022786,-0.000011577,-0.000050039,0.012453079,0.003056815,0.002077317,0.007977768,-0.002034098,0.999291629,-0.000378102,0.001531844,0.001207885,0.000000000,0.000000000,0.000000000,0.000000000,0.017053470,0.008074303,0.053656767,0.016933744,0.002263947,-0.001593538,0.003597064,-0.000978988,-0.001279539,-0.078898538,0.176321681,-0.227761935,-0.000691575,-0.001537326,-0.001988651,0.999995589,0.000000000,0.000000000,0.000000000,0.000000000,0.000000000,0.000000000,-0.228584900,0.000000000,4.085630417
1772426731.930773020,0.016731000,0.008035000,0.053681000,-0.003043590,0.004708130,-0.003555970,0.999977960,-0.006121000,0.009395000,-0.007141000,0.000067774,-0.000062374,-0.000077797,0.005905493,0.011348300,0.001520497,0.009168968,-0.001052434,0.999073518,0.001519857,0.000741069,0.000780993,0.000000000,0.000000000,0.000000000,0.000000000,0.017053894,0.008079428,0.053657587,0.016974716,0.002173862,-0.001597183,0.005946075,0.000378797,-0.000567337,-0.077826831,0.175810976,-0.227513073,-0.000682211,-0.001532889,-0.001986462,0.999995644,0.000000000,0.000000000,0.000000000,0.000000000,0.000000000,0.000000000,-0.227795046,0.000000000,4.085630417
1772426731.940772772,0.016742000,0.008029000,0.053681000,-0.003079390,0.004642360,-0.003571250,0.999978110,-0.006192000,0.009263000,-0.007171000,0.000280964,-0.000087160,-0.000275466,-0.002882816,0.014199130,-0.003717018,0.009034981,-0.000756489,0.998008925,0.001877277,-0.000491548,0.000176894,0.000000000,0.000000000,0.000000000,0.000000000,0.016997509,0.008073633,0.053660381,0.016709104,0.002132996,-0.001597808,0.006326110,0.000842825,-0.001743958,-0.078336664,0.175986494,-0.225900501,-0.000686641,-0.001534422,-0.001972398,0.999995649,0.000000000,0.000000000,0.000000000,0.000000000,0.000000000,0.000000000,-0.226768612,0.000000000,4.085630417
1772426731.950772762,0.016744000,0.008027000,0.053684000,-0.003042270,0.004994990,-0.003573640,0.999976510,-0.006120000,0.009968000,-0.007178000,0.000155983,-0.000091026,-0.000234674,-0.006317880,0.013857613,-0.005343202,0.009124782,-0.001200359,0.998141677,-0.000949605,0.003233343,-0.001488145,0.000000000,0.000000000,0.000000000,0.000000000,0.016998618,0.008069342,0.053658111,0.016769341,0.002144468,-0.001692687,0.006440721,0.000397739,-0.001424949,-0.078275836,0.175912383,-0.226025739,-0.000686111,-0.001533775,-0.001973490,0.999995649,0.000000000,0.000000000,0.000000000,0.000000000,0.000000000,0.000000000,-0.226011848,0.000000000,4.085630417
1772426731.960772753,0.016727000,0.008040000,0.053685000,-0.003074470,0.005018730,-0.003574230,0.999976290,-0.006185000,0.010015000,-0.007180000,0.000070202,0.000038617,-0.000315055,-0.006128129,0.008177030,-0.005536343,0.009581825,-0.001405636,1.000383666,0.000279708,-0.001602675,0.004109037,0.000000000,0.000000000,0.000000000,0.000000000,0.017043094,0.008069887,0.053653238,0.017216505,0.002134229,-0.001784798,0.006502197,-0.000303498,-0.000347090,-0.078766446,0.175782295,-0.226580694,-0.000690397,-0.001532628,-0.001978338,0.999995649,0.000000000,0.000000000,0.000000000,0.000000000,0.000000000,0.000000000,-0.226343491,0.000000000,4.085630417
1772426731.970772743,0.016731000,0.008037000,0.053678000,-0.003118590,0.004902000,-0.003619030,0.999976570,-0.006273000,0.009781000,-0.007269000,0.000055711,0.000142016,-0.000115987,-0.003714149,-0.001489419,-0.006800427,0.008173109,-0.002211719,0.999761125,0.001208728,-0.000106647,0.001756984,0.000000000,0.000000000,0.000000000,0.000000000,0.017071927,0.008077241,0.053650656,0.017511551,0.002074046,-0.001701169,0.004982767,-0.000564748,-0.000746461,-0.079028557,0.175118661,-0.226094300,-0.000692667,-0.001526836,-0.001974093,0.999995649,0.000000000,0.000000000,0.000000000,0.000000000,0.000000000,0.000000000,-0.225850160,0.000000000,4.085630417
1772426731.980772734,0.016744000,0.008031000,0.053666000,-0.003202590,0.004815950,-0.003709300,0.999976400,-0.006441000,0.009608000,-0.007450000,0.000137413,-0.000019736,0.000273466,-0.000302674,-0.015379882,-0.008229371,0.008082958,-0.001524358,1.000896873,-0.002806690,0.002043897,-0.001773477,0.000000000,0.000000000,0.000000000,0.000000000,0.017072389,0.008077690,0.053648196,0.017520055,0.001982093,-0.001701860,0.005531059,-0.001084547,0.001180229,-0.079343366,0.173845846,-0.225433821,-0.000695383,-0.001515727,-0.001968326,0.999995677,0.000000000,0.000000000,0.000000000,0.000000000,0.000000000,0.000000000,-0.225480021,0.000000000,4.085630417
1772426731.990772724,0.016740000,0.008034000,0.053677000,-0.003116670,0.004832730,-0.003681540,0.999976690,-0.006269000,0.009642000,-0.007393000,0.000328089,-0.000116220,0.000383256,-0.000241156,-0.027326096,-0.008717386,0.007909491,-0.001404654,1.000346242,-0.001688839,0.003144229,-0.001549717,0.000000000,0.000000000,0.000000000,0.000000000,0.017077592,0.008073239,0.053641982,0.017585388,0.001865540,-0.001518754,0.004424868,-0.000278593,0.000728610,-0.079988019,0.172934010,-0.225525844,-0.000700994,-0.001507758,-0.001969132,0.999995708,0.000000000,0.000000000,0.000000000,0.000000000,0.000000000,0.000000000,-0.225512559,0.000000000,4.085630417
1772426732.000773430,0.016743000,0.008036000,0.053681000,-0.003119060,0.004749840,-0.003746270,0.999976840,-0.006274000,0.009476000,-0.007522000,0.000164666,-0.000125991,0.000426690,0.002794896,-0.021001132,-0.004416876,0.009009361,-0.001098843,0.998163358,-0.000122449,0.000078797,0.000767042,0.000000000,0.000000000,0.000000000,0.000000000,0.017078858,0.008071947,0.053644977,0.017542896,0.001837993,-0.001454448,0.005741522,0.000176964,-0.000760161,-0.080166114,0.171629514,-0.225953973,-0.000702532,-0.001496368,-0.001972862,0.999995708,0.000000000,0.000000000,0.000000000,0.000000000,0.000000000,0.000000000,-0.226105609,0.000000000,4.085630417
1772426732.010772705,0.016745000,0.008030000,0.053702000,-0.003085320,0.004572150,-0.003761370,0.999977710,-0.006205000,0.009121000,-0.007551000,-0.000359635,0.000066978,0.000159013,0.004875308,-0.012991952,0.000943930,0.009975982,-0.000702333,0.999379494,0.000812612,-0.001285723,0.000463358,0.000000000,0.000000000,0.000000000,0.000000000,0.017081241,0.008072382,0.053649277,0.017726866,0.001859664,-0.001476887,0.006436840,0.000595111,-0.000838286,-0.079738218,0.170354404,-0.226264377,-0.000698780,-0.001485246,-0.001975558,0.999995708,0.000000000,0.000000000,0.000000000,0.000000000,0.000000000,0.000000000,-0.226081184,0.000000000,4.085630417
1772426732.020771503,0.016737000,0.008031000,0.053696000,-0.003076200,0.004327600,-0.003772580,0.999978790,-0.006185000,0.008632000,-0.007572000,-0.000637471,0.000153011,-0.000209363,0.004981689,-0.007115953,0.005310685,0.007340434,-0.002624239,0.999153746,0.002283275,-0.000559044,-0.001253335,0.000000000,0.000000000,0.000000000,0.000000000,0.017084858,0.008069990,0.053660781,0.017817157,0.001847077,-0.001412864,0.005271259,-0.000484648,-0.000642350,-0.078743894,0.170382627,-0.225224669,-0.000690090,-0.001485516,-0.001966472,0.999995708,0.000000000,0.000000000,0.000000000,0.000000000,0.000000000,0.000000000,-0.225179580,0.000000000,4.085630417
1772426732.030771494,0.016740000,0.008036000,0.053673000,-0.003155410,0.004452370,-0.003734600,0.999978140,-0.006344000,0.008881000,-0.007497000,-0.000371387,0.000068454,-0.000531333,-0.000824361,-0.007144297,0.006892157,0.008719805,-0.000986873,0.999676548,0.000804666,-0.001312421,0.000599012,0.000000000,0.000000000,0.000000000,0.000000000,0.017083813,0.008067945,0.053666093,0.017852322,0.001756313,-0.001389573,0.005315398,0.000070088,-0.000174196,-0.076499247,0.169725735,-0.224825060,-0.000670485,-0.001479825,-0.001962952,0.999995730,0.000000000,0.000000000,0.000000000,0.000000000,0.000000000,0.000000000,-0.224731806,0.000000000,4.085630417
1772426732.040772200,0.016722000,0.008035000,0.053679000,-0.003022200,0.004613490,-0.003615340,0.999978260,-0.006078000,0.009205000,-0.007259000,0.000049184,-0.000024670,-0.000328827,-0.003044240,-0.006125086,0.006864240,0.006734262,-0.000499108,0.999810826,0.000205383,0.002713811,-0.000824910,0.000000000,0.000000000,0.000000000,0.000000000,0.017082257,0.008069952,0.053655927,0.017807610,0.001819471,-0.001336779,0.002936147,0.000633182,0.000148837,-0.075778817,0.169351896,-0.224269867,-0.000664185,-0.001476578,-0.001958095,0.999995768,0.000000000,0.000000000,0.000000000,0.000000000,0.000000000,0.000000000,-0.224194819,0.000000000,4.085630417
1772426732.050772429,0.016720000,0.008038000,0.053671000,-0.003044740,0.004528540,-0.003629260,0.999978520,-0.006123000,0.009035000,-0.007286000,0.000299884,-0.000156644,0.000248058,-0.004291797,-0.011261439,0.004491151,0.007160012,-0.001046090,0.998911284,-0.001158165,-0.001776205,-0.001381568,0.000000000,0.000000000,0.000000000,0.000000000,0.017071451,0.008071363,0.053653626,0.017578794,0.001848922,-0.001335908,0.004885061,-0.000071548,-0.002298148,-0.075371262,0.168850023,-0.222446685,-0.000660596,-0.001472216,-0.001942177,0.999995812,0.000000000,0.000000000,0.000000000,0.000000000,0.000000000,0.000000000,-0.223454528,0.000000000,4.085630417
1772426732.060772419,0.016733000,0.008035000,0.053682000,-0.003119340,0.004355370,-0.003615070,0.999979120,-0.006270000,0.008688000,-0.007257000,0.000309577,-0.000182401,0.000614200,-0.003184104,-0.008556053,0.001875617,0.005068975,-0.002430235,0.997171636,0.000405374,-0.001076153,0.002749095,0.000000000,0.000000000,0.000000000,0.000000000,0.017066917,0.008072065,0.053650956,0.017415420,0.001790794,-0.001460747,0.002977503,-0.000587462,-0.001423059,-0.074788008,0.168247121,-0.222627119,-0.000655498,-0.001466963,-0.001943741,0.999995828,0.000000000,0.000000000,0.000000000,0.000000000,0.000000000,0.000000000,-0.222665803,0.000000000,4.085630417
1772426732.070771694,0.016754000,0.008026000,0.053687000,-0.003243290,0.004175150,-0.003643710,0.999979390,-0.006517000,0.008327000,-0.007315000,0.000128108,-0.000115171,0.000416570,-0.002216589,-0.006069130,-0.000882589,0.006541223,-0.002474997,0.997223073,0.001323645,0.003324458,0.001524961,0.000000000,0.000000000,0.000000000,0.000000000,0.017073632,0.008067132,0.053653262,0.017144122,0.001605816,-0.001684878,0.003043574,-0.001325610,-0.002820462,-0.074939238,0.169891683,-0.222596682,-0.000656846,-0.001481312,-0.001943487,0.999995828,0.000000000,0.000000000,0.000000000,0.000000000,0.000000000,0.000000000,-0.222341913,0.000000000,4.085630417
1772426732.080771685,0.016747000,0.008027000,0.053700000,-0.003135470,0.004291790,-0.003656500,0.999979190,-0.006302000,0.008561000,-0.007340000,-0.000091239,0.000085490,-0.000174398,-0.003022788,0.008957250,-0.002662501,0.007099485,-0.002676857,0.998357726,-0.001668629,-0.000424099,-0.004459073,0.000000000,0.000000000,0.000000000,0.000000000,0.017076241,0.008060586,0.053659990,0.016978715,0.001385909,-0.001836662,0.004082649,-0.000477987,-0.001769958,-0.074900580,0.168457761,-0.221808035,-0.000656474,-0.001468804,-0.001936595,0.999995828,0.000000000,0.000000000,0.000000000,0.000000000,0.000000000,0.000000000,-0.221990857,0.000000000,4.085630417
1772426732.090771437,0.016725000,0.008031000,0.053700000,-0.003115650,0.004324340,-0.003608620,0.999979290,-0.006263000,0.008626000,-0.007244000,-0.000481586,0.000247669,-0.000414666,-0.000782801,0.016918730,-0.000228944,0.007826176,-0.002766577,0.998331793,0.001745280,0.000613686,-0.001529968,0.000000000,0.000000000,0.000000000,0.000000000,0.017061830,0.008059272,0.053659160,0.016828742,0.001234949,-0.001978409,0.005246180,-0.001933897,-0.002166214,-0.074997421,0.167419715,-0.221868332,-0.000657302,-0.001459743,-0.001937117,0.999995828,0.000000000,0.000000000,0.000000000,0.000000000,0.000000000,0.000000000,-0.221611988,0.000000000,4.085630417
1772426732.100771666,0.016724000,0.008040000,0.053670000,-0.003127090,0.004687700,-0.003628010,0.999977540,-0.006288000,0.009353000,-0.007286000,-0.000464336,0.000306430,-0.000516939,-0.001206078,0.014899364,0.001874365,0.007779992,-0.000379210,0.998809823,0.000534494,-0.000497593,-0.001690828,0.000000000,0.000000000,0.000000000,0.000000000,0.017055676,0.008061102,0.053644559,0.016838783,0.001153340,-0.002096086,0.005206012,0.000937315,-0.000058781,-0.075173910,0.166614286,-0.222427610,-0.000658836,-0.001452708,-0.001941995,0.999995869,0.000000000,0.000000000,0.000000000,0.000000000,0.000000000,0.000000000,-0.221724582,0.000000000,4.085630417
1772426732.110771656,0.016728000,0.008036000,0.053670000,-0.003175360,0.004542550,-0.003643960,0.999978000,-0.006384000,0.009062000,-0.007317000,0.000065190,0.000040618,-0.000300913,-0.004439024,0.010610908,0.004309777,0.007742471,0.000213687,0.998185631,-0.002428422,-0.001118766,-0.000517740,0.000000000,0.000000000,0.000000000,0.000000000,0.017054643,0.008061347,0.053637076,0.016829916,0.001292872,-0.002121319,0.004624598,0.001663576,-0.002979246,-0.074815480,0.165532825,-0.222065727,-0.000655685,-0.001443279,-0.001938827,0.999995887,0.000000000,0.000000000,0.000000000,0.000000000,0.000000000,0.000000000,-0.221910847,0.000000000,4.085630417
1772426732.120771408,0.016729000,0.008040000,0.053672000,-0.003224170,0.004662740,-0.003639250,0.999977310,-0.006482000,0.009302000,-0.007309000,0.000414375,-0.000175272,0.000275913,-0.002903003,0.007832576,0.005427770,0.008799355,-0.000277193,0.998985458,-0.000642884,-0.001554056,0.000867703,0.000000000,0.000000000,0.000000000,0.000000000,0.017054290,0.008064026,0.053634403,0.016842497,0.001427901,-0.002260420,0.005353737,0.000386078,-0.000821575,-0.075239750,0.165828828,-0.221800202,-0.000659389,-0.001445857,-0.001936516,0.999995887,0.000000000,0.000000000,0.000000000,0.000000000,0.000000000,0.000000000,-0.221562697,0.000000000,4.085630417
1772426732.130771160,0.016733000,0.008036000,0.053687000,-0.003214510,0.004461140,-0.003541440,0.999978610,-0.006461000,0.008899000,-0.007112000,0.000431352,-0.000219231,0.000621737,0.001935997,0.014250052,0.006342489,0.008537156,-0.001241820,0.999807935,0.002095017,-0.001234174,0.000026010,0.000000000,0.000000000,0.000000000,0.000000000,0.017057663,0.008064324,0.053640859,0.016943272,0.001472294,-0.002165024,0.005618351,0.000397065,-0.000044681,-0.075965385,0.166616286,-0.221621789,-0.000665732,-0.001452717,-0.001934973,0.999995853,0.000000000,0.000000000,0.000000000,0.000000000,0.000000000,0.000000000,-0.220965108,0.000000000,4.085630417
1772426732.140772343,0.016744000,0.008029000,0.053690000,-0.003190300,0.004647370,-0.003520590,0.999977910,-0.006414000,0.009272000,-0.007071000,0.000266434,-0.000140404,0.000424864,0.003885740,0.015188743,0.004911037,0.007436694,-0.002325229,0.998900482,-0.000547990,-0.002837045,-0.001565173,0.000000000,0.000000000,0.000000000,0.000000000,0.017065326,0.008060625,0.053645771,0.017016117,0.001427878,-0.002081064,0.003930284,-0.001172615,-0.000809079,-0.075171132,0.167514376,-0.219257177,-0.000658786,-0.001460582,-0.001914333,0.999995862,0.000000000,0.000000000,0.000000000,0.000000000,0.000000000,0.000000000,-0.220289321,0.000000000,4.085630417
1772426732.150772333,0.016746000,0.008024000,0.053691000,-0.003172790,0.004879900,-0.003518560,0.999976870,-0.006380000,0.009737000,-0.007068000,0.000015229,0.000040987,-0.000033586,0.006237689,0.020714337,0.001464031,0.006136629,-0.002465361,0.997978551,0.000507984,-0.004356376,0.001851842,0.000000000,0.000000000,0.000000000,0.000000000,0.017068878,0.008056739,0.053648083,0.016939070,0.001301278,-0.002095492,0.003456651,-0.000872089,-0.001305070,-0.074404045,0.167041020,-0.218549027,-0.000652075,-0.001456468,-0.001908141,0.999995915,0.000000000,0.000000000,0.000000000,0.000000000,0.000000000,0.000000000,-0.219613614,0.000000000,4.085630417
1772426732.160772085,0.016727000,0.008038000,0.053700000,-0.003033160,0.004968370,-0.003518470,0.999976870,-0.006101000,0.009915000,-0.007067000,-0.000295940,0.000094911,-0.000240870,0.004644124,0.012026807,-0.002128138,0.006461407,0.000140515,1.000434175,0.001610633,-0.002361770,0.003617873,0.000000000,0.000000000,0.000000000,0.000000000,0.017062084,0.008059287,0.053653881,0.016772689,0.001289561,-0.002081576,0.003771360,0.000509328,-0.000094616,-0.074312363,0.166726788,-0.218184190,-0.000651265,-0.001453729,-0.001904954,0.999995927,0.000000000,0.000000000,0.000000000,0.000000000,0.000000000,0.000000000,-0.218937923,0.000000000,4.085630417
