t,px,py,pz,qx,qy,qz,qw,roll,pitch,yaw,vx,vy,vz,wx_vicon,wy_vicon,wz_vicon,imu_acc_x,imu_acc_y,imu_acc_z,imu_gyro_x,imu_gyro_y,imu_gyro_z,motor_motor_m1,motor_motor_m2,motor_motor_m3,motor_motor_m4,est_stateEstimate_x,est_stateEstimate_y,est_stateEstimate_z,est_stateEstimate_vx,est_stateEstimate_vy,est_stateEstimate_vz,est_stateEstimate_ax,est_stateEstimate_ay,est_stateEstimate_az,att_stateEstimate_roll,att_stateEstimate_pitch,att_stateEstimate_yaw,att_stateEstimate_qx,att_stateEstimate_qy,att_stateEstimate_qz,att_stateEstimate_qw,sp_ctrltarget_x,sp_ctrltarget_y,sp_ctrltarget_z,sp_ctrltarget_yaw,pid_controller_roll,pid_controller_pitch,pid_controller_yaw,pid_controller_cmd_thrust,pwr_pm_vbat
1772660710.064548731,0.014779000,0.007928000,0.055495000,-0.002470690,0.005381010,0.015453660,0.999863050,-0.004775000,0.010837000,0.030883000,-0.002230655,0.001791688,-0.001222204,0.015337128,-0.100443046,0.004052717,0.010325392,-0.000749412,0.999664065,0.003486948,0.000558534,-0.000046976,0.000000000,0.000000000,0.000000000,0.000000000,0.014954166,0.007906388,0.055481021,0.014641057,0.001163242,0.000616382,0.006442907,0.001145209,0.000089564,-0.165549024,0.231967724,1.314632047,-0.001421365,-0.002040739,0.011469107,0.999930151,0.000000000,0.000000000,0.000000000,0.000000000,0.000000000,0.000000000,1.314706655,0.000000000,4.085630417
1772660710.074549198,0.014811000,0.007889000,0.055479000,-0.002498190,0.005498050,0.015312720,0.999864520,-0.004828000,0.011071000,0.030600000,-0.000473077,0.000320241,-0.000485257,0.004657875,-0.061138593,0.004656554,0.010422164,-0.001167819,0.999599916,0.002306127,0.000758169,0.000955123,0.000000000,0.000000000,0.000000000,0.000000000,0.014957773,0.007904722,0.055481755,0.014697433,0.001190854,0.000615013,0.006902775,0.000443339,-0.000196303,-0.165231920,0.232122367,1.314357743,-0.001418587,-0.002042053,0.011466717,0.999930183,0.000000000,0.000000000,0.000000000,0.000000000,0.000000000,0.000000000,1.314432735,0.000000000,4.085630417
1772660710.084549904,0.014776000,0.007933000,0.055482000,-0.002436050,0.005043190,0.015482300,0.999864460,-0.004716000,0.010161000,0.030942000,0.000255128,-0.000276146,-0.000017890,-0.000154171,-0.035936818,0.008358241,0.010518938,-0.001586235,0.999535765,0.001125278,0.000957808,0.001957246,0.000000000,0.000000000,0.000000000,0.000000000,0.014961380,0.007903056,0.055482489,0.014753811,0.001218468,0.000613643,0.006663465,0.000089387,-0.000264995,-0.164914810,0.232277013,1.314083432,-0.001415810,-0.002043368,0.011464327,0.999930215,0.000000000,0.000000000,0.000000000,0.000000000,0.000000000,0.000000000,1.314158807,0.000000000,4.085630417
1772660710.094549894,0.014765000,0.007938000,0.055485000,-0.002416680,0.004583810,0.015534260,0.999865910,-0.004691000,0.009242000,0.031049000,0.000264452,-0.000261811,0.000225350,-0.000590800,-0.021414998,0.013580419,0.010615705,-0.002004622,0.999471619,-0.000055486,0.001157434,0.002959298,0.000000000,0.000000000,0.000000000,0.000000000,0.014964987,0.007901390,0.055483223,0.014810185,0.001246079,0.000612273,0.006424173,-0.000264540,-0.000333683,-0.164597722,0.232431648,1.313809141,-0.001413032,-0.002044682,0.011461937,0.999930246,0.000000000,0.000000000,0.000000000,0.000000000,0.000000000,0.000000000,1.313884900,0.000000000,4.085630417
1772660710.104549885,0.014759000,0.007937000,0.055490000,-0.002358040,0.004265160,0.015731870,0.999864370,-0.004581000,0.008603000,0.031446000,-0.000134616,0.000098912,0.000289919,0.001815360,-0.014152273,0.018750152,0.010712473,-0.002423009,0.999407472,-0.001236251,0.001357059,0.003961349,0.000000000,0.000000000,0.000000000,0.000000000,0.014968593,0.007899724,0.055483956,0.014866558,0.001273691,0.000610903,0.006184880,-0.000618467,-0.000402370,-0.164280634,0.232586283,1.313534850,-0.001410255,-0.002045996,0.011459547,0.999930278,0.000000000,0.000000000,0.000000000,0.000000000,0.000000000,0.000000000,1.313610992,0.000000000,4.085630417
1772660710.114550352,0.014811000,0.007894000,0.055487000,-0.002422000,0.004794080,0.015577350,0.999864240,-0.004694000,0.009662000,0.031134000,-0.000631586,0.000541687,0.000221271,0.005530903,-0.010729440,0.022297198,0.010809245,-0.002841416,0.999343323,-0.002417072,0.001556694,0.004963448,0.000000000,0.000000000,0.000000000,0.000000000,0.014972200,0.007898058,0.055484690,0.014922935,0.001301303,0.000609533,0.005945576,-0.000972410,-0.000471061,-0.163992606,0.232763481,1.313280868,-0.001407728,-0.002047511,0.011457333,0.999930310,0.000000000,0.000000000,0.000000000,0.000000000,0.000000000,0.000000000,1.313337071,0.000000000,4.085630417
1772660710.124550343,0.014771000,0.007928000,0.055490000,-0.002429600,0.004827110,0.015787700,0.999860760,-0.004706000,0.009730000,0.031554000,0.000164919,-0.000163986,-0.000087316,0.006958849,0.007387301,0.015240294,0.009261169,-0.003996946,1.000154140,-0.000366418,0.000759747,-0.000920888,0.000000000,0.000000000,0.000000000,0.000000000,0.014960993,0.007909326,0.055489474,0.015059859,0.001347621,0.000585866,0.005841298,-0.001400558,-0.000250178,-0.164210398,0.233333054,1.313380420,-0.001409570,-0.002052504,0.011458191,0.999930278,0.000000000,0.000000000,0.000000000,0.000000000,0.000000000,0.000000000,1.312719817,0.000000000,4.085630417
1772660710.134550333,0.014771000,0.007936000,0.055484000,-0.002333900,0.004813100,0.015913720,0.999859060,-0.004514000,0.009699000,0.031807000,0.000288190,-0.000156313,-0.000184091,0.008106197,0.011440519,0.012425437,0.010259339,-0.004567187,0.999879728,-0.003500598,0.003989554,0.001836879,0.000000000,0.000000000,0.000000000,0.000000000,0.014952612,0.007914711,0.055490664,0.015234387,0.001282975,0.000544242,0.006400151,-0.001524375,0.000333537,-0.163817413,0.233797963,1.311952348,-0.001406120,-0.002056504,0.011445730,0.999930342,0.000000000,0.000000000,0.000000000,0.000000000,0.000000000,0.000000000,1.312002912,0.000000000,4.085630417
1772660710.144550323,0.014755000,0.007941000,0.055487000,-0.002251850,0.004481140,0.015976660,0.999859790,-0.004360000,0.009033000,0.031935000,-0.000126068,0.000176807,-0.000026204,0.007290851,0.002088442,0.012084922,0.010439111,-0.001628252,0.998616462,-0.002104121,0.001286016,0.000446125,0.000000000,0.000000000,0.000000000,0.000000000,0.014947274,0.007919715,0.055488014,0.015411987,0.001144467,0.000511934,0.006940937,0.000487368,-0.000783599,-0.164697355,0.232536037,1.311361464,-0.001413935,-0.002045573,0.011440574,0.999930425,0.000000000,0.000000000,0.000000000,0.000000000,0.000000000,0.000000000,1.311286006,0.000000000,4.085630417
1772660710.154550791,0.014763000,0.007939000,0.055490000,-0.002192300,0.004362220,0.016040650,0.999859420,-0.004244000,0.008794000,0.032064000,0.000352370,-0.000328225,-0.000019386,0.005371322,0.006130587,0.004642793,0.009408570,-0.001666138,0.998934903,-0.001225568,0.003356060,0.000046203,0.000000000,0.000000000,0.000000000,0.000000000,0.014932881,0.007935215,0.055488078,0.015609565,0.001196418,0.000411750,0.004382594,0.001015911,0.000174229,-0.163836389,0.232355491,1.310141433,-0.001406462,-0.002043896,0.011429947,0.999930589,0.000000000,0.000000000,0.000000000,0.000000000,0.000000000,0.000000000,1.310569066,0.000000000,4.085630417
1772660710.164551020,0.014825000,0.007886000,0.055475000,-0.002274080,0.005118530,0.015822220,0.999859130,-0.004386000,0.010308000,0.031624000,0.001054236,-0.000762977,-0.000128807,-0.000365120,0.021644739,-0.008911346,0.008240879,-0.002245171,0.999599399,-0.000764858,0.006019907,-0.000004699,0.000000000,0.000000000,0.000000000,0.000000000,0.014923677,0.007942228,0.055489928,0.015634252,0.001276020,0.000391013,0.004034118,0.000936249,0.000656910,-0.164341914,0.231399385,1.309561976,-0.001410979,-0.002035596,0.011424893,0.999930620,0.000000000,0.000000000,0.000000000,0.000000000,0.000000000,0.000000000,1.309852143,0.000000000,4.085630417
1772660710.174551010,0.014781000,0.007921000,0.055488000,-0.002269880,0.004913480,0.015983150,0.999857610,-0.004382000,0.009898000,0.031946000,0.000450214,-0.000269095,-0.000141609,-0.003241509,0.024018950,-0.013035931,0.006788973,-0.002959390,1.002137550,-0.003202801,0.003011492,0.000234576,0.000000000,0.000000000,0.000000000,0.000000000,0.014939289,0.007928198,0.055491064,0.015669555,0.001282099,0.000392548,0.002596813,0.000676266,0.001460930,-0.163688818,0.229752579,1.308241083,-0.001405467,-0.002021145,0.011413400,0.999930803,0.000000000,0.000000000,0.000000000,0.000000000,0.000000000,0.000000000,1.308566214,0.000000000,4.085630417
1772660710.184550762,0.014763000,0.007941000,0.055492000,-0.002267710,0.004819120,0.015985360,0.999858040,-0.004381000,0.009710000,0.031951000,-0.000624010,0.000514356,0.000002642,-0.000965474,0.003447584,-0.008269345,0.007721857,-0.003198246,1.003018177,-0.004167142,0.001914587,-0.001301991,0.000000000,0.000000000,0.000000000,0.000000000,0.014933487,0.007932821,0.055492611,0.015512432,0.001399795,0.000465888,0.003829470,-0.000567669,0.001906555,-0.164232128,0.228920077,1.307543018,-0.001410303,-0.002013926,0.011407310,0.999930918,0.000000000,0.000000000,0.000000000,0.000000000,0.000000000,0.000000000,1.307494484,0.000000000,4.085630417
1772660710.194550753,0.014820000,0.007892000,0.055474000,-0.002285180,0.005190680,0.015651880,0.999861420,-0.004407000,0.010452000,0.031283000,-0.000628147,0.000478536,0.000050563,-0.002069661,-0.005295581,-0.008626594,0.010787618,-0.002658195,0.999948344,-0.002035998,0.000550913,-0.002040245,0.000000000,0.000000000,0.000000000,0.000000000,0.014925051,0.007942681,0.055491829,0.015293149,0.001372932,0.000824895,0.007477407,-0.000363140,-0.000714128,-0.165017655,0.228563206,1.306668978,-0.001417209,-0.002010879,0.011399674,0.999930951,0.000000000,0.000000000,0.000000000,0.000000000,0.000000000,0.000000000,1.307043209,0.000000000,4.085630417
1772660710.204550743,0.014779000,0.007935000,0.055479000,-0.002305560,0.004902660,0.015724330,0.999861690,-0.004457000,0.009877000,0.031428000,-0.000545436,0.000456527,0.000098116,-0.002081337,-0.017952703,-0.005486759,0.010071781,-0.001973454,0.998070854,-0.000046055,0.000196428,-0.000847691,0.000000000,0.000000000,0.000000000,0.000000000,0.014915525,0.007948400,0.055493436,0.015431306,0.001390085,0.000936330,0.005827631,0.001087201,-0.002414363,-0.165069846,0.228466630,1.305545569,-0.001417693,-0.002010028,0.011389871,0.999931054,0.000000000,0.000000000,0.000000000,0.000000000,0.000000000,0.000000000,1.305842833,0.000000000,4.085630417
1772660710.214550734,0.014756000,0.007936000,0.055487000,-0.002252560,0.004793660,0.015777310,0.999861500,-0.004353000,0.009657000,0.031535000,0.000253846,-0.000211034,0.000000719,-0.004803866,-0.000450647,-0.007653361,0.008723488,-0.001484531,0.998576698,0.001718760,0.001636174,-0.000752613,0.000000000,0.000000000,0.000000000,0.000000000,0.014915133,0.007950254,0.055495646,0.015649652,0.001396549,0.000777468,0.004835520,0.001244992,-0.001595189,-0.164867461,0.227644446,1.304328936,-0.001416030,-0.002002819,0.011379270,0.999931169,0.000000000,0.000000000,0.000000000,0.000000000,0.000000000,0.000000000,1.304727994,0.000000000,4.085630417
1772660710.224551439,0.014756000,0.007939000,0.055493000,-0.002278060,0.004595640,0.015837310,0.999861430,-0.004410000,0.009262000,0.031656000,0.000857402,-0.000678381,-0.000128749,-0.005351711,0.020102052,-0.012036224,0.009188875,-0.002460401,1.000686962,0.001872309,-0.005019444,0.001599747,0.000000000,0.000000000,0.000000000,0.000000000,0.014940600,0.007930412,0.055490034,0.015798696,0.001425755,0.000542525,0.005140981,0.000796610,-0.000015817,-0.164368280,0.226464475,1.303212577,-0.001411811,-0.001992459,0.011369552,0.999931372,0.000000000,0.000000000,0.000000000,0.000000000,0.000000000,0.000000000,1.303262373,0.000000000,4.085630417
1772660710.234551907,0.014828000,0.007894000,0.055477000,-0.002443350,0.005309130,0.015528860,0.999862340,-0.004721000,0.010693000,0.031034000,0.001080168,-0.000836403,-0.000253982,-0.004013388,0.035090381,-0.019987073,0.010517391,-0.002399617,1.000608820,0.000008871,-0.004710867,0.000587493,0.000000000,0.000000000,0.000000000,0.000000000,0.014944009,0.007927836,0.055489641,0.015844708,0.001457816,0.000495656,0.005965039,0.000727582,0.000852114,-0.163632964,0.227672828,1.303017599,-0.001405278,-0.002002928,0.011367847,0.999931395,0.000000000,0.000000000,0.000000000,0.000000000,0.000000000,0.000000000,1.303078414,0.000000000,4.085630417
1772660710.244551897,0.014778000,0.007928000,0.055483000,-0.002338960,0.004822150,0.015637290,0.999863370,-0.004527000,0.009716000,0.031254000,0.001105945,-0.000922087,-0.000350369,0.000195720,0.035937508,-0.025345526,0.009739222,-0.002127172,1.000332705,0.000158470,0.002738649,-0.000323413,0.000000000,0.000000000,0.000000000,0.000000000,0.014936603,0.007935344,0.055491952,0.015909340,0.001507444,0.000528815,0.006295994,0.001179191,0.000339321,-0.163288665,0.229306566,1.302707875,-0.001402117,-0.002017146,0.011365130,0.999931395,0.000000000,0.000000000,0.000000000,0.000000000,0.000000000,0.000000000,1.302800536,0.000000000,4.085630417
1772660710.254551888,0.014819000,0.007894000,0.055476000,-0.002392030,0.005550980,0.015395610,0.999863210,-0.004613000,0.011174000,0.030767000,-0.000029817,0.000116861,-0.000035392,0.002815053,0.007975335,-0.012948700,0.009554084,-0.004134928,1.000400625,-0.001225512,0.003818396,0.002322873,0.000000000,0.000000000,0.000000000,0.000000000,0.014937738,0.007937100,0.055491479,0.016060404,0.001546024,0.000555506,0.005296108,-0.000866012,0.000454885,-0.162204328,0.227343394,1.302089970,-0.001392861,-0.001999900,0.011359781,0.999931451,0.000000000,0.000000000,0.000000000,0.000000000,0.000000000,0.000000000,1.302276720,0.000000000,4.085630417
1772660710.264551640,0.014836000,0.007880000,0.055466000,-0.002343550,0.005690970,0.015188900,0.999865700,-0.004514000,0.011452000,0.030354000,-0.001095339,0.000817697,0.000406100,0.005932259,-0.024236161,0.006240436,0.008962755,-0.004762772,1.000272599,-0.002184507,0.004208664,-0.000804071,0.000000000,0.000000000,0.000000000,0.000000000,0.014951584,0.007927834,0.055486256,0.016193023,0.001494922,0.000538553,0.003782199,-0.002115933,-0.000137850,-0.162540247,0.224800348,1.302134502,-0.001396044,-0.001977743,0.011360196,0.999931535,0.000000000,0.000000000,0.000000000,0.000000000,0.000000000,0.000000000,1.302094658,0.000000000,4.085630417
1772660710.274551868,0.014773000,0.007928000,0.055485000,-0.002286760,0.005065550,0.015391500,0.999866100,-0.004417000,0.010200000,0.030762000,-0.001430887,0.001165250,0.000647747,0.008657039,-0.056157748,0.024385500,0.008870839,-0.004784322,1.000121912,-0.001093227,0.001905435,0.000968761,0.000000000,0.000000000,0.000000000,0.000000000,0.014945578,0.007936274,0.055485338,0.016205063,0.001387433,0.000543865,0.005253037,-0.001634412,0.000103573,-0.163137702,0.223599128,1.301577247,-0.001401386,-0.001967313,0.011355338,0.999931582,0.000000000,0.000000000,0.000000000,0.000000000,0.000000000,0.000000000,1.301757460,0.000000000,4.085630417
1772660710.284552097,0.014760000,0.007941000,0.055495000,-0.002230400,0.004586890,0.015663530,0.999864310,-0.004317000,0.009243000,0.031309000,-0.000835957,0.000838288,0.000499107,0.004100173,-0.064646750,0.031669305,0.009223387,-0.004643753,0.999976298,0.000462736,-0.000948604,0.003912169,0.000000000,0.000000000,0.000000000,0.000000000,0.014932383,0.007941694,0.055488037,0.016155899,0.001229921,0.000544543,0.005812447,-0.001075230,-0.000200328,-0.163549399,0.222763520,1.301382424,-0.001405064,-0.001960060,0.011353641,0.999931629,0.000000000,0.000000000,0.000000000,0.000000000,0.000000000,0.000000000,1.301156425,0.000000000,4.085630417
1772660710.294552088,0.014767000,0.007943000,0.055500000,-0.002289430,0.004360320,0.015871140,0.999861920,-0.004440000,0.008792000,0.031724000,-0.001338968,0.001027662,0.000544192,0.000251069,-0.079328879,0.037872939,0.010048038,-0.003586622,0.999718967,0.000670395,-0.000103971,-0.001973672,0.000000000,0.000000000,0.000000000,0.000000000,0.014923890,0.007945394,0.055491836,0.016164277,0.001081969,0.000542550,0.005127874,-0.000460018,-0.000204794,-0.163466278,0.222156884,1.302007602,-0.001404389,-0.001954766,0.011359107,0.999931586,0.000000000,0.000000000,0.000000000,0.000000000,0.000000000,0.000000000,1.302058990,0.000000000,4.085630417
1772660710.304552317,0.014767000,0.007935000,0.055498000,-0.002223950,0.004226050,0.015949210,0.999861400,-0.004313000,0.008522000,0.031882000,-0.000063986,-0.000219037,0.000013151,-0.004053169,-0.043592004,0.021133133,0.007808279,-0.001861706,1.001131361,-0.001891447,0.000231325,-0.000529522,0.000000000,0.000000000,0.000000000,0.000000000,0.014941963,0.007933025,0.055489693,0.016320313,0.000934738,0.000489549,0.004452935,0.000452704,0.000507778,-0.162959956,0.221971552,1.300943163,-0.001400007,-0.001953086,0.011349830,0.999931667,0.000000000,0.000000000,0.000000000,0.000000000,0.000000000,0.000000000,1.300966897,0.000000000,4.085630417
1772660710.314553261,0.014771000,0.007934000,0.055492000,-0.002184250,0.003945700,0.015996580,0.999861880,-0.004242000,0.007960000,0.031978000,0.000857188,-0.001035471,-0.000370338,-0.004188496,-0.001122573,0.001772998,0.009961567,-0.002535890,0.998230132,0.000113952,-0.005388872,0.002503929,0.000000000,0.000000000,0.000000000,0.000000000,0.014949389,0.007928434,0.055487588,0.016330398,0.000941855,0.000508190,0.005120743,0.001050420,-0.000730748,-0.164168899,0.221805263,1.299298488,-0.001410601,-0.001951734,0.011335458,0.999931828,0.000000000,0.000000000,0.000000000,0.000000000,0.000000000,0.000000000,1.299633258,0.000000000,4.085630417
1772660710.324553490,0.014764000,0.007933000,0.055492000,-0.002363960,0.003918170,0.016015190,0.999861280,-0.004602000,0.007911000,0.032014000,0.000625137,-0.000670028,-0.000443182,-0.003475202,0.023850543,-0.008502501,0.008414408,-0.001440558,0.996491152,-0.001872234,-0.001822364,0.002706082,0.000000000,0.000000000,0.000000000,0.000000000,0.014955868,0.007922619,0.055485571,0.016376113,0.000979006,0.000437736,0.004885386,0.000765467,-0.002627188,-0.164714293,0.223005934,1.298034853,-0.001415263,-0.001962250,0.011324408,0.999931915,0.000000000,0.000000000,0.000000000,0.000000000,0.000000000,0.000000000,1.298361883,0.000000000,4.085630417
1772660710.334553719,0.014751000,0.007933000,0.055497000,-0.002352580,0.003958880,0.015985320,0.999861620,-0.004578000,0.007992000,0.031954000,0.000429565,-0.000229992,-0.000409033,-0.004828136,0.039971975,-0.011220177,0.008377830,-0.002365443,0.998694076,-0.002092266,0.004481979,-0.000449761,0.000000000,0.000000000,0.000000000,0.000000000,0.014972630,0.007909151,0.055479303,0.016472322,0.001009081,0.000158074,0.005017511,0.001343664,-0.001273987,-0.165427511,0.222980005,1.296844650,-0.001421509,-0.001962079,0.011314010,0.999932015,0.000000000,0.000000000,0.000000000,0.000000000,0.000000000,0.000000000,1.297121917,0.000000000,4.085630417
1772660710.344553709,0.014817000,0.007888000,0.055471000,-0.002301980,0.004682160,0.015712300,0.999862940,-0.004456000,0.009436000,0.031405000,0.000206022,0.000085975,-0.000381857,-0.005195057,0.043905414,-0.009962424,0.009397774,-0.001797155,0.999278594,-0.001136959,-0.000247404,-0.003078636,0.000000000,0.000000000,0.000000000,0.000000000,0.014967855,0.007912756,0.055478010,0.016442459,0.001102585,-0.000050981,0.005934459,0.000763440,-0.001364706,-0.165789604,0.222203160,1.296141110,-0.001424758,-0.001955327,0.011307876,0.999932127,0.000000000,0.000000000,0.000000000,0.000000000,0.000000000,0.000000000,1.295450967,0.000000000,4.085630417
1772660710.354554415,0.014783000,0.007926000,0.055487000,-0.002307770,0.004810720,0.015852190,0.999860110,-0.004463000,0.009693000,0.031685000,-0.000145668,0.000358547,-0.000144250,-0.000326320,0.035241045,-0.006284676,0.009776423,-0.002836044,1.000062393,-0.003009788,-0.002491725,0.000715404,0.000000000,0.000000000,0.000000000,0.000000000,0.014946449,0.007930216,0.055483941,0.016401432,0.001243924,-0.000124988,0.006088385,0.000953127,-0.000675065,-0.166317552,0.222670281,1.292736502,-0.001429377,-0.001959413,0.011278151,0.999932378,0.000000000,0.000000000,0.000000000,0.000000000,0.000000000,0.000000000,1.293680076,0.000000000,4.085630417
1772660710.364554405,0.014770000,0.007943000,0.055478000,-0.002377920,0.004735050,0.015829690,0.999860660,-0.004605000,0.009544000,0.031639000,-0.000370202,0.000440424,0.000055730,0.002004591,0.014978092,0.002194939,0.010406665,-0.002361482,1.000073969,0.002511498,-0.000760144,0.000980771,0.000000000,0.000000000,0.000000000,0.000000000,0.014934109,0.007944039,0.055491248,0.016456082,0.001334893,-0.000131347,0.006023198,0.000295419,-0.000176648,-0.168302266,0.222706496,1.290966700,-0.001446722,-0.001959902,0.011262675,0.999932615,0.000000000,0.000000000,0.000000000,0.000000000,0.000000000,0.000000000,1.291909310,0.000000000,4.085630417
1772660710.374554634,0.014768000,0.007935000,0.055481000,-0.002427010,0.004747620,0.015845510,0.999860230,-0.004703000,0.009571000,0.031670000,-0.000549593,0.000341026,0.000270902,-0.000030580,-0.006818255,0.008212841,0.010400249,-0.003863292,0.999302381,0.002341484,-0.002285198,-0.001761317,0.000000000,0.000000000,0.000000000,0.000000000,0.014930973,0.007947583,0.055494514,0.016552893,0.001365376,-0.000112802,0.006699213,0.000394959,-0.000267877,-0.167998591,0.222891382,1.289623568,-0.001444077,-0.001961469,0.011250956,0.999932697,0.000000000,0.000000000,0.000000000,0.000000000,0.000000000,0.000000000,1.290138503,0.000000000,4.085630417
1772660710.384555101,0.014765000,0.007929000,0.055482000,-0.002311390,0.004653000,0.015854530,0.999860810,-0.004475000,0.009378000,0.031690000,-0.000654216,0.000090657,0.000507265,0.002694095,-0.018834990,0.011514859,0.010312639,-0.003407982,0.998557188,-0.000858798,-0.000182861,-0.001186533,0.000000000,0.000000000,0.000000000,0.000000000,0.015238637,0.007971096,0.055489645,0.017677673,0.001445817,-0.000045590,0.006262166,-0.000019006,-0.001082178,-0.167217728,0.224381183,1.288253760,-0.001437140,-0.001974375,0.011238998,0.999932742,0.000000000,0.000000000,0.000000000,0.000000000,0.000000000,0.000000000,1.291823029,0.000000000,4.085630417
1772660710.394555092,0.014766000,0.007934000,0.055497000,-0.002275940,0.004653320,0.015929300,0.999859700,-0.004403000,0.009378000,0.031840000,-0.000131430,-0.000222222,0.000326651,0.002492866,-0.023612714,0.009515313,0.008863047,-0.002344853,0.999268546,-0.000046257,0.001731524,0.000979932,0.000000000,0.000000000,0.000000000,0.000000000,0.015007906,0.007933830,0.055481669,0.015801522,0.001188714,0.000041633,0.005539570,0.000328858,-0.000921672,-0.167204486,0.227802426,1.295859769,-0.001436555,-0.002004323,0.011305323,0.999932348,0.000000000,0.000000000,0.000000000,0.000000000,0.000000000,0.000000000,1.293648156,0.000000000,4.085630417
1772660710.404556036,0.014771000,0.007924000,0.055490000,-0.002341780,0.004575680,0.016025750,0.999858370,-0.004536000,0.009225000,0.032032000,0.000296135,-0.000179313,0.000062393,0.001105477,-0.015049130,0.002247406,0.008914244,-0.001056122,0.998646863,-0.000577650,0.002156733,0.002110095,0.000000000,0.000000000,0.000000000,0.000000000,0.015010916,0.007951317,0.055481489,0.016322541,0.001320006,-0.000040759,0.004163975,0.002457266,-0.000477815,-0.166997541,0.227309501,1.298475301,-0.001434753,-0.002000034,0.011328156,0.999931778,0.000000000,0.000000000,0.000000000,0.000000000,0.000000000,0.000000000,1.295473457,0.000000000,4.085630417
1772660710.414556265,0.014766000,0.007929000,0.055493000,-0.002312550,0.004422270,0.015955030,0.999860260,-0.004484000,0.008917000,0.031892000,0.000263656,0.000084324,-0.000221912,-0.001963572,-0.008901746,-0.006036612,0.009758709,0.000254696,0.998804680,-0.000956799,-0.002075694,-0.000141792,0.000000000,0.000000000,0.000000000,0.000000000,0.015063311,0.007956213,0.055483903,0.016598638,0.001544382,-0.000131360,0.005433182,0.003261410,-0.001554410,-0.166648984,0.226947815,1.298025964,-0.001431755,-0.001996838,0.011324245,0.999931842,0.000000000,0.000000000,0.000000000,0.000000000,0.000000000,0.000000000,1.297298627,0.000000000,4.085630417
1772660710.424556494,0.014758000,0.007934000,0.055496000,-0.002286290,0.004421860,0.015989160,0.999859770,-0.004431000,0.008916000,0.031960000,0.000846038,-0.000489356,-0.000470300,-0.001960209,0.015451763,-0.019656639,0.008128567,-0.002992957,1.000938099,-0.001324105,0.000488579,-0.001886143,0.000000000,0.000000000,0.000000000,0.000000000,0.015077892,0.007959636,0.055487662,0.016757587,0.001787356,-0.000224177,0.004799904,0.000963298,0.001115579,-0.167175505,0.227846393,1.297563490,-0.001436269,-0.002004725,0.011320191,0.999931872,0.000000000,0.000000000,0.000000000,0.000000000,0.000000000,0.000000000,1.297325004,0.000000000,4.085630417
1772660710.434556723,0.014775000,0.007935000,0.055481000,-0.002397370,0.004264550,0.015859920,0.999862260,-0.004659000,0.008604000,0.031702000,0.000590774,-0.000523680,-0.000343240,0.002082975,0.030090612,-0.021984383,0.008652534,-0.002943801,1.000559377,0.001942129,0.000411938,-0.002110353,0.000000000,0.000000000,0.000000000,0.000000000,0.015092381,0.007961221,0.055487428,0.016813913,0.001870037,-0.000162204,0.003666359,0.000058764,0.000623259,-0.167354856,0.227505265,1.296318644,-0.001437890,-0.002001751,0.011309329,0.999931908,0.000000000,0.000000000,0.000000000,0.000000000,0.000000000,0.000000000,1.296296596,0.000000000,4.085630417
1772660710.444557667,0.014813000,0.007904000,0.055469000,-0.002315300,0.004990150,0.015535320,0.999864190,-0.004475000,0.010051000,0.031050000,0.000903866,-0.000756819,-0.000110956,0.003384574,0.045359570,-0.021570920,0.008646267,-0.002420318,1.000329599,-0.002575318,0.000103045,-0.000394460,0.000000000,0.000000000,0.000000000,0.000000000,0.015100305,0.007965259,0.055489716,0.016762350,0.001823026,-0.000056948,0.005024461,0.000785739,0.000472168,-0.167479155,0.227005167,1.294978674,-0.001439047,-0.001997382,0.011297640,0.999932053,0.000000000,0.000000000,0.000000000,0.000000000,0.000000000,0.000000000,1.295268116,0.000000000,4.085630417
1772660710.454557180,0.014775000,0.007922000,0.055487000,-0.002304290,0.004877620,0.015644990,0.999863060,-0.004456000,0.009826000,0.031270000,0.000491492,-0.000384111,0.000006371,0.003955556,0.039622863,-0.012044868,0.008741969,-0.002385950,1.000087120,-0.000349548,0.004162304,-0.000173665,0.000000000,0.000000000,0.000000000,0.000000000,0.015093061,0.007967572,0.055490397,0.016728194,0.001848497,-0.000017494,0.004506113,0.000589620,0.000546652,-0.167495847,0.226938009,1.294798732,-0.001439202,-0.001996796,0.011296070,0.999932217,0.000000000,0.000000000,0.000000000,0.000000000,0.000000000,0.000000000,1.294099791,0.000000000,4.085630417
1772660710.464557409,0.014819000,0.007883000,0.055478000,-0.002254880,0.005424270,0.015430040,0.999863690,-0.004342000,0.010917000,0.030838000,0.000357071,-0.000335704,0.000035470,0.005242735,0.030184260,-0.007429394,0.008535848,-0.002657619,1.000470419,-0.003280094,0.004129515,0.001511393,0.000000000,0.000000000,0.000000000,0.000000000,0.015098560,0.007966475,0.055484461,0.016711244,0.001855958,-0.000004975,0.004389873,0.000798317,0.000645492,-0.168651969,0.225668070,1.293615590,-0.001449436,-0.001985813,0.011285743,0.999932307,0.000000000,0.000000000,0.000000000,0.000000000,0.000000000,0.000000000,1.293258666,0.000000000,4.085630417
1772660710.474557877,0.014771000,0.007925000,0.055493000,-0.002264380,0.005121510,0.015697810,0.999861100,-0.004368000,0.010313000,0.031375000,-0.000518843,0.000169056,0.000210723,0.004522605,0.006796502,0.005448609,0.008192742,-0.002897454,1.000776205,-0.005948269,0.002915333,0.002515296,0.000000000,0.000000000,0.000000000,0.000000000,0.015116326,0.007953916,0.055477251,0.016752239,0.001828900,-0.000002531,0.004517348,0.000592592,0.000690394,-0.169297665,0.224958807,1.292954803,-0.001455152,-0.001979679,0.011279975,0.999932356,0.000000000,0.000000000,0.000000000,0.000000000,0.000000000,0.000000000,1.292636969,0.000000000,4.085630417
1772660710.484558105,0.014823000,0.007896000,0.055479000,-0.002290440,0.005361120,0.015496630,0.999862920,-0.004414000,0.010792000,0.030971000,-0.000122553,0.000003846,-0.000104507,0.000604267,-0.005085937,0.006139243,0.007955810,-0.002948297,1.000538502,-0.003175429,0.003182990,0.001275939,0.000000000,0.000000000,0.000000000,0.000000000,0.015113661,0.007954462,0.055478865,0.016735335,0.001818438,0.000026448,0.004688992,0.000311760,0.000725519,-0.169297665,0.224958807,1.292954803,-0.001455152,-0.001979679,0.011279975,0.999932389,0.000000000,0.000000000,0.000000000,0.000000000,0.000000000,0.000000000,1.291612990,0.000000000,4.085630417
1772660710.494558096,0.014773000,0.007931000,0.055481000,-0.002216360,0.005057090,0.015666080,0.999862030,-0.004274000,0.010182000,0.031312000,0.000262432,-0.000106799,-0.000202389,-0.002054696,0.000717308,0.002617352,0.007718884,-0.002999138,1.000300804,-0.000402655,0.003450641,0.000036611,0.000000000,0.000000000,0.000000000,0.000000000,0.015110996,0.007955009,0.055480479,0.016718431,0.001807975,0.000055426,0.004860632,0.000030935,0.000760643,-0.169297665,0.224958807,1.292954803,-0.001455152,-0.001979679,0.011279975,0.999932423,0.000000000,0.000000000,0.000000000,0.000000000,0.000000000,0.000000000,1.290589035,0.000000000,4.085630417
1772660710.504558802,0.014808000,0.007887000,0.055476000,-0.002253390,0.005326490,0.015536270,0.999862580,-0.004341000,0.010722000,0.031051000,-0.000681974,0.000513579,0.000105653,-0.004483405,-0.015354012,0.010848112,0.007481941,-0.003049983,1.000063088,0.002370317,0.003718311,-0.001202805,0.000000000,0.000000000,0.000000000,0.000000000,0.015108331,0.007955556,0.055482093,0.016701526,0.001797512,0.000084407,0.004617747,-0.000280342,0.000582434,-0.169297665,0.224958807,1.292954803,-0.001455152,-0.001979679,0.011279975,0.999932456,0.000000000,0.000000000,0.000000000,0.000000000,0.000000000,0.000000000,1.289565006,0.000000000,4.085630417
1772660710.514559031,0.014763000,0.007923000,0.055490000,-0.002284600,0.004981910,0.015800310,0.999860150,-0.004411000,0.010035000,0.031580000,-0.000073835,0.000043648,0.000077758,-0.007502531,-0.006473834,0.006951153,0.008811878,-0.003965777,0.999152621,-0.001044061,0.000873760,-0.000829312,0.000000000,0.000000000,0.000000000,0.000000000,0.015121164,0.007939552,0.055481402,0.016617052,0.001664044,0.000066457,0.005021985,-0.000349889,-0.001072015,-0.170191273,0.223584347,1.291000209,-0.001463119,-0.001967748,0.011262921,0.999932524,0.000000000,0.000000000,0.000000000,0.000000000,0.000000000,0.000000000,1.288541027,0.000000000,4.085630417
1772660710.524559259,0.014827000,0.007891000,0.055472000,-0.002334870,0.005369710,0.015569370,0.999861650,-0.004502000,0.010811000,0.031116000,-0.000502623,0.000581255,0.000224476,-0.009049510,-0.015024583,0.009199854,0.010489284,-0.002788845,0.998788193,-0.002655725,-0.002028694,-0.000965792,0.000000000,0.000000000,0.000000000,0.000000000,0.015111612,0.007944452,0.055486516,0.016723910,0.001564277,-0.000056879,0.006784291,-0.000211259,-0.001281197,-0.170902418,0.222350636,1.289105467,-0.001469478,-0.001957028,0.011246392,0.999932703,0.000000000,0.000000000,0.000000000,0.000000000,0.000000000,0.000000000,1.287517047,0.000000000,4.085630417
1772660710.534559488,0.014772000,0.007936000,0.055492000,-0.002393180,0.005028260,0.015788140,0.999859850,-0.004627000,0.010131000,0.031555000,0.000317269,-0.000028438,-0.000040404,-0.004884709,-0.000781967,-0.000610570,0.010088216,-0.002192135,0.999146148,-0.001470044,0.001291334,-0.000826714,0.000000000,0.000000000,0.000000000,0.000000000,0.015123211,0.007940824,0.055480865,0.016978513,0.001530487,-0.000222285,0.005807127,0.001343449,-0.001056485,-0.170431663,0.222663830,1.287108378,-0.001465374,-0.001959690,0.011228970,0.999932924,0.000000000,0.000000000,0.000000000,0.000000000,0.000000000,0.000000000,1.286493068,0.000000000,4.085630417
1772660710.544559002,0.014751000,0.007938000,0.055490000,-0.002365510,0.004713520,0.015908360,0.999859550,-0.004581000,0.009501000,0.031797000,-0.000184266,0.000176030,-0.000078982,0.003496409,-0.001774905,-0.001696662,0.009026219,-0.002489363,0.999873651,-0.000892117,-0.001315054,0.005628339,0.000000000,0.000000000,0.000000000,0.000000000,0.015119489,0.007942240,0.055477182,0.017062748,0.001608926,-0.000303292,0.005953734,0.001238483,-0.000303327,-0.170968631,0.223334287,1.285230112,-0.001470026,-0.001965569,0.011212562,0.999933075,0.000000000,0.000000000,0.000000000,0.000000000,0.000000000,0.000000000,1.285469162,0.000000000,4.085630417
1772660710.554558754,0.014824000,0.007891000,0.055476000,-0.002423740,0.005277020,0.015592680,0.999861560,-0.004683000,0.010628000,0.031162000,0.000525408,-0.000693144,-0.000288423,0.010954455,0.012083738,-0.007363477,0.010193311,-0.002086531,0.999272007,-0.000652847,-0.001512257,-0.002808901,0.000000000,0.000000000,0.000000000,0.000000000,0.015120000,0.007937337,0.055476341,0.017150704,0.001638000,-0.000331918,0.005559607,0.000473291,-0.000828853,-0.170994997,0.223356500,1.285166025,-0.001470255,-0.001965764,0.011212002,0.999933163,0.000000000,0.000000000,0.000000000,0.000000000,0.000000000,0.000000000,1.284317048,0.000000000,4.085630417
1772660710.564559698,0.014773000,0.007929000,0.055482000,-0.002289160,0.004986750,0.015693660,0.999861790,-0.004421000,0.010044000,0.031367000,0.000340735,-0.000513112,-0.000108508,0.011438760,0.018170509,-0.005486337,0.009923514,-0.004265488,0.998155369,0.001439717,-0.001522034,0.001524619,0.000000000,0.000000000,0.000000000,0.000000000,0.015127251,0.007936891,0.055474215,0.017312289,0.001648395,-0.000411462,0.006543269,-0.000244455,-0.000730168,-0.171884283,0.222853197,1.283428686,-0.001478094,-0.001961437,0.011196833,0.999933333,0.000000000,0.000000000,0.000000000,0.000000000,0.000000000,0.000000000,1.283110882,0.000000000,4.085630417
1772660710.574559689,0.014812000,0.007885000,0.055474000,-0.002173970,0.005461800,0.015576190,0.999861400,-0.004177000,0.010990000,0.031131000,0.000345824,-0.000437432,-0.000142949,0.008744109,0.022307321,-0.006675087,0.010117191,-0.003582711,1.001095604,-0.001549999,0.000036169,-0.004591860,0.000000000,0.000000000,0.000000000,0.000000000,0.015125814,0.007945750,0.055476136,0.017416965,0.001586492,-0.000469777,0.006048859,-0.000445946,0.000281595,-0.172687397,0.222489224,1.281635993,-0.001485168,-0.001958316,0.011181181,0.999933462,0.000000000,0.000000000,0.000000000,0.000000000,0.000000000,0.000000000,1.281904832,0.000000000,4.085630417
1772660710.584560394,0.014772000,0.007923000,0.055484000,-0.002157600,0.005076450,0.015724100,0.999861150,-0.004155000,0.010220000,0.031429000,-0.001149749,0.000907324,0.000438151,0.001683593,-0.014572222,0.006127615,0.010628265,-0.003166442,1.000367160,-0.002007974,0.000849750,-0.000969337,0.000000000,0.000000000,0.000000000,0.000000000,0.015109336,0.007957102,0.055479240,0.017474725,0.001553081,-0.000415933,0.006063510,0.000125666,0.000388085,-0.172613114,0.223148838,1.280255556,-0.001484479,-0.001964047,0.011169127,0.999933578,0.000000000,0.000000000,0.000000000,0.000000000,0.000000000,0.000000000,1.280698695,0.000000000,4.085630417
1772660710.594560623,0.014817000,0.007888000,0.055475000,-0.002181500,0.005414240,0.015614860,0.999861040,-0.004194000,0.010895000,0.031209000,-0.001268688,0.000813793,0.000363637,-0.003257787,-0.032685798,0.008769903,0.006624681,-0.002144528,1.000457625,-0.000177427,0.002013591,-0.000725172,0.000000000,0.000000000,0.000000000,0.000000000,0.015126828,0.007944596,0.055475767,0.017601984,0.001477816,-0.000358402,0.003893462,0.000512755,0.000827160,-0.172419641,0.222852374,1.279874955,-0.001482826,-0.001961436,0.011165813,0.999933762,0.000000000,0.000000000,0.000000000,0.000000000,0.000000000,0.000000000,1.279492615,0.000000000,4.085630417
1772660710.604560614,0.014762000,0.007934000,0.055494000,-0.002315380,0.005176850,0.015700880,0.999860650,-0.004468000,0.010425000,0.031380000,-0.000225700,0.000228710,0.000143978,-0.006359324,-0.027412272,0.001019653,0.008306770,-0.001915190,1.000483524,0.001023073,0.002287290,0.001675204,0.000000000,0.000000000,0.000000000,0.000000000,0.015126055,0.007946355,0.055475240,0.017443762,0.001518050,-0.000278054,0.004093072,0.001064661,0.000617239,-0.171597913,0.221593216,1.278258443,-0.001475806,-0.001950348,0.011151738,0.999933831,0.000000000,0.000000000,0.000000000,0.000000000,0.000000000,0.000000000,1.278286565,0.000000000,4.085630417
1772660710.614560843,0.014744000,0.007937000,0.055488000,-0.002249580,0.004695070,0.015775820,0.999862000,-0.004351000,0.009460000,0.031533000,-0.000264472,0.000294756,-0.000033994,-0.003577056,-0.025712832,-0.000731792,0.008383319,-0.002810382,1.000337048,-0.000207677,0.000786885,-0.001552564,0.000000000,0.000000000,0.000000000,0.000000000,0.015132857,0.007935274,0.055473274,0.017393664,0.001547954,-0.000229741,0.005427869,0.000573654,0.000195912,-0.171723378,0.221518751,1.277969121,-0.001476913,-0.001949706,0.011149213,0.999933951,0.000000000,0.000000000,0.000000000,0.000000000,0.000000000,0.000000000,1.276522087,0.000000000,4.085630417
1772660710.624561071,0.014747000,0.007949000,0.055500000,-0.002286480,0.004259250,0.015837470,0.999862890,-0.004438000,0.008590000,0.031658000,0.000270999,-0.000093804,-0.000127933,0.001831910,-0.009510526,-0.000079607,0.008491774,-0.003768113,1.000185399,-0.001644766,-0.000867459,-0.003773288,0.000000000,0.000000000,0.000000000,0.000000000,0.015124208,0.007940108,0.055475767,0.017392330,0.001536534,-0.000175919,0.005040427,-0.000835684,0.000208380,-0.173434772,0.220787288,1.274314406,-0.001491980,-0.001943442,0.011117303,0.999934174,0.000000000,0.000000000,0.000000000,0.000000000,0.000000000,0.000000000,1.274743666,0.000000000,4.085630417
1772660710.634561539,0.014810000,0.007884000,0.055469000,-0.002225040,0.005069610,0.015566060,0.999863510,-0.004292000,0.010207000,0.031112000,0.000004759,0.000134751,0.000030536,0.003429413,-0.008449656,0.005743183,0.008960138,-0.004862491,1.000068228,-0.003794048,-0.003180879,-0.000312428,0.000000000,0.000000000,0.000000000,0.000000000,0.015133693,0.007932032,0.055474897,0.017394558,0.001393290,-0.000143794,0.005290797,-0.001362366,0.000579755,-0.174718849,0.220960141,1.272650163,-0.001503196,-0.001945054,0.011102755,0.999934299,0.000000000,0.000000000,0.000000000,0.000000000,0.000000000,0.000000000,1.272944402,0.000000000,4.085630417
1772660710.644561529,0.014785000,0.007925000,0.055486000,-0.002216870,0.004840450,0.015689140,0.999862740,-0.004281000,0.009749000,0.031359000,0.000234888,0.000054992,0.000069056,0.002391994,-0.003764095,0.009204981,0.011031276,-0.003099465,1.000601156,0.000146117,-0.002477800,-0.001418557,0.000000000,0.000000000,0.000000000,0.000000000,0.015125279,0.007938217,0.055479989,0.017388945,0.001278559,-0.000072157,0.005998567,-0.000506372,0.000544862,-0.175835282,0.220622256,1.271765590,-0.001512986,-0.001942202,0.011095022,0.999934414,0.000000000,0.000000000,0.000000000,0.000000000,0.000000000,0.000000000,1.271831698,0.000000000,4.085630417
1772660710.654561520,0.014757000,0.007938000,0.055486000,-0.002218550,0.004718420,0.015823450,0.999861210,-0.004287000,0.009506000,0.031628000,-0.000392930,0.000597184,0.000384014,0.000019836,-0.012787049,0.015509104,0.007871816,-0.002156141,0.999391385,-0.000185305,-0.004499412,-0.003186955,0.000000000,0.000000000,0.000000000,0.000000000,0.015103563,0.007950489,0.055485337,0.017412450,0.001253469,-0.000007246,0.005588055,0.001021933,-0.000018793,-0.175979815,0.220730622,1.271061164,-0.001514249,-0.001943152,0.011088871,0.999934487,0.000000000,0.000000000,0.000000000,0.000000000,0.000000000,0.000000000,1.269439546,0.000000000,4.085630417
1772660710.664561510,0.014761000,0.007942000,0.055499000,-0.002210080,0.004567370,0.015983290,0.999859380,-0.004274000,0.009204000,0.031949000,-0.000667522,0.000664822,0.000303050,-0.001300844,-0.024598815,0.016266759,0.010572565,-0.001048486,1.000641458,0.000618860,-0.002857867,-0.001315437,0.000000000,0.000000000,0.000000000,0.000000000,0.015092242,0.007960742,0.055491036,0.017367592,0.001373354,0.000021664,0.005818255,0.001648204,0.000371765,-0.176827177,0.221365944,1.266931295,-0.001521652,-0.001948723,0.011052810,0.999934796,0.000000000,0.000000000,0.000000000,0.000000000,0.000000000,0.000000000,1.266962303,0.000000000,4.085630417
1772660710.674561501,0.014752000,0.007941000,0.055498000,-0.002271770,0.004347910,0.015979070,0.999860290,-0.004404000,0.008767000,0.031941000,-0.000478322,0.000489220,0.000187665,-0.004417503,-0.024165024,0.009886052,0.009857105,-0.002182193,0.999270948,0.002530440,0.000153119,-0.001891071,0.000000000,0.000000000,0.000000000,0.000000000,0.015108576,0.007947247,0.055485680,0.017489012,0.001432540,0.000024910,0.005796120,0.001133841,0.000184561,-0.176858468,0.221317277,1.266685164,-0.001521934,-0.001948298,0.011050662,0.999934945,0.000000000,0.000000000,0.000000000,0.000000000,0.000000000,0.000000000,1.265818925,0.000000000,4.085630417
1772660710.684561491,0.014765000,0.007944000,0.055493000,-0.002246610,0.004282440,0.016022520,0.999859940,-0.004356000,0.008636000,0.032028000,0.000117871,-0.000331605,-0.000216647,-0.003566413,0.002344969,-0.000740167,0.008169737,-0.001249475,1.000112985,-0.000333573,0.001486691,0.000108393,0.000000000,0.000000000,0.000000000,0.000000000,0.015121015,0.007941336,0.055482412,0.017573515,0.001499184,-0.000000189,0.004489169,0.001653624,-0.000275011,-0.177162759,0.220844009,1.264291585,-0.001524675,-0.001944166,0.011029778,0.999935078,0.000000000,0.000000000,0.000000000,0.000000000,0.000000000,0.000000000,1.264496125,0.000000000,4.085630417
1772660710.694560766,0.014765000,0.007937000,0.055495000,-0.002233050,0.004410140,0.015999550,0.999859780,-0.004325000,0.008891000,0.031982000,-0.000262083,0.000055303,-0.000071678,-0.004175304,0.003690667,0.001443807,0.007657927,-0.001710702,1.002210121,-0.000371588,0.000043973,0.004290569,0.000000000,0.000000000,0.000000000,0.000000000,0.015116755,0.007950548,0.055484327,0.017511217,0.001639707,0.000010983,0.004374816,0.001876539,0.001295857,-0.177199230,0.220787287,1.264004707,-0.001525004,-0.001943671,0.011027275,0.999935209,0.000000000,0.000000000,0.000000000,0.000000000,0.000000000,0.000000000,1.263172462,0.000000000,4.085630417
1772660710.704560757,0.014761000,0.007935000,0.055484000,-0.002325470,0.004553250,0.015898080,0.999860550,-0.004506000,0.009179000,0.031777000,0.000040870,-0.000362665,-0.000219250,-0.003629692,0.014888972,-0.002942255,0.007996045,-0.002186930,1.003616061,-0.000410136,0.000582304,-0.000191051,0.000000000,0.000000000,0.000000000,0.000000000,0.015104998,0.007962269,0.055489015,0.017345884,0.001790135,0.000209635,0.003770970,0.000663583,0.003470635,-0.177967210,0.219528314,1.264053056,-0.001531825,-0.001932759,0.011027701,0.999935206,0.000000000,0.000000000,0.000000000,0.000000000,0.000000000,0.000000000,1.263632752,0.000000000,4.085630417
1772660710.714561462,0.014754000,0.007938000,0.055490000,-0.002332880,0.004621540,0.015915780,0.999859930,-0.004518000,0.009316000,0.031812000,0.000545863,-0.000623213,-0.000168765,-0.002695235,0.022825298,-0.007526016,0.007430162,-0.001247297,1.001460711,0.000652731,-0.001812668,-0.001261220,0.000000000,0.000000000,0.000000000,0.000000000,0.015097175,0.007970006,0.055498085,0.017179328,0.001878726,0.000543252,0.003794825,0.002379132,0.001486769,-0.178043753,0.219402835,1.264057875,-0.001532505,-0.001931672,0.011027743,0.999935215,0.000000000,0.000000000,0.000000000,0.000000000,0.000000000,0.000000000,1.263306540,0.000000000,4.085630417
1772660710.724561930,0.014749000,0.007936000,0.055494000,-0.002302950,0.004590020,0.016030210,0.999858320,-0.004458000,0.009253000,0.032042000,0.000661267,-0.000604274,-0.000133644,-0.004166216,0.021505040,-0.013638548,0.008177397,-0.001538062,0.998470399,-0.002749884,-0.000433593,0.003131341,0.000000000,0.000000000,0.000000000,0.000000000,0.015092048,0.007975312,0.055503399,0.017014729,0.002031345,0.000688431,0.003670526,0.001683444,-0.000744431,-0.178229973,0.219398464,1.261205605,-0.001534179,-0.001931613,0.011002851,0.999935383,0.000000000,0.000000000,0.000000000,0.000000000,0.000000000,0.000000000,1.262239907,0.000000000,4.085630417
1772660710.734562397,0.014762000,0.007936000,0.055493000,-0.002357960,0.004493990,0.016004020,0.999859050,-0.004572000,0.009062000,0.031989000,0.000721543,-0.000270105,-0.000122514,-0.001607145,0.016284417,-0.014103782,0.010589019,-0.003238665,0.998504248,-0.001240310,0.001258630,0.001590816,0.000000000,0.000000000,0.000000000,0.000000000,0.015092227,0.007978119,0.055504725,0.016941703,0.002122984,0.000558434,0.006695247,-0.000109342,-0.001978714,-0.179032180,0.219645610,1.261136542,-0.001541156,-0.001933846,0.011002232,0.999935410,0.000000000,0.000000000,0.000000000,0.000000000,0.000000000,0.000000000,1.261173275,0.000000000,4.085630417
1772660710.744562387,0.014813000,0.007889000,0.055474000,-0.002335740,0.005075500,0.015595670,0.999862770,-0.004513000,0.010223000,0.031170000,-0.000014511,0.000210703,0.000070824,0.000780522,0.000357851,-0.006492696,0.009398999,-0.003872735,0.998912428,-0.000136395,0.000513158,-0.000386882,0.000000000,0.000000000,0.000000000,0.000000000,0.015091622,0.007977080,0.055501761,0.017030797,0.002065740,0.000379686,0.005593790,-0.000367825,-0.000304605,-0.178507631,0.219750989,1.260270603,-0.001536583,-0.001934704,0.010994682,0.999935463,0.000000000,0.000000000,0.000000000,0.000000000,0.000000000,0.000000000,1.260106693,0.000000000,4.085630417
1772660710.754561901,0.014781000,0.007927000,0.055487000,-0.002354660,0.004927970,0.015672030,0.999862270,-0.004554000,0.009929000,0.031323000,-0.000009771,0.000083003,0.000009965,0.003754646,-0.004151652,-0.005659661,0.010083239,-0.001986712,1.000617921,0.001087711,-0.002631419,0.001722307,0.000000000,0.000000000,0.000000000,0.000000000,0.015089235,0.007975968,0.055496950,0.017114272,0.001969735,0.000285168,0.005655881,0.000755707,0.000264129,-0.178754093,0.219492683,1.258985173,-0.001538781,-0.001932456,0.010983465,0.999935641,0.000000000,0.000000000,0.000000000,0.000000000,0.000000000,0.000000000,1.259040162,0.000000000,4.085630417
1772660710.764561892,0.014764000,0.007937000,0.055490000,-0.002371210,0.004766110,0.015712450,0.999862380,-0.004592000,0.009606000,0.031405000,-0.000011616,0.000148757,0.000000291,0.005375920,0.003304960,-0.002640067,0.009015979,-0.003767310,0.999648788,-0.000318946,0.002708414,-0.000859770,0.000000000,0.000000000,0.000000000,0.000000000,0.015348766,0.008006034,0.055502749,0.017712565,0.002153744,0.000359912,0.005835175,-0.000002609,0.000373939,-0.178738712,0.221073745,1.258727688,-0.001538498,-0.001946247,0.010981198,0.999935901,0.000000000,0.000000000,0.000000000,0.000000000,0.000000000,0.000000000,1.257973580,0.000000000,4.085630417
1772660710.774562359,0.014761000,0.007941000,0.055490000,-0.002259140,0.004653540,0.015847060,0.999861050,-0.004370000,0.009378000,0.031675000,-0.000207712,0.000095765,0.000093434,0.005847359,0.004968875,0.002881898,0.009276290,-0.001999705,1.001075699,-0.000316512,0.002482533,0.003694282,0.000000000,0.000000000,0.000000000,0.000000000,0.015397699,0.008008449,0.055503316,0.017107512,0.002199052,0.000441140,0.005035138,0.000398156,0.000756332,-0.176045494,0.237407376,1.266768750,-0.001513284,-0.002088624,0.011051189,0.999935311,0.000000000,0.000000000,0.000000000,0.000000000,0.000000000,0.000000000,1.262790686,0.000000000,4.085630417
1772660710.784562111,0.014751000,0.007933000,0.055495000,-0.002256490,0.004499290,0.015919080,0.999860610,-0.004369000,0.009069000,0.031820000,-0.000221076,-0.000058664,0.000210801,0.001506144,0.004998195,0.005488588,0.008216061,-0.000980417,0.999865519,-0.000726904,0.002193785,0.002374015,0.000000000,0.000000000,0.000000000,0.000000000,0.014976566,0.007956067,0.055492718,0.014817389,0.001933226,0.000430494,0.004430022,0.002713356,0.000817610,-0.175711483,0.239433065,1.267765999,-0.001510157,-0.002106282,0.011059869,0.999934543,0.000000000,0.000000000,0.000000000,0.000000000,0.000000000,0.000000000,1.267469163,0.000000000,4.085630417
1772660710.794562101,0.014814000,0.007897000,0.055481000,-0.002209530,0.005107000,0.015595330,0.999862900,-0.004259000,0.010282000,0.031171000,0.000014239,-0.000475622,0.000075311,-0.002328398,0.010302114,0.000680279,0.009637158,-0.000991788,0.998525885,-0.002110699,0.000041840,0.000604671,0.000000000,0.000000000,0.000000000,0.000000000,0.015013313,0.007966989,0.055495954,0.015090173,0.002121999,0.000472480,0.004900190,0.002460470,-0.001554514,-0.176230280,0.238364055,1.267189826,-0.001514798,-0.002096996,0.011054846,0.999934614,0.000000000,0.000000000,0.000000000,0.000000000,0.000000000,0.000000000,1.267039944,0.000000000,4.085630417
1772660710.804562092,0.014775000,0.007931000,0.055486000,-0.002316800,0.005182610,0.015725300,0.999860230,-0.004470000,0.010437000,0.031429000,-0.000367347,-0.000006469,0.000167114,-0.003865176,-0.005199358,0.003515162,0.010316733,-0.002311726,0.999085319,0.000989410,-0.003462353,0.000317410,0.000000000,0.000000000,0.000000000,0.000000000,0.015037287,0.007968054,0.055498076,0.015293205,0.002296703,0.000327155,0.005230825,0.000613417,-0.000731272,-0.177200790,0.238654943,1.266125259,-0.001523258,-0.002099614,0.011045535,0.999934633,0.000000000,0.000000000,0.000000000,0.000000000,0.000000000,0.000000000,1.266380745,0.000000000,4.085630417
1772660710.814561844,0.014750000,0.007926000,0.055499000,-0.002311770,0.004762230,0.015836530,0.999860580,-0.004472000,0.009597000,0.031653000,-0.000934072,0.000633722,0.000069056,-0.002255331,-0.025809167,0.011574455,0.010751928,-0.002678243,1.000342528,0.000950071,-0.002871466,0.001794783,0.000000000,0.000000000,0.000000000,0.000000000,0.015073769,0.007957444,0.055492058,0.015628850,0.002308877,0.000195095,0.006138730,0.000468762,0.000446940,-0.177480866,0.240387912,1.264810720,-0.001525559,-0.002114745,0.011034035,0.999934708,0.000000000,0.000000000,0.000000000,0.000000000,0.000000000,0.000000000,1.265181049,0.000000000,4.085630417
1772660710.824561834,0.014748000,0.007930000,0.055500000,-0.002363600,0.004644970,0.015927290,0.999859570,-0.004579000,0.009364000,0.031835000,-0.000498252,0.000255167,-0.000183839,0.002538108,-0.023063861,0.011674035,0.011383245,-0.002568598,1.000765720,-0.000826421,0.002396448,0.002352116,0.000000000,0.000000000,0.000000000,0.000000000,0.015076843,0.007966064,0.055490910,0.015800804,0.002318947,0.000204007,0.007428719,0.001231205,0.001356390,-0.177579191,0.241255201,1.263744315,-0.001526353,-0.002122308,0.011024716,0.999934805,0.000000000,0.000000000,0.000000000,0.000000000,0.000000000,0.000000000,1.263974969,0.000000000,4.085630417
1772660710.834562063,0.014752000,0.007931000,0.055488000,-0.002293530,0.004492000,0.015924590,0.999860470,-0.004444000,0.009056000,0.031831000,0.000058605,-0.000300933,-0.000368687,0.005686621,-0.008385101,0.006117771,0.009913235,-0.002719012,1.001225677,-0.000463299,0.003070386,0.000960630,0.000000000,0.000000000,0.000000000,0.000000000,0.015068110,0.007969025,0.055497542,0.016119425,0.002389108,0.000342341,0.006108452,0.000356039,0.000865670,-0.177407538,0.240699345,1.263206388,-0.001524919,-0.002117434,0.011020033,0.999934859,0.000000000,0.000000000,0.000000000,0.000000000,0.000000000,0.000000000,1.263128724,0.000000000,4.085630417
1772660710.844561100,0.014759000,0.007935000,0.055486000,-0.002196850,0.004409060,0.015957880,0.999860530,-0.004253000,0.008887000,0.031899000,0.000687102,-0.000510781,-0.000399010,0.006548714,0.009675100,-0.002711107,0.007904562,-0.001655779,1.002172309,-0.000264467,-0.005128026,0.000442304,0.000000000,0.000000000,0.000000000,0.000000000,0.015066718,0.007973097,0.055502466,0.016273606,0.002365114,0.000438186,0.003630547,0.001840625,0.002636230,-0.177128166,0.239949495,1.263125777,-0.001522554,-0.002110863,0.011019344,0.999934942,0.000000000,0.000000000,0.000000000,0.000000000,0.000000000,0.000000000,1.262438505,0.000000000,4.085630417
1772660710.854560852,0.014755000,0.007932000,0.055477000,-0.002202230,0.004646240,0.015997480,0.999858810,-0.004255000,0.009362000,0.031977000,0.000898971,-0.000697767,-0.000373194,0.000966930,0.030971753,-0.011299124,0.008656078,-0.001335425,1.000309316,0.001756722,-0.004393218,0.002255678,0.000000000,0.000000000,0.000000000,0.000000000,0.015080505,0.007978416,0.055500567,0.016189104,0.002514825,0.000672239,0.004873973,0.002027025,-0.000187339,-0.176990213,0.241320495,1.261824045,-0.001521243,-0.002122796,0.011007969,0.999935011,0.000000000,0.000000000,0.000000000,0.000000000,0.000000000,0.000000000,1.261748236,0.000000000,4.085630417
1772660710.864560604,0.014802000,0.007879000,0.055475000,-0.002243010,0.005252210,0.015681030,0.999860730,-0.004321000,0.010574000,0.031341000,0.000757479,-0.000708800,-0.000015288,-0.005460973,0.037953511,-0.014703670,0.009854713,-0.003071380,0.999497635,0.000087768,-0.001797537,0.000408132,0.000000000,0.000000000,0.000000000,0.000000000,0.015075122,0.007981335,0.055498344,0.016176899,0.002633615,0.000644990,0.005589677,0.000324889,-0.001249833,-0.176459929,0.242258929,1.261801332,-0.001516526,-0.002130934,0.011007768,0.999934992,0.000000000,0.000000000,0.000000000,0.000000000,0.000000000,0.000000000,1.261520957,0.000000000,4.085630417
1772660710.874560356,0.014767000,0.007918000,0.055484000,-0.002267780,0.004983470,0.015798600,0.999860200,-0.004378000,0.010037000,0.031577000,0.000451011,-0.000269833,0.000238151,-0.010440487,0.028037828,-0.014282902,0.009996711,-0.003140557,0.999217584,-0.002008357,0.000602821,0.000135710,0.000000000,0.000000000,0.000000000,0.000000000,0.015077515,0.007975040,0.055492466,0.016285816,0.002560372,0.000499299,0.005774165,0.001017473,-0.000255759,-0.175988435,0.242462115,1.261939614,-0.001512390,-0.002132663,0.011008981,0.999935052,0.000000000,0.000000000,0.000000000,0.000000000,0.000000000,0.000000000,1.261786428,0.000000000,4.085630417
1772660710.884560108,0.014762000,0.007928000,0.055491000,-0.002336190,0.004784780,0.015815530,0.999860750,-0.004521000,0.009642000,0.031611000,-0.000241628,0.000250369,0.000181197,-0.007899321,0.003828047,-0.010176572,0.009625643,-0.002732440,0.998628589,-0.001495942,0.001364446,0.000960377,0.000000000,0.000000000,0.000000000,0.000000000,0.015096202,0.007953379,0.055488814,0.016450852,0.002454043,0.000455005,0.005668406,0.000926783,-0.000488182,-0.175912580,0.242485641,1.261815877,-0.001511728,-0.002132860,0.011007902,0.999935096,0.000000000,0.000000000,0.000000000,0.000000000,0.000000000,0.000000000,1.261745121,0.000000000,4.085630417
1772660710.894560337,0.014807000,0.007883000,0.055475000,-0.002405780,0.005441320,0.015512400,0.999861980,-0.004642000,0.010956000,0.031001000,-0.000652642,0.000797650,0.000185723,-0.002237082,-0.023825189,-0.001988398,0.009563542,-0.002795037,0.998724617,-0.001080785,0.001093281,0.000433897,0.000000000,0.000000000,0.000000000,0.000000000,0.015095454,0.007954140,0.055488994,0.016453593,0.002451190,0.000433470,0.005562598,0.000835886,-0.000720895,-0.175939147,0.242523703,1.261675814,-0.001511959,-0.002133193,0.011006679,0.999935111,0.000000000,0.000000000,0.000000000,0.000000000,0.000000000,0.000000000,1.261381881,0.000000000,4.085630417
1772660710.904559612,0.014769000,0.007928000,0.055493000,-0.002398630,0.005095800,0.015700640,0.999860870,-0.004637000,0.010266000,0.031379000,-0.000948544,0.000910957,0.000105284,0.003639672,-0.034041905,0.007201705,0.009501447,-0.002857627,0.998820635,-0.000665667,0.000822143,-0.000092533,0.000000000,0.000000000,0.000000000,0.000000000,0.015094705,0.007954902,0.055489173,0.016456334,0.002448338,0.000411937,0.005456801,0.000744998,-0.000953586,-0.175965712,0.242561761,1.261535765,-0.001512189,-0.002133525,0.011005456,0.999935126,0.000000000,0.000000000,0.000000000,0.000000000,0.000000000,0.000000000,1.261018676,0.000000000,4.085630417
1772660710.914559603,0.014755000,0.007935000,0.055487000,-0.002317280,0.004604410,0.015714780,0.999863230,-0.004489000,0.009281000,0.031410000,-0.000528380,0.000351885,0.000065346,0.007363825,-0.031635901,0.011102146,0.009439347,-0.002920222,0.998916661,-0.000250520,0.000550985,-0.000619001,0.000000000,0.000000000,0.000000000,0.000000000,0.015093957,0.007955663,0.055489353,0.016459076,0.002445485,0.000390403,0.005350996,0.000654104,-0.001186293,-0.175992278,0.242599822,1.261395706,-0.001512420,-0.002133858,0.011004233,0.999935141,0.000000000,0.000000000,0.000000000,0.000000000,0.000000000,0.000000000,1.260655445,0.000000000,4.085630417
1772660710.924559116,0.014739000,0.007934000,0.055483000,-0.002238140,0.004456460,0.015811180,0.999862560,-0.004335000,0.008983000,0.031605000,-0.000656761,0.000485199,0.000130731,0.007354856,-0.040952987,0.018665467,0.009377250,-0.002982814,0.999012681,0.000164608,0.000279840,-0.001145444,0.000000000,0.000000000,0.000000000,0.000000000,0.015093209,0.007956424,0.055489533,0.016461817,0.002442632,0.000368870,0.005245196,0.000563214,-0.001418989,-0.176018843,0.242637882,1.261255654,-0.001512651,-0.002134191,0.011003010,0.999935156,0.000000000,0.000000000,0.000000000,0.000000000,0.000000000,0.000000000,1.260292231,0.000000000,4.085630417
1772660710.934559107,0.014758000,0.007940000,0.055493000,-0.002248060,0.004338130,0.015900550,0.999861640,-0.004358000,0.008747000,0.031784000,-0.000691318,0.000549010,0.000255905,0.004770622,-0.049400848,0.024714135,0.009315150,-0.003045409,0.999108707,0.000579755,0.000008682,-0.001671912,0.000000000,0.000000000,0.000000000,0.000000000,0.015092461,0.007957186,0.055489712,0.016464559,0.002439779,0.000347336,0.005139391,0.000472319,-0.001651696,-0.176045409,0.242675943,1.261115595,-0.001512882,-0.002134524,0.011001787,0.999935171,0.000000000,0.000000000,0.000000000,0.000000000,0.000000000,0.000000000,1.259928999,0.000000000,4.085630417
1772660710.944559097,0.014749000,0.007932000,0.055491000,-0.002216600,0.004414610,0.016004430,0.999859720,-0.004291000,0.008899000,0.031992000,0.000175719,-0.000250525,-0.000129876,0.000254289,-0.015213611,0.016332153,0.009253050,-0.003108004,0.999204732,0.000994902,-0.000262476,-0.002198379,0.000000000,0.000000000,0.000000000,0.000000000,0.015091712,0.007957947,0.055489892,0.016467300,0.002436926,0.000325802,0.005033586,0.000381425,-0.001884403,-0.176071975,0.242714004,1.260975536,-0.001513112,-0.002134857,0.011000563,0.999935186,0.000000000,0.000000000,0.000000000,0.000000000,0.000000000,0.000000000,1.259565768,0.000000000,4.085630417
1772660710.954559088,0.014760000,0.007928000,0.055489000,-0.002250910,0.004218760,0.016064370,0.999859530,-0.004366000,0.008509000,0.032112000,0.000872320,-0.000551729,-0.000234499,-0.001164665,0.012550810,0.007355276,0.009190951,-0.003170599,0.999300757,0.001410049,-0.000533633,-0.002724847,0.000000000,0.000000000,0.000000000,0.000000000,0.015090964,0.007958709,0.055490072,0.016470042,0.002434073,0.000304268,0.004934031,0.000248575,-0.001688730,-0.176098542,0.242752065,1.260835477,-0.001513343,-0.002135190,0.010999340,0.999935201,0.000000000,0.000000000,0.000000000,0.000000000,0.000000000,0.000000000,1.259202537,0.000000000,4.085630417
1772660710.964559078,0.014751000,0.007937000,0.055489000,-0.002270380,0.004067710,0.016080510,0.999859850,-0.004409000,0.008207000,0.032145000,0.002066688,-0.001268397,-0.000532712,-0.002480627,0.045292159,-0.016903038,0.008883098,-0.003207721,0.998461284,-0.000325314,0.000230835,-0.001176209,0.000000000,0.000000000,0.000000000,0.000000000,0.015088846,0.007961644,0.055491164,0.016474565,0.002416953,0.000272586,0.004850344,0.000009206,-0.000405441,-0.176377704,0.243112892,1.259714925,-0.001515765,-0.002138350,0.010989552,0.999935236,0.000000000,0.000000000,0.000000000,0.000000000,0.000000000,0.000000000,1.258839305,0.000000000,4.085630417
