t,px,py,pz,qx,qy,qz,qw,roll,pitch,yaw,vx,vy,vz,wx_vicon,wy_vicon,wz_vicon,imu_acc_x,imu_acc_y,imu_acc_z,imu_gyro_x,imu_gyro_y,imu_gyro_z,motor_motor_m1,motor_motor_m2,motor_motor_m3,motor_motor_m4,est_stateEstimate_x,est_stateEstimate_y,est_stateEstimate_z,est_stateEstimate_vx,est_stateEstimate_vy,est_stateEstimate_vz,est_stateEstimate_ax,est_stateEstimate_ay,est_stateEstimate_az,att_stateEstimate_roll,att_stateEstimate_pitch,att_stateEstimate_yaw,att_stateEstimate_qx,att_stateEstimate_qy,att_stateEstimate_qz,att_stateEstimate_qw,sp_ctrltarget_x,sp_ctrltarget_y,sp_ctrltarget_z,sp_ctrltarget_yaw,pid_controller_roll,pid_controller_pitch,pid_controller_yaw,pid_controller_cmd_thrust,pwr_pm_vbat
1772426880.881043911,0.014461000,0.008020000,0.053684000,-0.002375470,0.002262410,-0.000952310,0.999994170,-0.004755000,0.004520000,-0.001915000,0.003937824,-0.002451848,0.000564220,-0.010519750,-0.023985567,0.002030219,0.009054780,-0.001740732,0.999559290,0.001164426,0.002410757,-0.002462175,0.000000000,0.000000000,0.000000000,0.000000000,0.014741000,0.008055768,0.053737224,0.013953599,0.002619570,0.002374165,0.003343686,-0.000609045,-0.000369004,-0.069486139,0.315165103,-0.076871208,-0.000608223,-0.002749926,-0.000672492,0.999994772,0.000000000,0.000000000,0.000000000,0.000000000,0.000000000,0.000000000,-0.076890296,0.000000000,3.995894432
1772426880.891044378,0.014473000,0.008006000,0.053682000,-0.002372190,0.002341820,-0.000981330,0.999993960,-0.004749000,0.004679000,-0.001974000,0.001235724,-0.000895436,0.000453497,0.000414121,-0.030287007,0.002410712,0.009540384,-0.000776206,1.000806757,0.001747469,0.000857685,0.002461210,0.000000000,0.000000000,0.000000000,0.000000000,0.014743564,0.008053313,0.053735736,0.013935901,0.002516385,0.002272761,0.004136956,0.000288684,-0.000259307,-0.070192196,0.312850407,-0.077002363,-0.000614374,-0.002729722,-0.000673641,0.999994832,0.000000000,0.000000000,0.000000000,0.000000000,0.000000000,0.000000000,-0.076957010,0.000000000,3.995894432
1772426880.901043892,0.014483000,0.008003000,0.053686000,-0.002389480,0.002039670,-0.000910510,0.999994650,-0.004783000,0.004075000,-0.001831000,-0.000333159,0.000025894,0.000237879,0.004218704,-0.023889542,0.001922832,0.011031432,-0.000539994,1.000528609,0.000321001,-0.000821924,0.001418229,0.000000000,0.000000000,0.000000000,0.000000000,0.014745346,0.008053511,0.053734583,0.014000490,0.002525371,0.002142730,0.004958176,0.000672702,0.000267670,-0.070178901,0.311913205,-0.076902527,-0.000614250,-0.002721544,-0.000672765,0.999994874,0.000000000,0.000000000,0.000000000,0.000000000,0.000000000,0.000000000,-0.076966203,0.000000000,3.995894432
1772426880.911043882,0.014484000,0.007999000,0.053699000,-0.002378280,0.001890920,-0.000914070,0.999994970,-0.004760000,0.003777000,-0.001837000,-0.001004488,0.000440113,-0.000018298,0.003018136,-0.009913614,0.000769788,0.011808722,0.000047830,1.000236272,-0.000070116,-0.000338238,0.000901905,0.000000000,0.000000000,0.000000000,0.000000000,0.014745637,0.008054179,0.053736358,0.014193035,0.002567517,0.002005921,0.006056681,0.000681852,0.001057286,-0.069327712,0.311451614,-0.077152110,-0.000606825,-0.002717519,-0.000674920,0.999994874,0.000000000,0.000000000,0.000000000,0.000000000,0.000000000,0.000000000,-0.077103957,0.000000000,3.995894432
1772426880.921043158,0.014478000,0.008009000,0.053693000,-0.002345740,0.001828110,-0.000966230,0.999995110,-0.004695000,0.003652000,-0.001941000,-0.001013929,0.000475195,-0.000250700,-0.001069642,0.006519462,-0.000848517,0.011519742,0.000392692,1.000617498,0.000915778,0.000649010,0.000170586,0.000000000,0.000000000,0.000000000,0.000000000,0.014747206,0.008054629,0.053733086,0.014396952,0.002607688,0.001957684,0.005165987,0.000782769,-0.000392280,-0.070071307,0.311097675,-0.076638143,-0.000613300,-0.002714429,-0.000670451,0.999994874,0.000000000,0.000000000,0.000000000,0.000000000,0.000000000,0.000000000,-0.076741304,0.000000000,3.995894432
1772426880.931042910,0.014449000,0.008015000,0.053680000,-0.002337930,0.002193990,-0.000920380,0.999994440,-0.004680000,0.004384000,-0.001851000,-0.000597145,0.000259111,-0.000394989,-0.005921962,0.020288761,-0.002735265,0.012098269,-0.000868040,1.002081707,0.000383220,-0.005177387,-0.002737624,0.000000000,0.000000000,0.000000000,0.000000000,0.014746808,0.008060363,0.053725098,0.014545034,0.002611730,0.001904797,0.005573882,0.000131241,0.002097643,-0.070325583,0.308203984,-0.076428148,-0.000615497,-0.002689176,-0.000668609,0.999994962,0.000000000,0.000000000,0.000000000,0.000000000,0.000000000,0.000000000,-0.076429541,0.000000000,3.995894432
1772426880.941043139,0.014458000,0.008008000,0.053688000,-0.002421770,0.002006800,-0.000983850,0.999994570,-0.004848000,0.004009000,-0.001977000,-0.000091239,-0.000083411,-0.000204487,-0.006190111,0.019435710,-0.005491098,0.009482814,-0.001083051,1.000869192,-0.003940501,0.004390071,-0.002826870,0.000000000,0.000000000,0.000000000,0.000000000,0.014653970,0.008038499,0.053708303,0.012779122,0.001774417,0.001369995,0.003270135,-0.000063880,-0.000085740,-0.063828153,0.336924169,-0.076540071,-0.000558967,-0.002939844,-0.000669572,0.999994433,0.000000000,0.000000000,0.000000000,0.000000000,0.000000000,0.000000000,-0.076509322,0.000000000,3.995894432
1772426880.951043129,0.014447000,0.008018000,0.053671000,-0.002466570,0.002427750,-0.000954760,0.999993560,-0.004938000,0.004851000,-0.001922000,0.000316803,-0.000261461,0.000147417,-0.005767195,-0.000033690,-0.006080052,0.010769883,0.001205198,1.002000076,0.000003104,0.001585766,-0.001916745,0.000000000,0.000000000,0.000000000,0.000000000,0.014648994,0.008037029,0.053699239,0.013034316,0.001956083,0.001423245,0.004076365,0.001421257,0.000766191,-0.064855324,0.335071042,-0.077187237,-0.000567936,-0.002923663,-0.000675237,0.999994329,0.000000000,0.000000000,0.000000000,0.000000000,0.000000000,0.000000000,-0.077031654,0.000000000,3.995894432
1772426880.961042881,0.014477000,0.008001000,0.053680000,-0.002514970,0.002367640,-0.001038630,0.999993500,-0.005035000,0.004730000,-0.002089000,0.000470708,-0.000418804,0.000494251,-0.000596592,-0.020774278,-0.007742388,0.010620709,0.000249783,1.002051068,0.001749720,0.000240872,-0.000433289,0.000000000,0.000000000,0.000000000,0.000000000,0.014696937,0.008039031,0.053710823,0.013368437,0.002216620,0.001605826,0.003944921,0.002209714,0.001602439,-0.063978907,0.334756629,-0.078107165,-0.000560309,-0.002920920,-0.000683241,0.999994338,0.000000000,0.000000000,0.000000000,0.000000000,0.000000000,0.000000000,-0.078203705,0.000000000,3.995894432
1772426880.971042395,0.014476000,0.007999000,0.053695000,-0.002454230,0.001963270,-0.001065270,0.999994490,-0.004913000,0.003921000,-0.002140000,0.000422203,-0.000365832,0.000462666,0.005013391,-0.030701951,-0.007404052,0.010196153,-0.001606882,1.001817925,0.002588919,-0.000328714,0.000906666,0.000000000,0.000000000,0.000000000,0.000000000,0.014720015,0.008040595,0.053724675,0.013453817,0.002382775,0.001804654,0.004617108,0.000277164,0.002063166,-0.064318362,0.334151014,-0.077488052,-0.000563252,-0.002915636,-0.000677844,0.999994350,0.000000000,0.000000000,0.000000000,0.000000000,0.000000000,0.000000000,-0.077513227,0.000000000,3.995894432
1772426880.981041908,0.014474000,0.007996000,0.053702000,-0.002394440,0.001808740,-0.001109740,0.999994880,-0.004793000,0.003612000,-0.002228000,-0.000101107,-0.000181896,0.000137957,0.010316205,-0.021127530,-0.005787177,0.010767121,-0.001584465,1.002257706,-0.000457638,0.001038502,-0.001532414,0.000000000,0.000000000,0.000000000,0.000000000,0.014723407,0.008044608,0.053728268,0.013673889,0.002291641,0.001976769,0.004936152,-0.000423367,0.002483943,-0.064309351,0.333739417,-0.076621661,-0.000563149,-0.002912048,-0.000670281,0.999994397,0.000000000,0.000000000,0.000000000,0.000000000,0.000000000,0.000000000,-0.076769537,0.000000000,3.995894432
1772426880.991041422,0.014462000,0.008003000,0.053695000,-0.002391990,0.001712110,-0.001125910,0.999995040,-0.004788000,0.003419000,-0.002260000,-0.000257265,-0.000104312,0.000005983,0.010321688,-0.009351883,-0.005554796,0.008981725,-0.000300853,1.001894385,-0.003193966,-0.001922952,-0.001097504,0.000000000,0.000000000,0.000000000,0.000000000,0.014727422,0.008041803,0.053728243,0.013761198,0.002227778,0.002146496,0.003054137,0.000585852,0.001725835,-0.063648385,0.332113659,-0.075993837,-0.000557356,-0.002897868,-0.000664778,0.999994424,0.000000000,0.000000000,0.000000000,0.000000000,0.000000000,0.000000000,-0.076033708,0.000000000,3.995894432
1772426881.001041174,0.014464000,0.007995000,0.053690000,-0.002280140,0.001802980,-0.001149130,0.999995110,-0.004564000,0.003601000,-0.002306000,-0.000438598,0.000094192,-0.000332052,0.009031692,0.016801242,-0.000563959,0.010096973,-0.000604569,1.000140241,-0.000965146,0.000536947,0.000494650,0.000000000,0.000000000,0.000000000,0.000000000,0.014730487,0.008041680,0.053727069,0.013720651,0.002253141,0.002196990,0.004224331,0.000436682,0.000375935,-0.063307705,0.333466317,-0.075599703,-0.000554381,-0.002909676,-0.000661336,0.999994430,0.000000000,0.000000000,0.000000000,0.000000000,0.000000000,0.000000000,-0.075654277,0.000000000,3.995894432
1772426881.011040688,0.014468000,0.007997000,0.053685000,-0.002297250,0.002005430,-0.001118210,0.999994730,-0.004599000,0.004006000,-0.002246000,-0.000046096,0.000013384,-0.000258761,0.004679742,0.029109293,0.000206021,0.010127692,-0.000181222,0.999801828,0.000252013,0.000156139,0.000161172,0.000000000,0.000000000,0.000000000,0.000000000,0.014728042,0.008043232,0.053727132,0.013792376,0.002269187,0.002110391,0.003770941,0.001339568,-0.000184093,-0.062720194,0.334081995,-0.074384871,-0.000549226,-0.002915058,-0.000650723,0.999994397,0.000000000,0.000000000,0.000000000,0.000000000,0.000000000,0.000000000,-0.074576384,0.000000000,3.995894432
1772426881.021040678,0.014457000,0.008001000,0.053684000,-0.002236840,0.002166770,-0.001180680,0.999994450,-0.004479000,0.004328000,-0.002371000,0.000091978,0.000037704,-0.000017638,0.001837991,0.026853010,0.000202569,0.009141939,-0.000520727,0.999853809,-0.000419904,0.002948764,0.002177523,0.000000000,0.000000000,0.000000000,0.000000000,0.014730893,0.008042471,0.053729497,0.013792059,0.002317572,0.002011241,0.002655373,0.000109907,-0.000963939,-0.062216441,0.333248256,-0.073671400,-0.000544808,-0.002907789,-0.000644480,0.999994397,0.000000000,0.000000000,0.000000000,0.000000000,0.000000000,0.000000000,-0.073714503,0.000000000,3.995894432
1772426881.031040430,0.014467000,0.007996000,0.053694000,-0.002283510,0.002222190,-0.001154430,0.999994260,-0.004572000,0.004439000,-0.002319000,-0.000029060,0.000023096,0.000156702,-0.001248648,0.022629472,-0.002613549,0.009706769,0.000391895,1.000684159,-0.001817171,0.003299358,0.002183221,0.000000000,0.000000000,0.000000000,0.000000000,0.014730531,0.008043552,0.053727873,0.013727976,0.002304617,0.001898839,0.005919905,0.002382903,0.001793471,-0.062347004,0.331952397,-0.073150977,-0.000545927,-0.002896482,-0.000639935,0.999994403,0.000000000,0.000000000,0.000000000,0.000000000,0.000000000,0.000000000,-0.073227225,0.000000000,3.995894432
1772426881.041040897,0.014463000,0.008000000,0.053688000,-0.002257050,0.002318670,-0.001082860,0.999994180,-0.004519000,0.004632000,-0.002176000,-0.000003574,-0.000026923,0.000170960,-0.004978228,0.007499533,-0.004164238,0.010027021,0.000308257,1.000799072,-0.001644190,0.002528535,0.001372654,0.000000000,0.000000000,0.000000000,0.000000000,0.014731147,0.008043647,0.053728168,0.013756512,0.002328570,0.001911939,0.005654791,0.002241652,0.001350676,-0.062370850,0.331605395,-0.073084109,-0.000546131,-0.002893454,-0.000639351,0.999994414,0.000000000,0.000000000,0.000000000,0.000000000,0.000000000,0.000000000,-0.073084752,0.000000000,3.995894432
1772426881.051040649,0.014470000,0.007998000,0.053694000,-0.002329830,0.002288080,-0.001214490,0.999993930,-0.004665000,0.004570000,-0.002440000,0.000124243,-0.000181080,0.000064200,-0.007373257,-0.005812573,-0.005126185,0.010347250,0.000224626,1.000913977,-0.001471221,0.001757768,0.000562146,0.000000000,0.000000000,0.000000000,0.000000000,0.014731762,0.008043742,0.053728463,0.013785046,0.002352520,0.001925038,0.005389697,0.002100410,0.000907913,-0.062367307,0.331386165,-0.073079213,-0.000546099,-0.002891541,-0.000639307,0.999994424,0.000000000,0.000000000,0.000000000,0.000000000,0.000000000,0.000000000,-0.073079863,0.000000000,3.995894432
1772426881.061040878,0.014461000,0.007999000,0.053691000,-0.002329160,0.002307250,-0.001227280,0.999993870,-0.004664000,0.004609000,-0.002465000,0.000228536,-0.000077642,-0.000020901,-0.009563571,-0.016066936,-0.006405151,0.010667494,0.000140990,1.001028887,-0.001298244,0.000986964,-0.000248401,0.000000000,0.000000000,0.000000000,0.000000000,0.014732378,0.008043837,0.053728758,0.013813582,0.002376472,0.001938138,0.005124589,0.001959162,0.000465128,-0.062363765,0.331166924,-0.073074317,-0.000546066,-0.002889627,-0.000639263,0.999994435,0.000000000,0.000000000,0.000000000,0.000000000,0.000000000,0.000000000,-0.073074975,0.000000000,3.995894432
1772426881.071040630,0.014459000,0.007994000,0.053691000,-0.002388210,0.002247880,-0.001274050,0.999993810,-0.004782000,0.004490000,-0.002559000,0.000238928,-0.000008605,0.000066472,-0.007318678,-0.024888068,-0.005564169,0.010987723,0.000057359,1.001143792,-0.001125275,0.000216196,-0.001058910,0.000000000,0.000000000,0.000000000,0.000000000,0.014732993,0.008043932,0.053729053,0.013842116,0.002400422,0.001951237,0.004859495,0.001817920,0.000022365,-0.062360222,0.330947694,-0.073069422,-0.000546034,-0.002887714,-0.000639219,0.999994445,0.000000000,0.000000000,0.000000000,0.000000000,0.000000000,0.000000000,-0.073070087,0.000000000,3.995894432
1772426881.081040621,0.014480000,0.007991000,0.053692000,-0.002446840,0.001910610,-0.001229980,0.999994420,-0.004898000,0.003815000,-0.002469000,0.000212063,0.000039608,0.000086228,-0.005816435,-0.026937417,-0.000472816,0.011307960,-0.000026275,1.001258700,-0.000952302,-0.000554589,-0.001869437,0.000000000,0.000000000,0.000000000,0.000000000,0.014733608,0.008044027,0.053729348,0.013870651,0.002424373,0.001964336,0.004594394,0.001676675,-0.000420409,-0.062356679,0.330728458,-0.073064526,-0.000546002,-0.002885801,-0.000639175,0.999994456,0.000000000,0.000000000,0.000000000,0.000000000,0.000000000,0.000000000,-0.073065198,0.000000000,3.995894432
1772426881.091040373,0.014472000,0.007997000,0.053690000,-0.002489890,0.001904970,-0.001261140,0.999994290,-0.004985000,0.003804000,-0.002532000,-0.000001535,0.000058120,-0.000030808,-0.003513645,-0.019205813,0.003521160,0.010870940,-0.000276927,1.000140632,-0.000458973,-0.001870199,0.000226130,0.000000000,0.000000000,0.000000000,0.000000000,0.014733078,0.008044853,0.053728960,0.013924832,0.002472390,0.001923983,0.004336067,0.001442673,-0.000787301,-0.062353137,0.330509228,-0.073059630,-0.000545970,-0.002883888,-0.000639132,0.999994457,0.000000000,0.000000000,0.000000000,0.000000000,0.000000000,0.000000000,-0.073060310,0.000000000,3.995894432
1772426881.101040602,0.014472000,0.008004000,0.053696000,-0.002453790,0.001781050,-0.001282470,0.999994580,-0.004912000,0.003556000,-0.002574000,-0.000225505,0.000135567,-0.000097824,-0.001721668,-0.015582932,0.005055031,0.010281257,-0.000854938,0.999512156,-0.000635344,-0.001677742,0.003147698,0.000000000,0.000000000,0.000000000,0.000000000,0.014731853,0.008045387,0.053727958,0.013983085,0.002505015,0.001837150,0.004150819,0.000206981,-0.000334913,-0.062569806,0.330162327,-0.072715416,-0.000547850,-0.002880862,-0.000636132,0.999994486,0.000000000,0.000000000,0.000000000,0.000000000,0.000000000,0.000000000,-0.072761189,0.000000000,3.995894432
1772426881.111040354,0.014470000,0.007996000,0.053697000,-0.002428150,0.001719850,-0.001168180,0.999994890,-0.004860000,0.003434000,-0.002345000,-0.000567755,0.000252137,-0.000161034,-0.000051914,-0.006501054,0.005887541,0.010740341,-0.001230020,1.000300021,-0.002606036,-0.000084369,0.004637263,0.000000000,0.000000000,0.000000000,0.000000000,0.014733507,0.008043738,0.053726619,0.014043172,0.002463227,0.001740794,0.005224260,-0.000324021,0.000614950,-0.061695355,0.330150543,-0.072215277,-0.000540206,-0.002880766,-0.000631745,0.999994516,0.000000000,0.000000000,0.000000000,0.000000000,0.000000000,0.000000000,-0.072272854,0.000000000,3.995894432
1772426881.121040344,0.014457000,0.008000000,0.053684000,-0.002480220,0.001823120,-0.001158120,0.999994590,-0.004965000,0.003640000,-0.002325000,-0.000486694,0.000017152,0.000084829,0.001214268,-0.005279471,0.003474803,0.011027390,-0.001148363,1.001679849,-0.002048574,0.000148405,-0.000346949,0.000000000,0.000000000,0.000000000,0.000000000,0.014743749,0.008042269,0.053725088,0.014270487,0.002405383,0.001741929,0.006368442,-0.000654890,0.001659785,-0.060597198,0.330083027,-0.071743921,-0.000530611,-0.002880185,-0.000627604,0.999994516,0.000000000,0.000000000,0.000000000,0.000000000,0.000000000,0.000000000,-0.071791707,0.000000000,3.995894432
1772426881.131040812,0.014456000,0.007997000,0.053688000,-0.002483890,0.001818990,-0.001191900,0.999994550,-0.004972000,0.003632000,-0.002393000,-0.000157984,-0.000119619,0.000153380,0.000360634,0.002724527,0.001512990,0.011549959,0.000046440,1.002455577,0.001809413,-0.001179904,0.000436025,0.000000000,0.000000000,0.000000000,0.000000000,0.014747994,0.008045783,0.053727270,0.014455027,0.002349475,0.001939125,0.004849405,0.000264945,0.002493234,-0.061532590,0.330533107,-0.071495931,-0.000538770,-0.002884109,-0.000625465,0.999994492,0.000000000,0.000000000,0.000000000,0.000000000,0.000000000,0.000000000,-0.071525234,0.000000000,3.995894432
1772426881.141040802,0.014453000,0.008007000,0.053689000,-0.002446760,0.001633990,-0.001119150,0.999995050,-0.004897000,0.003263000,-0.002246000,-0.000197980,-0.000004740,0.000027312,0.000489348,0.020480930,-0.000475286,0.011445306,-0.001811464,1.000054242,0.000100246,-0.003122882,-0.000585366,0.000000000,0.000000000,0.000000000,0.000000000,0.014749884,0.008044572,0.053731314,0.014602830,0.002331492,0.002051527,0.006165907,-0.000123220,0.000724601,-0.062102085,0.330419462,-0.071594640,-0.000543742,-0.002883113,-0.000626340,0.999994457,0.000000000,0.000000000,0.000000000,0.000000000,0.000000000,0.000000000,-0.071449829,0.000000000,3.995894432
1772426881.151041031,0.014455000,0.008002000,0.053697000,-0.002461140,0.001874130,-0.001187900,0.999994510,-0.004927000,0.003742000,-0.002385000,-0.000076884,0.000063714,-0.000245766,0.001705853,0.032820867,-0.002569188,0.012191976,-0.000945979,1.000557017,-0.002596991,0.001896830,-0.000218665,0.000000000,0.000000000,0.000000000,0.000000000,0.014746509,0.008044272,0.053727912,0.014800424,0.002219148,0.001977256,0.006331646,-0.000208129,-0.000152558,-0.061418553,0.328719058,-0.072288380,-0.000537785,-0.002868275,-0.000632369,0.999994521,0.000000000,0.000000000,0.000000000,0.000000000,0.000000000,0.000000000,-0.072308513,0.000000000,3.995894432
1772426881.161040306,0.014465000,0.007988000,0.053704000,-0.002412270,0.001904340,-0.001214040,0.999994540,-0.004829000,0.003803000,-0.002437000,-0.000028730,-0.000021037,-0.000222339,0.004740171,0.037128375,-0.000270444,0.011679377,-0.000451817,1.001641863,-0.001534119,0.000677884,-0.000912291,0.000000000,0.000000000,0.000000000,0.000000000,0.014745024,0.008042631,0.053725863,0.015021226,0.002198783,0.001895000,0.005469633,0.000339669,0.000689985,-0.062029850,0.327412878,-0.072462746,-0.000543117,-0.002856872,-0.000633900,0.999994576,0.000000000,0.000000000,0.000000000,0.000000000,0.000000000,0.000000000,-0.072369628,0.000000000,3.995894432
1772426881.171039820,0.014452000,0.008003000,0.053680000,-0.002450760,0.002490650,-0.001177190,0.999993200,-0.004907000,0.004976000,-0.002367000,0.000057770,-0.000018007,-0.000266240,0.004717515,0.036104741,0.000224510,0.011124080,0.000019760,1.002733164,-0.000350437,-0.000763008,-0.001644831,0.000000000,0.000000000,0.000000000,0.000000000,0.014745145,0.008046371,0.053728036,0.015100245,0.002282330,0.002009314,0.004506065,0.001351518,0.002198783,-0.064224365,0.325744151,-0.072531386,-0.000562260,-0.002842297,-0.000634546,0.999994623,0.000000000,0.000000000,0.000000000,0.000000000,0.000000000,0.000000000,-0.072494978,0.000000000,3.995894432
1772426881.181039810,0.014446000,0.008006000,0.053675000,-0.002388620,0.002541230,-0.001150150,0.999993260,-0.004783000,0.005077000,-0.002312000,0.000245707,-0.000055944,-0.000010179,0.005166244,0.020090596,0.001559289,0.011054195,-0.000413554,1.001012585,-0.001255241,0.001742388,-0.000598919,0.000000000,0.000000000,0.000000000,0.000000000,0.014749169,0.008042546,0.053734819,0.015176764,0.002337310,0.002197903,0.004870558,0.000473026,0.000578847,-0.063482275,0.327349094,-0.073657015,-0.000555821,-0.002856302,-0.000644358,0.999994588,0.000000000,0.000000000,0.000000000,0.000000000,0.000000000,0.000000000,-0.073523900,0.000000000,3.995894432
1772426881.191039562,0.014461000,0.007997000,0.053677000,-0.002373630,0.002450310,-0.001192110,0.999993470,-0.004753000,0.004895000,-0.002396000,0.000371718,-0.000108625,0.000311675,0.005053609,-0.008811781,0.004909167,0.010390846,-0.001910183,1.000248971,0.003457889,-0.000123230,0.000710401,0.000000000,0.000000000,0.000000000,0.000000000,0.014750469,0.008041984,0.053733707,0.015263548,0.002307562,0.002197296,0.004766534,-0.000411682,-0.000501879,-0.063185859,0.327306103,-0.074262465,-0.000553249,-0.002855925,-0.000649634,0.999994576,0.000000000,0.000000000,0.000000000,0.000000000,0.000000000,0.000000000,-0.074222297,0.000000000,3.995894432
1772426881.201039553,0.014462000,0.007996000,0.053704000,-0.002297640,0.002347950,-0.001133110,0.999993960,-0.004601000,0.004691000,-0.002277000,0.000508509,-0.000252623,0.000462666,0.003083536,-0.021617100,0.002776985,0.009401417,-0.002195437,0.999987910,0.000796762,0.000966889,-0.000460151,0.000000000,0.000000000,0.000000000,0.000000000,0.014746744,0.008045530,0.053724748,0.015249998,0.002184249,0.002072483,0.002942276,-0.001109420,0.000449209,-0.061622478,0.327349557,-0.074333605,-0.000539608,-0.002856313,-0.000650216,0.999994576,0.000000000,0.000000000,0.000000000,0.000000000,0.000000000,0.000000000,-0.074423113,0.000000000,3.995894432
1772426881.211039543,0.014474000,0.007995000,0.053695000,-0.002356500,0.002298120,-0.001153790,0.999993920,-0.004718000,0.004591000,-0.002318000,0.000382188,-0.000378691,0.000323738,0.001405585,-0.024337471,-0.000218662,0.007958040,-0.002025268,1.000722510,0.001360385,0.000061882,-0.002243351,0.000000000,0.000000000,0.000000000,0.000000000,0.014748114,0.008043207,0.053719234,0.015106832,0.002014926,0.002006872,0.002581715,-0.000976196,0.000711313,-0.061878411,0.324304840,-0.073430338,-0.000541802,-0.002829746,-0.000642325,0.999994634,0.000000000,0.000000000,0.000000000,0.000000000,0.000000000,0.000000000,-0.073422615,0.000000000,3.995894432
1772426881.221039534,0.014472000,0.007991000,0.053701000,-0.002329330,0.002055880,-0.001100210,0.999994570,-0.004663000,0.004107000,-0.002210000,0.000101845,-0.000205206,-0.000167910,-0.003459614,-0.012011856,-0.002467020,0.010762491,-0.001583229,0.999972493,0.000964882,0.000579983,0.001698542,0.000000000,0.000000000,0.000000000,0.000000000,0.014750518,0.008038205,0.053727755,0.014977691,0.001859852,0.002023182,0.004349120,-0.000685428,0.000243915,-0.062318825,0.322169661,-0.073412506,-0.000545633,-0.002811110,-0.000642171,0.999994695,0.000000000,0.000000000,0.000000000,0.000000000,0.000000000,0.000000000,-0.073439416,0.000000000,3.995894432
1772426881.231040001,0.014470000,0.007986000,0.053695000,-0.002360530,0.001964730,-0.001120420,0.999994660,-0.004726000,0.003924000,-0.002250000,-0.000081857,-0.000021504,-0.000226982,-0.007058217,-0.008943676,-0.003754063,0.010770104,-0.002287322,1.001771485,-0.004120761,0.003667738,-0.000163049,0.000000000,0.000000000,0.000000000,0.000000000,0.014755770,0.008034611,0.053731248,0.015056404,0.001766258,0.001974307,0.005639108,-0.000318004,0.000484747,-0.062022862,0.322016691,-0.073222853,-0.000543044,-0.002809778,-0.000640508,0.999994695,0.000000000,0.000000000,0.000000000,0.000000000,0.000000000,0.000000000,-0.073218935,0.000000000,3.995894432
1772426881.241039515,0.014469000,0.007992000,0.053682000,-0.002387000,0.002233560,-0.001217050,0.999993920,-0.004779000,0.004461000,-0.002445000,-0.000119717,0.000175661,-0.000296057,-0.009072914,-0.002311852,-0.003697124,0.010026615,-0.001506416,1.001236307,-0.001367794,0.004553413,-0.001549588,0.000000000,0.000000000,0.000000000,0.000000000,0.014759561,0.008031228,0.053733619,0.015125654,0.001690440,0.002019412,0.005044755,-0.000005263,0.002015649,-0.061831031,0.321651578,-0.073257976,-0.000541369,-0.002806593,-0.000640808,0.999994695,0.000000000,0.000000000,0.000000000,0.000000000,0.000000000,0.000000000,-0.073253424,0.000000000,3.995894432
1772426881.251039267,0.014460000,0.007992000,0.053684000,-0.002423080,0.002154690,-0.001210540,0.999994010,-0.004851000,0.004303000,-0.002432000,-0.000197067,0.000390754,-0.000069619,-0.007264508,0.001440522,-0.001039158,0.009073239,-0.000225251,1.001023224,0.000125952,0.000144539,-0.000987881,0.000000000,0.000000000,0.000000000,0.000000000,0.014761392,0.008027038,0.053735443,0.015142476,0.001657928,0.002079492,0.004604445,0.001175004,0.000026287,-0.063901483,0.320867746,-0.073769585,-0.000559445,-0.002799738,-0.000645319,0.999994732,0.000000000,0.000000000,0.000000000,0.000000000,0.000000000,0.000000000,-0.073678537,0.000000000,3.995894432
1772426881.261039257,0.014473000,0.007994000,0.053692000,-0.002509720,0.002015490,-0.001198580,0.999994100,-0.005024000,0.004025000,-0.002407000,-0.000185431,0.000388093,-0.000031760,-0.004381421,0.000682050,0.001170843,0.008702880,0.000151813,1.000106286,0.000721038,-0.001033643,0.001846407,0.000000000,0.000000000,0.000000000,0.000000000,0.014761391,0.008024117,0.053731833,0.015069101,0.001739861,0.002012385,0.002939346,0.001651312,-0.000519901,-0.064450316,0.319387047,-0.074753684,-0.000564250,-0.002786809,-0.000653913,0.999994755,0.000000000,0.000000000,0.000000000,0.000000000,0.000000000,0.000000000,-0.074613103,0.000000000,3.995894432
1772426881.271039009,0.014467000,0.008002000,0.053701000,-0.002512530,0.001961230,-0.001156490,0.999994250,-0.005030000,0.003917000,-0.002323000,-0.000279721,0.000162102,0.000071018,0.003482094,-0.004489535,0.005384247,0.009087809,-0.000566667,1.000037314,-0.001059664,0.001258195,0.001945710,0.000000000,0.000000000,0.000000000,0.000000000,0.014757665,0.008025950,0.053725076,0.014943787,0.001843671,0.001869388,0.004075925,0.000801320,-0.000183962,-0.064226805,0.321076312,-0.074983350,-0.000562315,-0.002801551,-0.000655920,0.999994708,0.000000000,0.000000000,0.000000000,0.000000000,0.000000000,0.000000000,-0.074994011,0.000000000,3.995894432
1772426881.281038284,0.014459000,0.008007000,0.053679000,-0.002462280,0.002174640,-0.001122680,0.999993970,-0.004929000,0.004344000,-0.002256000,-0.000280634,-0.000065229,-0.000002875,0.010132704,-0.011415509,0.006554172,0.008973456,-0.001371214,1.000416199,0.000676880,0.001431831,-0.003552234,0.000000000,0.000000000,0.000000000,0.000000000,0.014756309,0.008028242,0.053724321,0.014862935,0.001872203,0.001807971,0.003356124,0.000105604,0.000418007,-0.063874178,0.319220046,-0.073399383,-0.000559189,-0.002785362,-0.000642080,0.999994749,0.000000000,0.000000000,0.000000000,0.000000000,0.000000000,0.000000000,-0.073386951,0.000000000,3.995894432
1772426881.291038752,0.014458000,0.008001000,0.053688000,-0.002396440,0.002000920,-0.001125530,0.999994490,-0.004797000,0.003996000,-0.002261000,-0.000034072,-0.000190890,-0.000089161,0.010936341,-0.011954284,0.005549908,0.010914258,-0.002377468,0.998682744,0.002265152,-0.003976264,-0.000861941,0.000000000,0.000000000,0.000000000,0.000000000,0.014755221,0.008032802,0.053728742,0.014779263,0.001797096,0.001736171,0.003936482,-0.000645170,-0.000770206,-0.064438785,0.319018852,-0.073716510,-0.000564123,-0.002783601,-0.000644860,0.999994755,0.000000000,0.000000000,0.000000000,0.000000000,0.000000000,0.000000000,-0.073619306,0.000000000,3.995894432
1772426881.301038027,0.014456000,0.007992000,0.053690000,-0.002325150,0.001922130,-0.001099400,0.999994850,-0.004655000,0.003839000,-0.002208000,0.000169542,-0.000231954,0.000010917,0.006319181,-0.010111923,0.004912552,0.010624629,-0.000224102,1.000138941,-0.004311433,-0.000009662,0.001324986,0.000000000,0.000000000,0.000000000,0.000000000,0.014749997,0.008037414,0.053720483,0.014800875,0.001730673,0.001531020,0.005286259,0.000274509,-0.000263849,-0.064508003,0.319727029,-0.074607074,-0.000564752,-0.002789776,-0.000652637,0.999994755,0.000000000,0.000000000,0.000000000,0.000000000,0.000000000,0.000000000,-0.074492921,0.000000000,3.995894432
1772426881.311037540,0.014459000,0.007991000,0.053689000,-0.002254910,0.001882330,-0.001051570,0.999995130,-0.004514000,0.003760000,-0.002112000,0.000416920,-0.000162782,0.000317619,-0.000680408,-0.011863100,0.001465926,0.011324799,-0.000874949,0.998566396,-0.003013781,0.001164502,0.001881794,0.000000000,0.000000000,0.000000000,0.000000000,0.014747098,0.008036416,0.053717619,0.014911384,0.001756228,0.001462932,0.005372454,0.000452308,-0.000875029,-0.065347936,0.319088596,-0.074807409,-0.000572083,-0.002784199,-0.000654402,0.999994755,0.000000000,0.000000000,0.000000000,0.000000000,0.000000000,0.000000000,-0.074893765,0.000000000,3.995894432
1772426881.321037292,0.014469000,0.007996000,0.053691000,-0.002323890,0.001706450,-0.001069030,0.999995270,-0.004651000,0.003408000,-0.002146000,0.000425214,-0.000031197,0.000398272,-0.006696763,-0.002524317,-0.002816576,0.010642071,-0.000379963,0.999285952,0.003724313,-0.001584479,-0.000392245,0.000000000,0.000000000,0.000000000,0.000000000,0.014756621,0.008032575,0.053717364,0.014636147,0.001738515,0.001230003,0.004284632,0.001365466,0.000100862,-0.066655613,0.318461578,-0.074892906,-0.000583493,-0.002778720,-0.000655177,0.999994755,0.000000000,0.000000000,0.000000000,0.000000000,0.000000000,0.000000000,-0.074781319,0.000000000,3.995894432
1772426881.331037521,0.014479000,0.007995000,0.053697000,-0.002445960,0.001826840,-0.001059480,0.999994780,-0.004896000,0.003648000,-0.002128000,0.000229332,0.000078866,0.000244872,-0.006452597,0.006358623,-0.007617802,0.010989916,0.000042946,0.999484872,0.000366812,-0.001984079,0.000204987,0.000000000,0.000000000,0.000000000,0.000000000,0.014757205,0.008032942,0.053717075,0.011913275,0.001806830,0.001162166,0.004122714,0.001286779,0.001064219,-0.064777187,0.347869467,-0.076717571,-0.000567317,-0.003035353,-0.000671199,0.999994423,0.000000000,0.000000000,0.000000000,0.000000000,0.000000000,0.000000000,-0.076495593,0.000000000,3.995894432
1772426881.341037989,0.014470000,0.007998000,0.053699000,-0.002450770,0.002008390,-0.001117150,0.999994360,-0.004906000,0.004011000,-0.002244000,-0.000022533,0.000066725,-0.000011267,-0.004176766,0.013952644,-0.008726818,0.011337770,0.000465866,0.999683797,-0.002990768,-0.002383688,0.000802233,0.000000000,0.000000000,0.000000000,0.000000000,0.014615796,0.008018727,0.053709503,0.011756717,0.001945946,0.001175688,0.004418330,0.001571249,0.000807486,-0.064741261,0.348406613,-0.076745853,-0.000567007,-0.003040041,-0.000671448,0.999993980,0.000000000,0.000000000,0.000000000,0.000000000,0.000000000,0.000000000,-0.076745853,0.000000000,3.995894432
1772426881.351037979,0.014467000,0.007995000,0.053703000,-0.002417620,0.001874620,-0.001218250,0.999994580,-0.004840000,0.003743000,-0.002446000,-0.000333955,0.000077351,-0.000306313,-0.001276583,0.020264432,-0.007439251,0.011122527,-0.001008056,0.998469909,-0.001369967,-0.003528402,0.000644953,0.000000000,0.000000000,0.000000000,0.000000000,0.014663896,0.008030453,0.053707906,0.012224730,0.002095154,0.001113903,0.005251082,0.000560004,-0.001257483,-0.065088759,0.346907952,-0.075539361,-0.000569999,-0.003026966,-0.000660921,0.999994035,0.000000000,0.000000000,0.000000000,0.000000000,0.000000000,0.000000000,-0.075656162,0.000000000,3.995894432
1772426881.361037016,0.014469000,0.007993000,0.053691000,-0.002418870,0.002148620,-0.001236770,0.999994000,-0.004843000,0.004291000,-0.002484000,-0.000273271,0.000078749,-0.000328458,0.003541327,0.017692223,-0.002330702,0.009395869,-0.000229901,0.999434959,0.004404765,0.000714961,0.003315544,0.000000000,0.000000000,0.000000000,0.000000000,0.014689544,0.008038633,0.053707184,0.012598536,0.002125670,0.000920644,0.004138131,0.000664584,-0.000388558,-0.065549334,0.346982400,-0.074474069,-0.000573990,-0.003027618,-0.000651637,0.999994040,0.000000000,0.000000000,0.000000000,0.000000000,0.000000000,0.000000000,-0.074563914,0.000000000,3.995894432
1772426881.371036053,0.014463000,0.007997000,0.053694000,-0.002331450,0.002018170,-0.001230110,0.999994490,-0.004668000,0.004031000,-0.002470000,-0.000017366,0.000074204,-0.000147786,0.006840313,0.010922794,0.002300839,0.009314320,-0.000562309,1.000480522,0.000713520,0.002023778,-0.000982801,0.000000000,0.000000000,0.000000000,0.000000000,0.014706271,0.008038857,0.053714281,0.012709568,0.002183094,0.000911839,0.003437600,0.000783497,-0.000001361,-0.065799426,0.346358266,-0.073725485,-0.000576150,-0.003022174,-0.000645108,0.999994048,0.000000000,0.000000000,0.000000000,0.000000000,0.000000000,0.000000000,-0.073787689,0.000000000,3.995894432
1772426881.381035089,0.014462000,0.008000000,0.053676000,-0.002408540,0.002333620,-0.001141790,0.999993720,-0.004822000,0.004662000,-0.002295000,0.000194561,0.000101496,0.000157498,0.006299892,0.006789185,0.006027838,0.010476713,-0.000913662,0.999846361,-0.002551055,0.002628484,-0.006325605,0.000000000,0.000000000,0.000000000,0.000000000,0.014711772,0.008039168,0.053716596,0.012788747,0.002192321,0.000889704,0.003578739,0.000369815,-0.000006661,-0.064704832,0.344962600,-0.073379028,-0.000566581,-0.003010003,-0.000642049,0.999994102,0.000000000,0.000000000,0.000000000,0.000000000,0.000000000,0.000000000,-0.073345710,0.000000000,3.995894432
1772426881.391034842,0.014463000,0.008003000,0.053691000,-0.002386650,0.002237890,-0.001170610,0.999993960,-0.004779000,0.004470000,-0.002352000,-0.000008489,0.000116511,0.000283198,0.004662316,0.001356482,0.005692518,0.009495050,0.000148376,0.999748232,-0.001864910,0.005139922,-0.003389682,0.000000000,0.000000000,0.000000000,0.000000000,0.014711655,0.008041526,0.053715405,0.012857625,0.002204925,0.000868539,0.003692547,0.000833227,0.000340506,-0.063972202,0.343397792,-0.073963218,-0.000560194,-0.002996348,-0.000647120,0.999994159,0.000000000,0.000000000,0.000000000,0.000000000,0.000000000,0.000000000,-0.073822473,0.000000000,3.995894432
1772426881.401034355,0.014477000,0.007996000,0.053705000,-0.002272290,0.002104650,-0.001106920,0.999994590,-0.004549000,0.004204000,-0.002223000,-0.000055828,-0.000094988,0.000284771,0.000940613,-0.014575107,0.001260586,0.010426682,-0.000616208,1.000583103,-0.001023148,0.001820400,0.001874695,0.000000000,0.000000000,0.000000000,0.000000000,0.014708061,0.008041698,0.053709684,0.012924330,0.002267682,0.000832694,0.004229112,0.001183264,0.000489517,-0.064921466,0.343069842,-0.074927855,-0.000568501,-0.002993476,-0.000655561,0.999994159,0.000000000,0.000000000,0.000000000,0.000000000,0.000000000,0.000000000,-0.075086242,0.000000000,3.995894432
1772426881.411033630,0.014468000,0.007997000,0.053701000,-0.002248630,0.002171310,-0.001134490,0.999994470,-0.004502000,0.004338000,-0.002279000,-0.000273194,-0.000092871,-0.000228846,-0.002932247,-0.014552625,-0.002492021,0.010936733,-0.000944792,1.001086196,0.000093153,0.000242581,0.004163768,0.000000000,0.000000000,0.000000000,0.000000000,0.014709120,0.008039645,0.053704247,0.013055068,0.002274976,0.000868739,0.005202203,-0.000190544,0.001705247,-0.064637072,0.339530802,-0.073652935,-0.000565966,-0.002962600,-0.000644411,0.999994255,0.000000000,0.000000000,0.000000000,0.000000000,0.000000000,0.000000000,-0.073690873,0.000000000,3.995894432
1772426881.421033144,0.014460000,0.008002000,0.053696000,-0.002340330,0.002069440,-0.001144850,0.999994460,-0.004685000,0.004134000,-0.002299000,-0.000376846,-0.000074145,-0.000458237,-0.001820114,-0.009051451,-0.002732638,0.011299711,-0.000891878,1.001124695,-0.001800287,-0.001283639,0.002455478,0.000000000,0.000000000,0.000000000,0.000000000,0.014710548,0.008040833,0.053698723,0.013234000,0.002242354,0.000940536,0.005490269,-0.000164559,0.001501675,-0.064589302,0.339057157,-0.074360124,-0.000565565,-0.002958464,-0.000650579,0.999994278,0.000000000,0.000000000,0.000000000,0.000000000,0.000000000,0.000000000,-0.074274067,0.000000000,3.995894432
1772426881.431033850,0.014451000,0.007996000,0.053684000,-0.002389150,0.001972730,-0.001176190,0.999994510,-0.004783000,0.003940000,-0.002362000,-0.000203555,-0.000018260,-0.000568940,-0.002953207,0.007008795,-0.002871229,0.011469619,-0.001086882,1.000949585,-0.002007739,0.000460585,-0.001112746,0.000000000,0.000000000,0.000000000,0.000000000,0.014712872,0.008042808,0.053697817,0.013411786,0.002209799,0.001018974,0.004905083,-0.000070718,0.001527133,-0.064643890,0.339752996,-0.073095697,-0.000566012,-0.002964542,-0.000639549,0.999994248,0.000000000,0.000000000,0.000000000,0.000000000,0.000000000,0.000000000,-0.073466933,0.000000000,3.995894432
1772426881.441033125,0.014463000,0.007991000,0.053681000,-0.002411550,0.001877890,-0.001205440,0.999994600,-0.004828000,0.003750000,-0.002420000,0.000041706,-0.000037238,-0.000153749,-0.000640778,0.015923931,-0.002123489,0.011429402,-0.001336280,1.000795094,-0.000168136,0.003978246,-0.003925266,0.000000000,0.000000000,0.000000000,0.000000000,0.014720484,0.008040691,0.053705431,0.013560113,0.002170800,0.001116399,0.005199595,-0.000048309,0.000507951,-0.064848165,0.339903114,-0.072977904,-0.000567793,-0.002965852,-0.000638527,0.999994218,0.000000000,0.000000000,0.000000000,0.000000000,0.000000000,0.000000000,-0.072929468,0.000000000,3.995894432
1772426881.451033115,0.014451000,0.008005000,0.053670000,-0.002341770,0.002270470,-0.001172250,0.999993990,-0.004689000,0.004535000,-0.002355000,0.000397320,0.000012179,0.000181566,0.004102557,0.017381646,0.001479683,0.011318453,-0.000810206,1.000890178,-0.000418058,0.003028436,-0.002758023,0.000000000,0.000000000,0.000000000,0.000000000,0.014722385,0.008040741,0.053706862,0.013602321,0.002166217,0.001123314,0.005302880,0.000447406,0.000460957,-0.065081737,0.339931775,-0.073110690,-0.000569835,-0.002966100,-0.000639692,0.999994218,0.000000000,0.000000000,0.000000000,0.000000000,0.000000000,0.000000000,-0.073066332,0.000000000,3.995894432
1772426881.461032629,0.014469000,0.007995000,0.053695000,-0.002252180,0.002357190,-0.001129260,0.999994050,-0.004510000,0.004709000,-0.002269000,0.000390366,0.000255303,0.000326146,0.006957372,0.006799313,0.004102382,0.011207509,-0.000284157,1.000985258,-0.000667968,0.002078673,-0.001590836,0.000000000,0.000000000,0.000000000,0.000000000,0.014724285,0.008040791,0.053708294,0.013644526,0.002161634,0.001130228,0.005302536,0.001186831,0.000920069,-0.065315298,0.339960435,-0.073243469,-0.000571877,-0.002966348,-0.000640857,0.999994218,0.000000000,0.000000000,0.000000000,0.000000000,0.000000000,0.000000000,-0.073203189,0.000000000,3.995894432
1772426881.471032858,0.014473000,0.007999000,0.053697000,-0.002313230,0.002299890,-0.001194750,0.999993970,-0.004632000,0.004594000,-0.002400000,0.000191395,0.000449398,0.000311636,0.006601665,-0.009316054,0.008986705,0.011096557,0.000241929,1.001080344,-0.000917895,0.001128841,-0.000423565,0.000000000,0.000000000,0.000000000,0.000000000,0.014726186,0.008040840,0.053709725,0.013686734,0.002157051,0.001137143,0.005302191,0.001926309,0.001379214,-0.065548875,0.339989096,-0.073376258,-0.000573918,-0.002966596,-0.000642022,0.999994218,0.000000000,0.000000000,0.000000000,0.000000000,0.000000000,0.000000000,-0.073340056,0.000000000,3.995894432
1772426881.481032372,0.014467000,0.008000000,0.053695000,-0.002274200,0.002218420,-0.001080870,0.999994370,-0.004553000,0.004432000,-0.002172000,0.000020921,0.000356236,0.000125971,0.004098312,-0.021117033,0.012054565,0.010985613,0.000767978,1.001175424,-0.001167805,0.000179077,0.000743623,0.000000000,0.000000000,0.000000000,0.000000000,0.014728086,0.008040890,0.053711156,0.013728940,0.002152468,0.001144057,0.005301847,0.002665735,0.001838327,-0.065736145,0.340002068,-0.073511982,-0.000575556,-0.002966707,-0.000643212,0.999994218,0.000000000,0.000000000,0.000000000,0.000000000,0.000000000,0.000000000,-0.073476913,0.000000000,3.995894432
1772426881.491031885,0.014470000,0.008014000,0.053685000,-0.002254860,0.001987740,-0.001036530,0.999994950,-0.004514000,0.003971000,-0.002082000,0.000146115,0.000155109,0.000031974,-0.000900936,-0.027903083,0.010829531,0.010919732,0.001551083,1.000669304,-0.000425982,0.000592754,0.000809567,0.000000000,0.000000000,0.000000000,0.000000000,0.014730142,0.008041350,0.053712873,0.013796214,0.002206223,0.001176316,0.005301502,0.003405160,0.002297439,-0.064901207,0.339668614,-0.073712712,-0.000568273,-0.002963801,-0.000644940,0.999994247,0.000000000,0.000000000,0.000000000,0.000000000,0.000000000,0.000000000,-0.073675346,0.000000000,3.995894432
1772426881.501032352,0.014466000,0.008016000,0.053692000,-0.002230620,0.001719170,-0.000976080,0.999995560,-0.004465000,0.003434000,-0.001960000,0.000256818,0.000037354,-0.000031449,-0.003144976,-0.019883397,0.006648110,0.011041252,0.001921466,0.999655382,0.000652330,0.001687946,-0.000039236,0.000000000,0.000000000,0.000000000,0.000000000,0.014732764,0.008043422,0.053715106,0.013938717,0.002429007,0.001270971,0.005464130,0.002569033,-0.000143186,-0.064588583,0.339275983,-0.072847469,-0.000565521,-0.002960381,-0.000637379,0.999994278,0.000000000,0.000000000,0.000000000,0.000000000,0.000000000,0.000000000,-0.073049534,0.000000000,3.995894432
1772426881.511032343,0.014469000,0.008008000,0.053693000,-0.002242950,0.001871150,-0.000884030,0.999995340,-0.004489000,0.003738000,-0.001776000,0.000412160,-0.000259674,0.000146465,-0.005265250,-0.013050636,0.000565710,0.011578153,-0.000377827,0.999973057,-0.001554002,-0.001270573,0.000587426,0.000000000,0.000000000,0.000000000,0.000000000,0.014737522,0.008053285,0.053711337,0.014116725,0.002620808,0.001143885,0.005403818,0.001291061,-0.000136697,-0.065122669,0.338752558,-0.071735948,-0.000570150,-0.002955816,-0.000627691,0.999994278,0.000000000,0.000000000,0.000000000,0.000000000,0.000000000,0.000000000,-0.071839116,0.000000000,3.995894432
1772426881.521032095,0.014480000,0.008001000,0.053696000,-0.002319450,0.001875670,-0.000948100,0.999995100,-0.004642000,0.003747000,-0.001905000,0.000378283,-0.000340579,0.000323466,-0.005051838,-0.014456814,-0.005644678,0.011416152,-0.000439234,1.002046191,-0.000511868,-0.002230532,-0.002091501,0.000000000,0.000000000,0.000000000,0.000000000,0.014739264,0.008060247,0.053712390,0.014281935,0.002655060,0.001155832,0.005496582,0.000838814,0.001352163,-0.065484765,0.338489776,-0.071414110,-0.000573300,-0.002953522,-0.000624890,0.999994278,0.000000000,0.000000000,0.000000000,0.000000000,0.000000000,0.000000000,-0.071368110,0.000000000,3.995894432
1772426881.531032324,0.014488000,0.008000000,0.053701000,-0.002381880,0.001694550,-0.001037560,0.999995190,-0.004767000,0.003384000,-0.002083000,0.000084382,-0.000208003,0.000154934,-0.001001854,-0.012826242,-0.004526938,0.011932207,-0.000274913,1.002392873,-0.000446819,0.002543910,-0.000089801,0.000000000,0.000000000,0.000000000,0.000000000,0.014742158,0.008060528,0.053713818,0.014423841,0.002675902,0.001265473,0.005372113,0.000694321,0.001826051,-0.065074461,0.338730122,-0.071643391,-0.000569727,-0.002955621,-0.000626882,0.999994278,0.000000000,0.000000000,0.000000000,0.000000000,0.000000000,0.000000000,-0.071650386,0.000000000,3.995894432
1772426881.541032076,0.014486000,0.008001000,0.053698000,-0.002331380,0.001640040,-0.001062540,0.999995370,-0.004666000,0.003275000,-0.002133000,-0.000134110,0.000048893,-0.000058275,0.001192962,-0.019622149,0.000262892,0.011110159,-0.001356199,1.001088456,-0.000054014,-0.001420654,-0.002187816,0.000000000,0.000000000,0.000000000,0.000000000,0.014748327,0.008058369,0.053716426,0.014565684,0.002661142,0.001380655,0.004975108,0.000133027,0.001139858,-0.065128190,0.339015937,-0.071598193,-0.000570196,-0.002958115,-0.000626490,0.999994278,0.000000000,0.000000000,0.000000000,0.000000000,0.000000000,0.000000000,-0.071603158,0.000000000,3.995550524
1772426881.551032305,0.014471000,0.008002000,0.053695000,-0.002334720,0.001508930,-0.001029710,0.999995610,-0.004673000,0.003013000,-0.002066000,-0.000347805,0.000195979,-0.000170455,0.002315574,-0.020016466,0.004950560,0.011502247,-0.000472980,0.999560710,-0.000983467,-0.002763183,-0.000635963,0.000000000,0.000000000,0.000000000,0.000000000,0.014758750,0.008054778,0.053721029,0.014741628,0.002606634,0.001416282,0.005851370,0.000252719,-0.000159238,-0.064928517,0.339563537,-0.071869485,-0.000568464,-0.002962893,-0.000628855,0.999994278,0.000000000,0.000000000,0.000000000,0.000000000,0.000000000,0.000000000,-0.071850586,0.000000000,3.995029036
1772426881.561032295,0.014474000,0.008006000,0.053704000,-0.002222600,0.001338450,-0.000961030,0.999996170,-0.004448000,0.002673000,-0.001928000,-0.000299825,0.000169503,-0.000086169,0.003327606,-0.010494473,0.008258661,0.008780068,0.000178679,1.000329001,0.002187032,-0.001740759,0.000735497,0.000000000,0.000000000,0.000000000,0.000000000,0.014767089,0.008053119,0.053723567,0.014908170,0.002626666,0.001350061,0.003831429,0.001525352,-0.000007004,-0.064958952,0.340598729,-0.071390656,-0.000568722,-0.002971929,-0.000624682,0.999994221,0.000000000,0.000000000,0.000000000,0.000000000,0.000000000,0.000000000,-0.071405732,0.000000000,3.994507560
1772426881.571032047,0.014469000,0.008009000,0.053686000,-0.002274770,0.001522610,-0.000881040,0.999995870,-0.004552000,0.003041000,-0.001769000,-0.000014452,0.000032731,0.000008838,0.000211045,0.003946936,0.004900941,0.007870789,0.000932449,1.001156006,-0.001573121,0.000841307,-0.002860970,0.000000000,0.000000000,0.000000000,0.000000000,0.014764589,0.008053668,0.053722303,0.014740872,0.002735182,0.001318139,0.001261385,0.001961389,0.000778024,-0.064853750,0.340291032,-0.071364562,-0.000567802,-0.002969245,-0.000624450,0.999994218,0.000000000,0.000000000,0.000000000,0.000000000,0.000000000,0.000000000,-0.071309503,0.000000000,3.993986097
1772426881.581031561,0.014475000,0.008003000,0.053696000,-0.002357370,0.001348960,-0.000873330,0.999995930,-0.004717000,0.002694000,-0.001753000,0.000172320,-0.000125427,0.000114511,-0.003983569,0.009526025,-0.001652194,0.008194927,-0.000826603,1.000063257,0.001732982,0.001754381,0.000072517,0.000000000,0.000000000,0.000000000,0.000000000,0.014760607,0.008056462,0.053724886,0.014538448,0.002850407,0.001376642,0.002433179,0.001024517,0.000810312,-0.064283250,0.340117338,-0.071779764,-0.000562833,-0.002967730,-0.000628058,0.999994218,0.000000000,0.000000000,0.000000000,0.000000000,0.000000000,0.000000000,-0.071717644,0.000000000,3.993464646
1772426881.591031551,0.014475000,0.008005000,0.053694000,-0.002327190,0.001606600,-0.000970780,0.999995530,-0.004658000,0.003209000,-0.001949000,0.000149631,-0.000105459,-0.000198174,-0.005055480,0.025464806,-0.008328057,0.008137823,-0.002627527,0.999818475,-0.002191653,-0.003281818,-0.000315720,0.000000000,0.000000000,0.000000000,0.000000000,0.014754643,0.008060182,0.053720218,0.014351494,0.002793104,0.001313913,0.002374159,-0.000987733,-0.000494418,-0.064115194,0.339719543,-0.072311822,-0.000561378,-0.002964257,-0.000632695,0.999994221,0.000000000,0.000000000,0.000000000,0.000000000,0.000000000,0.000000000,-0.072233165,0.000000000,3.992943171
1772426881.601032019,0.014479000,0.008003000,0.053703000,-0.002291050,0.001656640,-0.000994380,0.999995510,-0.004585000,0.003309000,-0.001996000,-0.000256974,-0.000030342,-0.000485063,-0.004140231,0.040997307,-0.010286478,0.009955594,-0.000790923,0.999005653,-0.000067415,0.000830908,-0.000043888,0.000000000,0.000000000,0.000000000,0.000000000,0.014752190,0.008058722,0.053719064,0.014216154,0.002630983,0.001219651,0.003107284,-0.000185906,-0.000912266,-0.063116199,0.339200252,-0.073009692,-0.000552676,-0.002959728,-0.000638757,0.999994278,0.000000000,0.000000000,0.000000000,0.000000000,0.000000000,0.000000000,-0.072937415,0.000000000,3.992421670
1772426881.611031532,0.014476000,0.008000000,0.053690000,-0.002388150,0.001925110,-0.001057240,0.999994740,-0.004780000,0.003845000,-0.002124000,-0.000382382,-0.000027739,-0.000536092,-0.000796363,0.046287615,-0.006614310,0.010675893,0.001177652,0.998582080,0.001372856,0.000146470,-0.000352164,0.000000000,0.000000000,0.000000000,0.000000000,0.014751377,0.008057410,0.053717945,0.014219905,0.002634203,0.001086261,0.004659009,0.001933632,-0.001175593,-0.062528120,0.339299807,-0.073488192,-0.000547557,-0.002960597,-0.000642918,0.999994278,0.000000000,0.000000000,0.000000000,0.000000000,0.000000000,0.000000000,-0.073453498,0.000000000,3.991900219
1772426881.621030331,0.014466000,0.008001000,0.053683000,-0.002393470,0.001965600,-0.001080880,0.999994620,-0.004791000,0.003926000,-0.002171000,-0.000475641,-0.000037704,-0.000531527,-0.001782304,0.044762798,-0.003780118,0.011021756,0.000441160,0.999498954,-0.002610464,0.001502610,0.001921230,0.000000000,0.000000000,0.000000000,0.000000000,0.014752101,0.008056850,0.053717978,0.014291456,0.002742643,0.000970849,0.004411894,0.001987123,0.000000877,-0.062233180,0.338498108,-0.073121258,-0.000544969,-0.002953605,-0.000639704,0.999994278,0.000000000,0.000000000,0.000000000,0.000000000,0.000000000,0.000000000,-0.073166670,0.000000000,3.991378806
1772426881.631029129,0.014462000,0.008009000,0.053664000,-0.002362700,0.002550700,-0.001105590,0.999993340,-0.004731000,0.005096000,-0.002223000,-0.000180575,-0.000137859,-0.000068765,-0.002630909,0.022457259,-0.002050013,0.010508770,0.000389206,1.000462418,-0.002207199,0.002963522,0.002730913,0.000000000,0.000000000,0.000000000,0.000000000,0.014753615,0.008056313,0.053716661,0.014369362,0.002822565,0.000923887,0.004574535,0.000399605,0.000162139,-0.062357542,0.337753330,-0.072958523,-0.000546046,-0.002947105,-0.000638284,0.999994278,0.000000000,0.000000000,0.000000000,0.000000000,0.000000000,0.000000000,-0.073022220,0.000000000,3.990857392
1772426881.641028881,0.014453000,0.008002000,0.053678000,-0.002353690,0.002567930,-0.001045370,0.999993390,-0.004713000,0.005131000,-0.002103000,-0.000093609,0.000005225,0.000347650,-0.001433280,0.003773250,-0.001227179,0.010650163,0.001237940,1.000838882,0.000257465,0.001399662,0.000557920,0.000000000,0.000000000,0.000000000,0.000000000,0.014751983,0.008056300,0.053710119,0.014438292,0.002889697,0.000905674,0.005162933,0.002209301,0.000456215,-0.063199343,0.337825006,-0.071184389,-0.000553347,-0.002947735,-0.000622823,0.999994319,0.000000000,0.000000000,0.000000000,0.000000000,0.000000000,0.000000000,-0.071418534,0.000000000,3.990889948
1772426881.651027918,0.014468000,0.007995000,0.053688000,-0.002386600,0.002369250,-0.001053820,0.999993790,-0.004778000,0.004733000,-0.002119000,-0.000019406,0.000075894,0.000632304,0.001251345,-0.010476527,-0.000739670,0.010792997,0.000546067,1.000734302,-0.000428889,-0.000189836,0.000474774,0.000000000,0.000000000,0.000000000,0.000000000,0.014748401,0.008058848,0.053701668,0.014516956,0.003019140,0.000905237,0.005324872,0.001361116,0.001229692,-0.062973070,0.336234400,-0.069815144,-0.000551328,-0.002933862,-0.000610861,0.999994370,0.000000000,0.000000000,0.000000000,0.000000000,0.000000000,0.000000000,-0.069984871,0.000000000,3.991400546
1772426881.661027670,0.014465000,0.008000000,0.053696000,-0.002421040,0.002247410,-0.001169960,0.999993860,-0.004847000,0.004489000,-0.002351000,0.000001671,0.000076787,0.000364725,-0.000100486,-0.010271557,-0.004088807,0.010386071,-0.000922892,1.000684890,-0.000335403,0.000432888,0.000423498,0.000000000,0.000000000,0.000000000,0.000000000,0.014744774,0.008062430,0.053693626,0.014587019,0.003070930,0.000927370,0.004237406,0.000591204,0.000374874,-0.063169625,0.335684160,-0.069154918,-0.000553024,-0.002929062,-0.000605102,0.999994397,0.000000000,0.000000000,0.000000000,0.000000000,0.000000000,0.000000000,-0.069188292,0.000000000,3.991911182
1772426881.671027660,0.014471000,0.008002000,0.053699000,-0.002373030,0.002060690,-0.001118970,0.999994440,-0.004751000,0.004116000,-0.002248000,-0.000035023,-0.000101923,0.000095785,0.002509086,-0.004550070,-0.006079640,0.010306744,-0.000740821,1.001294877,-0.001569487,0.000076697,0.001175196,0.000000000,0.000000000,0.000000000,0.000000000,0.014743698,0.008059492,0.053698311,0.014649873,0.002984723,0.001007142,0.005552846,-0.000255984,0.001156323,-0.063249622,0.336488425,-0.068702187,-0.000553715,-0.002936082,-0.000601157,0.999994349,0.000000000,0.000000000,0.000000000,0.000000000,0.000000000,0.000000000,-0.068748713,0.000000000,3.992421829
1772426881.681027412,0.014451000,0.008011000,0.053692000,-0.002366910,0.002253920,-0.001109280,0.999994040,-0.004739000,0.004503000,-0.002229000,0.000081371,-0.000104740,-0.000174553,0.003167744,-0.000814272,-0.006102117,0.010439400,0.000595932,1.000939452,-0.002248418,-0.001438009,0.004459841,0.000000000,0.000000000,0.000000000,0.000000000,0.014747241,0.008057485,0.053705642,0.014719639,0.002958000,0.001088801,0.004216838,0.001320363,0.000629426,-0.063338597,0.337214648,-0.068174952,-0.000554481,-0.002942422,-0.000596562,0.999994338,0.000000000,0.000000000,0.000000000,0.000000000,0.000000000,0.000000000,-0.068313026,0.000000000,3.992932464
1772426881.691027403,0.014459000,0.008000000,0.053685000,-0.002321620,0.002402210,-0.001185390,0.999993720,-0.004649000,0.004799000,-0.002382000,0.000106080,-0.000203302,-0.000041472,0.002557680,-0.007458899,-0.003259145,0.010073621,0.000268361,1.001503127,0.000665597,-0.000975435,0.002973019,0.000000000,0.000000000,0.000000000,0.000000000,0.014750170,0.008058594,0.053712386,0.014755479,0.003037029,0.001173085,0.004323685,0.001916665,0.001864357,-0.063274471,0.336088532,-0.066836578,-0.000553882,-0.002932602,-0.000584875,0.999994385,0.000000000,0.000000000,0.000000000,0.000000000,0.000000000,0.000000000,-0.066980981,0.000000000,3.993443111
1772426881.701027632,0.014466000,0.007994000,0.053682000,-0.002368790,0.002396800,-0.001254120,0.999993540,-0.004744000,0.004788000,-0.002520000,0.000207440,-0.000283411,-0.000062471,-0.000557449,-0.013612225,-0.001929291,0.010156532,-0.000173519,1.001558830,0.002213136,-0.000110589,0.000449914,0.000000000,0.000000000,0.000000000,0.000000000,0.014748766,0.008062528,0.053716101,0.014753660,0.003115108,0.001308564,0.003899189,0.000674211,0.001969049,-0.063351994,0.338147672,-0.066329282,-0.000554555,-0.002950573,-0.000580460,0.999994355,0.000000000,0.000000000,0.000000000,0.000000000,0.000000000,0.000000000,-0.066390792,0.000000000,3.993953770
1772426881.711027622,0.014470000,0.007986000,0.053698000,-0.002289450,0.002135560,-0.001191300,0.999994390,-0.004584000,0.004266000,-0.002392000,0.000201496,-0.000137180,0.000185878,-0.002719501,-0.023241862,0.000226376,0.011263076,-0.000404152,0.999582568,0.001710932,0.000369535,-0.002421967,0.000000000,0.000000000,0.000000000,0.000000000,0.014744560,0.008064864,0.053715138,0.014771677,0.003115230,0.001360814,0.005629961,0.000381911,-0.000026486,-0.063795317,0.338934310,-0.066814535,-0.000558441,-0.002957433,-0.000584710,0.999994301,0.000000000,0.000000000,0.000000000,0.000000000,0.000000000,0.000000000,-0.066734567,0.000000000,3.994464418
1772426881.721028090,0.014474000,0.008001000,0.053698000,-0.002399870,0.001708850,-0.001174640,0.999994970,-0.004804000,0.003412000,-0.002357000,-0.000065074,0.000103380,0.000114044,-0.000777641,-0.016072776,0.005603404,0.011100755,-0.000373350,0.998545736,0.000799506,-0.000049941,-0.001477659,0.000000000,0.000000000,0.000000000,0.000000000,0.014746258,0.008061967,0.053712050,0.014892043,0.003087587,0.001262269,0.005552819,0.000558410,-0.001687203,-0.062332836,0.338488340,-0.066182155,-0.000545660,-0.002953552,-0.000579152,0.999994310,0.000000000,0.000000000,0.000000000,0.000000000,0.000000000,0.000000000,-0.066278867,0.000000000,3.994975089
1772426881.731028318,0.014462000,0.007998000,0.053694000,-0.002367880,0.001953240,-0.001158710,0.999994620,-0.004740000,0.003901000,-0.002327000,-0.000571931,0.000433567,-0.000047397,0.001230774,0.004904884,0.008824569,0.009677228,-0.000199746,1.000438662,-0.000490849,-0.000433067,0.002066384,0.000000000,0.000000000,0.000000000,0.000000000,0.014751199,0.008057161,0.053709976,0.014997022,0.003054541,0.001096412,0.004177675,0.000148281,0.000678941,-0.062268609,0.338287572,-0.066099167,-0.000545096,-0.002951800,-0.000578425,0.999994338,0.000000000,0.000000000,0.000000000,0.000000000,0.000000000,0.000000000,-0.066085925,0.000000000,3.995485749
1772426881.741028786,0.014458000,0.007998000,0.053683000,-0.002377540,0.002112580,-0.001141970,0.999994290,-0.004760000,0.004220000,-0.002294000,-0.000534577,0.000280167,-0.000163753,0.004685068,0.025397427,0.007358238,0.010339383,-0.000552768,1.002144321,-0.001794193,-0.000033922,-0.000514067,0.000000000,0.000000000,0.000000000,0.000000000,0.014757087,0.008052587,0.053714625,0.014836964,0.003008355,0.001127768,0.004290534,0.000826348,0.001229856,-0.061552958,0.344136704,-0.065235519,-0.000538857,-0.003002851,-0.000570897,0.999994367,0.000000000,0.000000000,0.000000000,0.000000000,0.000000000,0.000000000,-0.065844962,0.000000000,3.995894432
1772426881.751028776,0.014459000,0.008004000,0.053700000,-0.002308670,0.002037830,-0.001049630,0.999994710,-0.004622000,0.004071000,-0.002109000,-0.000195960,0.000098621,-0.000161733,0.007965590,0.025628769,0.001162672,0.011064247,0.000108167,1.003130661,-0.001630067,-0.001748640,-0.000287440,0.000000000,0.000000000,0.000000000,0.000000000,0.014713927,0.008054533,0.053711413,0.013174565,0.003044563,0.001071057,0.004741710,0.002665157,0.001949310,-0.060442902,0.352059792,-0.064030171,-0.000529177,-0.003072004,-0.000560386,0.999994273,0.000000000,0.000000000,0.000000000,0.000000000,0.000000000,0.000000000,-0.065396994,0.000000000,3.995894432
1772426881.761029482,0.014444000,0.008006000,0.053680000,-0.002249380,0.002536630,-0.001061310,0.999993690,-0.004504000,0.005068000,-0.002134000,0.000170183,-0.000213831,-0.000105730,0.008077673,0.021871177,-0.003658723,0.011600449,-0.001011933,1.001701328,0.000974386,-0.000926627,-0.001088854,0.000000000,0.000000000,0.000000000,0.000000000,0.014644187,0.008048590,0.053704428,0.013324224,0.003176619,0.001251257,0.005778774,0.000701049,0.002484441,-0.061661709,0.352403159,-0.064943358,-0.000539840,-0.003074990,-0.000568389,0.999994022,0.000000000,0.000000000,0.000000000,0.000000000,0.000000000,0.000000000,-0.064948995,0.000000000,3.995894432
1772426881.771029472,0.014454000,0.008005000,0.053692000,-0.002259420,0.002412950,-0.001095210,0.999993940,-0.004524000,0.004821000,-0.002201000,0.000591861,-0.000294911,-0.000048718,0.003160377,0.002584873,-0.006712426,0.011486373,-0.000715005,0.999679608,-0.002992530,0.001143283,-0.001762047,0.000000000,0.000000000,0.000000000,0.000000000,0.014690819,0.008054480,0.053711537,0.013768594,0.003165512,0.001373865,0.005079130,0.000166475,-0.000211841,-0.061432857,0.353647026,-0.065147695,-0.000537854,-0.003085845,-0.000570172,0.999993954,0.000000000,0.000000000,0.000000000,0.000000000,0.000000000,0.000000000,-0.065120543,0.000000000,3.995894432
1772426881.781029701,0.014471000,0.007990000,0.053692000,-0.002211960,0.002324390,-0.001165160,0.999994170,-0.004429000,0.004644000,-0.002341000,0.000565793,-0.000432654,0.000146601,0.000306354,-0.004022500,-0.006949503,0.011424586,0.000765655,0.998941998,0.000685236,0.001337341,-0.001692069,0.000000000,0.000000000,0.000000000,0.000000000,0.014719202,0.008055119,0.053713526,0.014084735,0.003189019,0.001291588,0.005582472,0.001521687,-0.000809001,-0.060808841,0.353407144,-0.065704282,-0.000532422,-0.003083752,-0.000575011,0.999993924,0.000000000,0.000000000,0.000000000,0.000000000,0.000000000,0.000000000,-0.065500872,0.000000000,3.995894432
