t,px,py,pz,qx,qy,qz,qw,roll,pitch,yaw,vx,vy,vz,wx_vicon,wy_vicon,wz_vicon,imu_acc_x,imu_acc_y,imu_acc_z,imu_gyro_x,imu_gyro_y,imu_gyro_z,motor_motor_m1,motor_motor_m2,motor_motor_m3,motor_motor_m4,est_stateEstimate_x,est_stateEstimate_y,est_stateEstimate_z,est_stateEstimate_vx,est_stateEstimate_vy,est_stateEstimate_vz,est_stateEstimate_ax,est_stateEstimate_ay,est_stateEstimate_az,att_stateEstimate_roll,att_stateEstimate_pitch,att_stateEstimate_yaw,att_stateEstimate_qx,att_stateEstimate_qy,att_stateEstimate_qz,att_stateEstimate_qw,sp_ctrltarget_x,sp_ctrltarget_y,sp_ctrltarget_z,sp_ctrltarget_yaw,pid_controller_roll,pid_controller_pitch,pid_controller_yaw,pid_controller_cmd_thrust,pwr_pm_vbat
1772662978.204985142,0.025892000,0.005823000,0.071092000,-0.003095460,0.003930800,-0.011741600,0.999918550,-0.006283000,0.007788000,-0.023509000,0.001157383,-0.000353613,-0.000637083,0.014448619,-0.022923401,-0.007806287,0.014834526,-0.004088966,1.001028099,-0.001754376,0.000021851,0.001619027,0.000000000,0.000000000,0.000000000,0.000000000,0.026360872,0.005809924,0.071129562,0.024262503,-0.000663001,0.001745977,0.008774552,0.000027258,0.001958361,-0.238577615,0.386875121,-0.919331274,-0.002108985,-0.003359301,-0.008029551,0.999958897,0.000000000,0.000000000,0.000000000,0.000000000,0.000000000,0.000000000,-0.919391075,0.000000000,4.228152752
1772662978.214985132,0.025894000,0.005828000,0.071095000,-0.003115580,0.003852360,-0.011735970,0.999918860,-0.006321000,0.007631000,-0.023497000,0.000262743,0.000074359,-0.000117852,0.004628956,-0.017366255,-0.003918255,0.014907946,-0.004173734,1.001019785,-0.001281902,-0.000170284,0.001623523,0.000000000,0.000000000,0.000000000,0.000000000,0.026360923,0.005810347,0.071129497,0.024272660,-0.000657878,0.001758647,0.008887096,-0.000041795,0.001694531,-0.238502255,0.386775918,-0.919206247,-0.002108317,-0.003358443,-0.008028456,0.999958912,0.000000000,0.000000000,0.000000000,0.000000000,0.000000000,0.000000000,-0.919269389,0.000000000,4.228152752
1772662978.224985600,0.025905000,0.005823000,0.071082000,-0.003040830,0.003838800,-0.011787030,0.999918540,-0.006172000,0.007605000,-0.023598000,-0.000188073,0.000207226,0.000160936,-0.000583508,-0.008650239,-0.002304977,0.014981370,-0.004258507,1.001011470,-0.000809405,-0.000362427,0.001628018,0.000000000,0.000000000,0.000000000,0.000000000,0.026360973,0.005810770,0.071129432,0.024282817,-0.000652754,0.001771318,0.008999646,-0.000110850,0.001430688,-0.238426891,0.386676710,-0.919081215,-0.002107649,-0.003357584,-0.008027361,0.999958928,0.000000000,0.000000000,0.000000000,0.000000000,0.000000000,0.000000000,-0.919147697,0.000000000,4.228152752
1772662978.234986305,0.025892000,0.005822000,0.071101000,-0.003041940,0.003728450,-0.011784280,0.999918980,-0.006171000,0.007385000,-0.023592000,-0.000304157,0.000137296,0.000251729,-0.002221156,0.001156837,-0.002137042,0.015054795,-0.004343281,1.001003155,-0.000336897,-0.000554575,0.001632514,0.000000000,0.000000000,0.000000000,0.000000000,0.026361024,0.005811193,0.071129367,0.024292974,-0.000647631,0.001783989,0.009112199,-0.000179907,0.001166838,-0.238351525,0.386577499,-0.918956179,-0.002106981,-0.003356726,-0.008026266,0.999958943,0.000000000,0.000000000,0.000000000,0.000000000,0.000000000,0.000000000,-0.919026003,0.000000000,4.228152752
1772662978.244986296,0.025896000,0.005833000,0.071087000,-0.003080570,0.003712560,-0.011818590,0.999918520,-0.006249000,0.007352000,-0.023661000,-0.000194600,-0.000043124,0.000206974,-0.001313086,0.009986743,-0.002580448,0.015128215,-0.004428049,1.000994841,0.000135577,-0.000746709,0.001637009,0.000000000,0.000000000,0.000000000,0.000000000,0.026361075,0.005811616,0.071129302,0.024303130,-0.000642507,0.001796659,0.009224744,-0.000248960,0.000903008,-0.238276165,0.386478296,-0.918831153,-0.002106312,-0.003355868,-0.008025171,0.999958959,0.000000000,0.000000000,0.000000000,0.000000000,0.000000000,0.000000000,-0.918904317,0.000000000,4.228152752
1772662978.254986763,0.025880000,0.005824000,0.071099000,-0.003100050,0.003831140,-0.011806170,0.999918160,-0.006290000,0.007589000,-0.023637000,0.000031507,-0.000241725,0.000079118,0.001111634,0.015771298,-0.002802239,0.015201639,-0.004512821,1.000986526,0.000608074,-0.000938853,0.001641504,0.000000000,0.000000000,0.000000000,0.000000000,0.026361125,0.005812040,0.071129237,0.024313287,-0.000637384,0.001809330,0.009337294,-0.000318015,0.000639165,-0.238200801,0.386379088,-0.918706120,-0.002105644,-0.003355010,-0.008024075,0.999958974,0.000000000,0.000000000,0.000000000,0.000000000,0.000000000,0.000000000,-0.918782625,0.000000000,4.228152752
1772662978.264986515,0.025904000,0.005823000,0.071099000,-0.003065500,0.004032540,-0.011789130,0.999917680,-0.006226000,0.007992000,-0.023604000,0.000155614,-0.000143745,-0.000079604,0.002499054,0.009517310,0.001808511,0.015275057,-0.004597587,1.000978211,0.001080537,-0.001130982,0.001645999,0.000000000,0.000000000,0.000000000,0.000000000,0.026361176,0.005812463,0.071129172,0.024323443,-0.000632260,0.001821999,0.009449835,-0.000387066,0.000375341,-0.238145935,0.386262496,-0.918535008,-0.002105152,-0.003354000,-0.008022579,0.999958990,0.000000000,0.000000000,0.000000000,0.000000000,0.000000000,0.000000000,-0.918660942,0.000000000,4.228152752
1772662978.274986744,0.025896000,0.005822000,0.071094000,-0.003046180,0.004044450,-0.011851110,0.999916950,-0.006188000,0.008016000,-0.023728000,0.000251146,-0.000057265,-0.000167541,0.006460736,0.000298086,0.003753855,0.014320453,-0.005217029,1.000771092,0.002847918,0.001782791,0.001294377,0.000000000,0.000000000,0.000000000,0.000000000,0.026362731,0.005812566,0.071127686,0.024354795,-0.000640238,0.001815998,0.009562383,-0.000456120,0.000111504,-0.238463060,0.385830216,-0.917527255,-0.002107860,-0.003350224,-0.008013787,0.999959036,0.000000000,0.000000000,0.000000000,0.000000000,0.000000000,0.000000000,-0.918118083,0.000000000,4.228152752
1772662978.284987450,0.025901000,0.005813000,0.071089000,-0.002987630,0.003947390,-0.011812150,0.999917980,-0.006068000,0.007824000,-0.023649000,0.000072125,0.000026030,-0.000063889,0.006858771,-0.006406652,0.004250754,0.013713671,-0.005701976,1.000779032,0.001756386,0.002867831,0.001633250,0.000000000,0.000000000,0.000000000,0.000000000,0.026367313,0.005811198,0.071124137,0.024399018,-0.000726294,0.001778713,0.005708635,-0.002270857,0.001514092,-0.236769273,0.385052416,-0.916648375,-0.002092999,-0.003343571,-0.008006054,0.999959187,0.000000000,0.000000000,0.000000000,0.000000000,0.000000000,0.000000000,-0.917047017,0.000000000,4.228152752
1772662978.294986725,0.025899000,0.005822000,0.071092000,-0.002971270,0.003920000,-0.011762400,0.999918720,-0.006035000,0.007770000,-0.023549000,0.000170124,0.000150330,-0.000192405,0.004590338,-0.010276438,0.004393274,0.014636942,-0.004236073,1.000941603,-0.000367837,0.001225282,-0.000307938,0.000000000,0.000000000,0.000000000,0.000000000,0.026364505,0.005810804,0.071127969,0.024283599,-0.000835232,0.001839646,0.007751040,-0.000035121,0.001029089,-0.235039451,0.383891079,-0.915767275,-0.002077798,-0.003333573,-0.007998294,0.999959327,0.000000000,0.000000000,0.000000000,0.000000000,0.000000000,0.000000000,-0.916161253,0.000000000,4.228152752
1772662978.304987192,0.025899000,0.005831000,0.071088000,-0.002962360,0.003684000,-0.011650060,0.999920960,-0.006010000,0.007298000,-0.023323000,0.000030439,0.000103730,-0.000063636,0.001569859,-0.010231257,0.008000484,0.013400249,-0.004353655,1.001064089,0.003689103,0.002749670,-0.000229652,0.000000000,0.000000000,0.000000000,0.000000000,0.026362095,0.005813472,0.071126327,0.024266938,-0.000773124,0.001850446,0.007140488,0.000634554,0.001246896,-0.234508395,0.382988534,-0.914814711,-0.002073073,-0.003325752,-0.007989950,0.999959398,0.000000000,0.000000000,0.000000000,0.000000000,0.000000000,0.000000000,-0.915235124,0.000000000,4.228152752
1772662978.314986706,0.025898000,0.005825000,0.071097000,-0.002929030,0.003830070,-0.011748270,0.999919360,-0.005948000,0.007591000,-0.023520000,0.000110082,-0.000085917,0.000032789,-0.000659534,-0.005267384,0.007709864,0.013445293,-0.006007218,1.000144693,0.003860865,-0.000783523,0.001867105,0.000000000,0.000000000,0.000000000,0.000000000,0.026356578,0.005811570,0.071130737,0.024147667,-0.000773730,0.001896513,0.005936237,-0.002422893,0.001419583,-0.233593178,0.382209856,-0.914110900,-0.002065012,-0.003319034,-0.007983769,0.999959500,0.000000000,0.000000000,0.000000000,0.000000000,0.000000000,0.000000000,-0.914405194,0.000000000,4.228152752
1772662978.324986458,0.025902000,0.005819000,0.071087000,-0.002983690,0.003932730,-0.011721940,0.999919110,-0.006059000,0.007795000,-0.023468000,0.000072630,-0.000255536,0.000060218,-0.001280916,0.002586350,0.003461455,0.014456521,-0.005649553,0.999581369,0.000990825,-0.003827805,0.002270678,0.000000000,0.000000000,0.000000000,0.000000000,0.026361749,0.005808588,0.071131983,0.024099272,-0.000970475,0.001843500,0.008482194,-0.001800159,-0.001370745,-0.232147442,0.381868018,-0.912511855,-0.002052326,-0.003316180,-0.007969768,0.999959627,0.000000000,0.000000000,0.000000000,0.000000000,0.000000000,0.000000000,-0.913285617,0.000000000,4.228152752
1772662978.334986687,0.025912000,0.005819000,0.071088000,-0.002980260,0.003790650,-0.011630190,0.999920740,-0.006048000,0.007511000,-0.023284000,-0.000055284,-0.000393823,-0.000009771,-0.001841157,0.008548127,0.000160581,0.014449741,-0.004543418,1.000868242,-0.002507970,0.000814783,0.001759683,0.000000000,0.000000000,0.000000000,0.000000000,0.026362278,0.005803712,0.071128906,0.024150794,-0.001072278,0.001735577,0.007575198,-0.001508209,0.001499572,-0.231267539,0.383136522,-0.911260517,-0.002044699,-0.003327333,-0.007958843,0.999959700,0.000000000,0.000000000,0.000000000,0.000000000,0.000000000,0.000000000,-0.911850867,0.000000000,4.228152752
1772662978.344986677,0.025896000,0.005818000,0.071092000,-0.002981670,0.003761720,-0.011572610,0.999921510,-0.006050000,0.007454000,-0.023169000,-0.000179779,-0.000184965,-0.000012626,-0.001325658,0.006113871,-0.005222626,0.012927343,-0.004205440,1.001248092,-0.000975998,0.001214527,0.001684997,0.000000000,0.000000000,0.000000000,0.000000000,0.026472367,0.005794041,0.071134338,0.024450285,-0.001143236,0.001830529,0.006717848,-0.000481607,0.001590328,-0.230784000,0.382308301,-0.910043916,-0.002040387,-0.003320161,-0.007948200,0.999959819,0.000000000,0.000000000,0.000000000,0.000000000,0.000000000,0.000000000,-0.910606484,0.000000000,4.228152752
1772662978.354986906,0.025896000,0.005809000,0.071094000,-0.002979700,0.003879660,-0.011725510,0.999919290,-0.006050000,0.007689000,-0.023475000,-0.000394658,0.000102992,-0.000008566,-0.000017296,-0.000577326,-0.006053300,0.013090550,-0.003459928,1.001675497,0.002018646,0.001091072,0.001887570,0.000000000,0.000000000,0.000000000,0.000000000,0.026743963,0.005781419,0.071155275,0.025134340,-0.001158226,0.001992417,0.006236277,-0.000038754,0.001426719,-0.231351562,0.381588133,-0.909225372,-0.002045267,-0.003313851,-0.007941061,0.999959889,0.000000000,0.000000000,0.000000000,0.000000000,0.000000000,0.000000000,-0.909642541,0.000000000,4.228152752
1772662978.364986897,0.025901000,0.005817000,0.071091000,-0.002966540,0.004019630,-0.011753500,0.999918450,-0.006027000,0.007969000,-0.023532000,-0.000281255,0.000241317,-0.000032226,-0.001196570,-0.001130326,-0.007182706,0.014707855,-0.002764693,1.000787148,-0.001883650,-0.002125338,0.001401325,0.000000000,0.000000000,0.000000000,0.000000000,0.027008543,0.005769621,0.071176668,0.025825652,-0.001112270,0.002127969,0.007722983,0.000425312,0.001028551,-0.230406062,0.380948237,-0.908187650,-0.002036942,-0.003308352,-0.007931966,0.999959958,0.000000000,0.000000000,0.000000000,0.000000000,0.000000000,0.000000000,-0.908675855,0.000000000,4.228152752
1772662978.374987602,0.025887000,0.005819000,0.071087000,-0.003017260,0.003911060,-0.011778590,0.999918430,-0.006126000,0.007750000,-0.023582000,-0.000093881,0.000164200,-0.000028982,-0.002934863,-0.001507323,-0.004088799,0.016741054,-0.004157330,1.000795163,-0.000281382,-0.001043959,0.002987003,0.000000000,0.000000000,0.000000000,0.000000000,0.027283027,0.005758262,0.071199357,0.026732657,-0.001062192,0.002214809,0.009913144,0.000166686,0.000933418,-0.229884344,0.380443390,-0.907339674,-0.002032330,-0.003303997,-0.007924543,0.999960073,0.000000000,0.000000000,0.000000000,0.000000000,0.000000000,0.000000000,-0.907778988,0.000000000,4.228152752
1772662978.384987593,0.025893000,0.005825000,0.071091000,-0.002973700,0.003712980,-0.011838140,0.999918610,-0.006035000,0.007355000,-0.023699000,0.000065035,0.000158994,0.000107343,-0.001663934,-0.008616667,0.001101772,0.015984170,-0.003993311,1.002295524,0.003549373,0.003896331,-0.002175812,0.000000000,0.000000000,0.000000000,0.000000000,0.027578229,0.005746630,0.071224154,0.027781083,-0.001088638,0.002370925,0.009712872,-0.000111433,0.001624005,-0.229718016,0.380133624,-0.906541788,-0.002030834,-0.003301320,-0.007917570,0.999960137,0.000000000,0.000000000,0.000000000,0.000000000,0.000000000,0.000000000,-0.906810845,0.000000000,4.228152752
1772662978.394987583,0.025887000,0.005824000,0.071092000,-0.003000190,0.003801040,-0.011698250,0.999919850,-0.006089000,0.007531000,-0.023420000,-0.000150661,0.000160529,0.000188151,0.001766148,-0.010532426,0.002566252,0.015363213,-0.002923195,1.001561304,0.002435589,0.000445536,-0.002798751,0.000000000,0.000000000,0.000000000,0.000000000,0.027880119,0.005735197,0.071250422,0.028775454,-0.001046955,0.002552417,0.008598109,0.000334352,0.001465927,-0.228934828,0.379100934,-0.906416546,-0.002023925,-0.003292365,-0.007916436,0.999960197,0.000000000,0.000000000,0.000000000,0.000000000,0.000000000,0.000000000,-0.906342863,0.000000000,4.228152752
1772662978.404987097,0.025903000,0.005822000,0.071089000,-0.003057410,0.003773280,-0.011715220,0.999919580,-0.006203000,0.007474000,-0.023454000,-0.000185898,0.000088151,0.000239686,0.007158251,-0.013297529,0.000094999,0.015412234,-0.004324446,1.000079531,-0.001831162,0.005364203,0.000173233,0.000000000,0.000000000,0.000000000,0.000000000,0.027124430,0.005772778,0.071189763,0.022776925,-0.000720750,0.002062172,0.007740285,-0.000374190,0.000631599,-0.228835332,0.399912653,-0.908646298,-0.002024568,-0.003473941,-0.007936253,0.999960244,0.000000000,0.000000000,0.000000000,0.000000000,0.000000000,0.000000000,-0.911640428,0.000000000,4.228152752
1772662978.414987087,0.025889000,0.005817000,0.071103000,-0.002954040,0.003739090,-0.011744430,0.999919680,-0.005996000,0.007408000,-0.023512000,-0.000033761,0.000114685,0.000147689,0.010597238,-0.014857399,-0.001521690,0.016625749,-0.005249613,0.998030028,-0.001825688,0.008068816,-0.002052076,0.000000000,0.000000000,0.000000000,0.000000000,0.026276479,0.005809977,0.071121564,0.017200989,-0.000434656,0.001488302,0.007699382,-0.001089518,-0.000879935,-0.231009349,0.449735507,-0.913283512,-0.002047135,-0.003908477,-0.007977646,0.999957780,0.000000000,0.000000000,0.000000000,0.000000000,0.000000000,0.000000000,-0.914017440,0.000000000,4.228152752
1772662978.424987078,0.025885000,0.005829000,0.071098000,-0.002879040,0.003595730,-0.011775180,0.999920060,-0.005842000,0.007123000,-0.023572000,-0.000131022,-0.000016861,-0.000074961,0.009888669,-0.008728087,-0.001947623,0.015410802,-0.004925348,0.997652955,-0.001088674,0.004237288,0.000143307,0.000000000,0.000000000,0.000000000,0.000000000,0.026113032,0.005811027,0.071106914,0.017680806,-0.000484433,0.001169257,0.008068926,-0.001527131,-0.002709354,-0.233620303,0.443575036,-0.934567416,-0.002070205,-0.003854153,-0.008163356,0.999956168,0.000000000,0.000000000,0.000000000,0.000000000,0.000000000,0.000000000,-0.925662565,0.000000000,4.228152752
1772662978.434987545,0.025881000,0.005830000,0.071093000,-0.002818540,0.003594380,-0.011816060,0.999919760,-0.005722000,0.007122000,-0.023653000,-0.000001243,0.000063772,-0.000129448,0.008282400,-0.000989112,0.001226882,0.013894915,-0.004441163,0.999543622,0.002250971,-0.001795730,0.001638670,0.000000000,0.000000000,0.000000000,0.000000000,0.026182803,0.005811409,0.071108435,0.018318077,-0.000558406,0.000954326,0.006180746,-0.000393601,-0.000605133,-0.233477899,0.441721328,-0.934723330,-0.002068835,-0.003837985,-0.008164678,0.999956134,0.000000000,0.000000000,0.000000000,0.000000000,0.000000000,0.000000000,-0.934701836,0.000000000,4.228152752
1772662978.444988012,0.025892000,0.005826000,0.071096000,-0.002786950,0.003406310,-0.011743540,0.999921360,-0.005654000,0.006747000,-0.023507000,0.000052331,0.000017133,-0.000105420,-0.000021567,0.005746090,0.007003523,0.013674421,-0.005080029,1.001004492,0.000494055,0.000894030,-0.001462545,0.000000000,0.000000000,0.000000000,0.000000000,0.026220864,0.005812368,0.071109247,0.018657448,-0.000608983,0.000923386,0.005599562,-0.000529364,0.000647357,-0.233049057,0.441674859,-0.934177387,-0.002065072,-0.003837620,-0.008159898,0.999956208,0.000000000,0.000000000,0.000000000,0.000000000,0.000000000,0.000000000,-0.934463683,0.000000000,4.228152752
1772662978.454988480,0.025897000,0.005822000,0.071091000,-0.002847850,0.003607320,-0.011731520,0.999920620,-0.005780000,0.007147000,-0.023484000,0.000335354,-0.000105400,-0.000134480,-0.007745305,0.013551931,0.005552989,0.013867967,-0.002597722,0.999075730,0.001673672,0.001824335,-0.003539387,0.000000000,0.000000000,0.000000000,0.000000000,0.026245525,0.005811597,0.071108550,0.018926895,-0.000596845,0.000931371,0.006660992,0.001082814,-0.000322183,-0.232174578,0.440157589,-0.932948729,-0.002057292,-0.003824464,-0.008149121,0.999956363,0.000000000,0.000000000,0.000000000,0.000000000,0.000000000,0.000000000,-0.933734756,0.000000000,4.228152752
1772662978.464988708,0.025887000,0.005819000,0.071089000,-0.002882500,0.003942180,-0.011666120,0.999920020,-0.005857000,0.007817000,-0.023356000,0.000214511,-0.000083178,0.000126748,-0.008520965,0.015536950,0.002108367,0.014409536,-0.003263356,0.999993439,-0.002064085,-0.000425127,0.001476136,0.000000000,0.000000000,0.000000000,0.000000000,0.026255545,0.005809706,0.071113684,0.019202416,-0.000419856,0.000835088,0.006347069,0.000696253,0.000128109,-0.231992649,0.439220338,-0.931437712,-0.002055588,-0.003816325,-0.008135913,0.999956515,0.000000000,0.000000000,0.000000000,0.000000000,0.000000000,0.000000000,-0.931853873,0.000000000,4.228152752
1772662978.474989414,0.025895000,0.005832000,0.071098000,-0.002909530,0.003793360,-0.011619180,0.999921070,-0.005907000,0.007519000,-0.023261000,-0.000013578,0.000063345,0.000096018,-0.005907005,0.011054772,-0.003394881,0.013900518,-0.004453312,0.999854849,0.000807770,-0.000498961,-0.000071949,0.000000000,0.000000000,0.000000000,0.000000000,0.026257694,0.005816209,0.071113839,0.019366113,-0.000345344,0.000836459,0.006299681,-0.001250206,0.000035517,-0.232367839,0.439680069,-0.930600753,-0.002058866,-0.003820325,-0.008128630,0.999956548,0.000000000,0.000000000,0.000000000,0.000000000,0.000000000,0.000000000,-0.930952240,0.000000000,4.228152752
1772662978.484989405,0.025893000,0.005822000,0.071097000,-0.003015720,0.003690100,-0.011723660,0.999919920,-0.006118000,0.007309000,-0.023470000,-0.000239122,0.000060587,0.000082518,0.000257218,0.002000515,-0.006663750,0.014804341,-0.004620482,0.999553112,-0.001510901,0.000558720,-0.000017542,0.000000000,0.000000000,0.000000000,0.000000000,0.026259241,0.005819462,0.071110777,0.019536954,-0.000463371,0.000770976,0.007072943,-0.000570341,-0.000318949,-0.233367102,0.437398324,-0.929972592,-0.002067404,-0.003800355,-0.008123142,0.999956621,0.000000000,0.000000000,0.000000000,0.000000000,0.000000000,0.000000000,-0.930224247,0.000000000,4.228152752
1772662978.494989872,0.025898000,0.005823000,0.071092000,-0.002921110,0.003914740,-0.011817630,0.999918240,-0.005934000,0.007760000,-0.023659000,-0.000173990,0.000086111,0.000076282,0.006071535,0.001132539,-0.002803960,0.016186693,-0.003371131,0.999258070,-0.000178959,-0.001841766,-0.000779683,0.000000000,0.000000000,0.000000000,0.000000000,0.026267501,0.005818209,0.071109941,0.019838190,-0.000434903,0.000690332,0.008416674,0.000916609,-0.001314153,-0.233636275,0.437509312,-0.928887596,-0.002069725,-0.003801324,-0.008113685,0.999956701,0.000000000,0.000000000,0.000000000,0.000000000,0.000000000,0.000000000,-0.929507104,0.000000000,4.228152752
1772662978.504990101,0.025887000,0.005830000,0.071101000,-0.002865220,0.003803300,-0.011764600,0.999919460,-0.005820000,0.007539000,-0.023552000,0.000053924,-0.000101263,-0.000033508,0.006935525,0.008651911,0.001571146,0.015640868,-0.004106662,0.999430986,0.001575401,-0.000330703,-0.000197477,0.000000000,0.000000000,0.000000000,0.000000000,0.026274636,0.005816665,0.071106801,0.020108234,-0.000361438,0.000557231,0.008991543,-0.000345973,-0.000143803,-0.233712877,0.437291116,-0.927953277,-0.002070347,-0.003799431,-0.008105530,0.999956785,0.000000000,0.000000000,0.000000000,0.000000000,0.000000000,0.000000000,-0.928434739,0.000000000,4.228152752
1772662978.514991045,0.025884000,0.005823000,0.071091000,-0.002852040,0.003827980,-0.011772590,0.999919310,-0.005794000,0.007588000,-0.023568000,0.000072747,-0.000043065,-0.000072708,0.002519742,0.010280710,0.005340812,0.014778511,-0.004866212,1.000861149,0.000332704,0.001356968,0.000357755,0.000000000,0.000000000,0.000000000,0.000000000,0.026278275,0.005814068,0.071102694,0.020489296,-0.000425225,0.000546394,0.007272875,-0.000818047,0.000638206,-0.233427613,0.437084672,-0.926795922,-0.002067804,-0.003797670,-0.008095418,0.999956875,0.000000000,0.000000000,0.000000000,0.000000000,0.000000000,0.000000000,-0.927447201,0.000000000,4.228152752
1772662978.524991035,0.025889000,0.005823000,0.071098000,-0.002808080,0.003841910,-0.011678980,0.999920470,-0.005706000,0.007618000,-0.023380000,0.000195105,0.000059188,0.000031857,-0.000751983,-0.003983013,0.004633924,0.012459205,-0.004597858,1.001510084,-0.001671432,0.001338262,0.001239082,0.000000000,0.000000000,0.000000000,0.000000000,0.026286250,0.005818932,0.071106323,0.020598356,-0.000455401,0.000641243,0.005125905,-0.001460849,0.002278944,-0.233093716,0.435951993,-0.925253192,-0.002064759,-0.003787838,-0.008081925,0.999957002,0.000000000,0.000000000,0.000000000,0.000000000,0.000000000,0.000000000,-0.926080174,0.000000000,4.228152752
1772662978.534991264,0.025899000,0.005828000,0.071095000,-0.002851100,0.004129830,-0.011614240,0.999919960,-0.005798000,0.008193000,-0.023253000,0.000129293,-0.000071309,0.000045707,-0.003549240,-0.017504672,0.000206625,0.012994222,-0.003838184,1.000544114,-0.001216493,0.001258334,0.003299043,0.000000000,0.000000000,0.000000000,0.000000000,0.026289564,0.005815598,0.071108507,0.020554077,-0.000547790,0.000830001,0.005653165,0.000749549,0.000321840,-0.232473104,0.435049716,-0.923596442,-0.002059226,-0.003780038,-0.008067432,0.999957155,0.000000000,0.000000000,0.000000000,0.000000000,0.000000000,0.000000000,-0.924365617,0.000000000,4.228152752
1772662978.544991255,0.025903000,0.005817000,0.071095000,-0.002934380,0.003819990,-0.011706140,0.999919880,-0.005958000,0.007571000,-0.023436000,0.000021639,-0.000136403,0.000129448,-0.003399688,-0.021486108,-0.004967276,0.014038312,-0.004140932,1.000505953,0.000277170,0.000243380,0.001271584,0.000000000,0.000000000,0.000000000,0.000000000,0.026292733,0.005815202,0.071108853,0.020627377,-0.000420195,0.000791575,0.006435689,0.000201167,0.000905312,-0.232637668,0.433345013,-0.921732356,-0.002060481,-0.003765184,-0.008051141,0.999957361,0.000000000,0.000000000,0.000000000,0.000000000,0.000000000,0.000000000,-0.922595396,0.000000000,4.228152752
1772662978.554991007,0.025890000,0.005832000,0.071098000,-0.002983050,0.003517520,-0.011773030,0.999920060,-0.006049000,0.006964000,-0.023568000,-0.000097281,-0.000081041,0.000127487,-0.005554835,-0.024189632,-0.008080967,0.013828258,-0.006303622,1.000555895,0.000221234,-0.002107783,0.002034780,0.000000000,0.000000000,0.000000000,0.000000000,0.026289969,0.005817568,0.071111932,0.020739864,-0.000481033,0.000890729,0.006584367,-0.002467755,0.001390112,-0.231712777,0.434225486,-0.920030953,-0.002052416,-0.003772963,-0.008036280,0.999957486,0.000000000,0.000000000,0.000000000,0.000000000,0.000000000,0.000000000,-0.920784809,0.000000000,4.228152752
1772662978.564990759,0.025891000,0.005819000,0.071100000,-0.002864860,0.003420150,-0.011815190,0.999920250,-0.005810000,0.006772000,-0.023651000,-0.000226418,-0.000061500,0.000016803,-0.008622116,-0.019568030,-0.007631139,0.014751840,-0.005854555,0.999324263,-0.000442390,-0.001167614,0.001366054,0.000000000,0.000000000,0.000000000,0.000000000,0.026289470,0.005814135,0.071110881,0.020859205,-0.000728060,0.000864847,0.006347865,-0.002503163,-0.000647815,-0.230197370,0.435089466,-0.917228638,-0.002039160,-0.003780658,-0.008011790,0.999957661,0.000000000,0.000000000,0.000000000,0.000000000,0.000000000,0.000000000,-0.918483107,0.000000000,4.228152752
1772662978.574990749,0.025887000,0.005818000,0.071100000,-0.002919580,0.003490060,-0.011774300,0.999920330,-0.005921000,0.006911000,-0.023570000,-0.000066395,-0.000108003,0.000202895,-0.006713290,-0.004305627,-0.003545385,0.015547927,-0.004788664,1.001273106,0.001058150,-0.001792429,0.000069605,0.000000000,0.000000000,0.000000000,0.000000000,0.026295590,0.005811849,0.071112010,0.021073293,-0.000884444,0.000860044,0.007855158,-0.000696814,0.001339099,-0.230639096,0.434925776,-0.917666418,-0.002043018,-0.003779191,-0.008015622,0.999957626,0.000000000,0.000000000,0.000000000,0.000000000,0.000000000,0.000000000,-0.917814343,0.000000000,4.228152752
1772662978.584991217,0.025891000,0.005819000,0.071104000,-0.003035990,0.003550490,-0.011821720,0.999919210,-0.006156000,0.007029000,-0.023666000,0.000069852,-0.000040482,0.000262452,-0.003760310,0.018331645,0.000314680,0.015052556,-0.005647051,1.001837122,0.000987231,-0.003782366,0.000729271,0.000000000,0.000000000,0.000000000,0.000000000,0.026305593,0.005806827,0.071112443,0.021355172,-0.000960489,0.000996225,0.008069507,-0.001536310,0.001610366,-0.230497551,0.436609568,-0.915879333,-0.002041841,-0.003793926,-0.008000052,0.999957697,0.000000000,0.000000000,0.000000000,0.000000000,0.000000000,0.000000000,-0.916453249,0.000000000,4.228152752
1772662978.594991207,0.025898000,0.005824000,0.071095000,-0.003118750,0.003597640,-0.011842060,0.999918540,-0.006322000,0.007121000,-0.023707000,0.000175233,0.000051515,0.000099650,-0.002520488,0.025045859,0.000532734,0.014769050,-0.006157550,0.999798839,-0.001595392,0.001237883,0.001164720,0.000000000,0.000000000,0.000000000,0.000000000,0.026307375,0.005807678,0.071115089,0.021562368,-0.001107262,0.001105539,0.006904125,-0.002067031,0.000450514,-0.229082750,0.437723936,-0.914844306,-0.002029538,-0.003803768,-0.007990993,0.999957762,0.000000000,0.000000000,0.000000000,0.000000000,0.000000000,0.000000000,-0.915360534,0.000000000,4.228152752
1772662978.604990721,0.025889000,0.005823000,0.071107000,-0.003073540,0.003665350,-0.011776340,0.999919210,-0.006233000,0.007258000,-0.023576000,0.000031721,0.000204002,-0.000016511,0.000811915,0.022373941,0.000263658,0.013265168,-0.004380720,0.999333069,-0.000733653,0.005381540,-0.002714701,0.000000000,0.000000000,0.000000000,0.000000000,0.026307518,0.005807103,0.071116409,0.021611899,-0.001171301,0.001111293,0.006215097,-0.001561739,-0.000510840,-0.228835512,0.437464510,-0.914159333,-0.002027340,-0.003801533,-0.007985002,0.999957811,0.000000000,0.000000000,0.000000000,0.000000000,0.000000000,0.000000000,-0.914271805,0.000000000,4.228152752
1772662978.614990711,0.025898000,0.005816000,0.071114000,-0.002932770,0.003904180,-0.011819680,0.999918220,-0.005958000,0.007738000,-0.023663000,-0.000011966,0.000075777,-0.000090851,0.004040099,0.014446293,-0.002921185,0.013454805,-0.004570036,0.999793354,-0.000374699,0.002978506,-0.003396212,0.000000000,0.000000000,0.000000000,0.000000000,0.026307890,0.005805243,0.071117108,0.021614829,-0.001201581,0.001084429,0.006401228,-0.001151810,-0.000294774,-0.228648421,0.436918274,-0.913893427,-0.002025660,-0.003796784,-0.007982666,0.999957844,0.000000000,0.000000000,0.000000000,0.000000000,0.000000000,0.000000000,-0.914025062,0.000000000,4.228152752
1772662978.624990702,0.025888000,0.005827000,0.071102000,-0.002949900,0.003972980,-0.011825900,0.999917830,-0.005994000,0.007876000,-0.023676000,-0.000177176,0.000057712,-0.000088403,0.001602695,0.007481971,-0.003341552,0.013644443,-0.004759352,1.000253639,-0.000015745,0.000575471,-0.004077724,0.000000000,0.000000000,0.000000000,0.000000000,0.026308263,0.005803382,0.071117807,0.021617758,-0.001231862,0.001057564,0.006587359,-0.000741881,-0.000078708,-0.228461330,0.436372038,-0.913627520,-0.002023981,-0.003792035,-0.007980330,0.999957876,0.000000000,0.000000000,0.000000000,0.000000000,0.000000000,0.000000000,-0.913778319,0.000000000,4.228152752
1772662978.634990454,0.025894000,0.005829000,0.071092000,-0.003019630,0.003906080,-0.011839420,0.999917720,-0.006131000,0.007740000,-0.023703000,-0.000263889,0.000031799,-0.000050699,0.001285394,-0.002557702,-0.003259612,0.013834076,-0.004948663,1.000713912,0.000343201,-0.001827506,-0.004759219,0.000000000,0.000000000,0.000000000,0.000000000,0.026307962,0.005800825,0.071118548,0.021639224,-0.001259297,0.001039698,0.006497035,-0.000529839,0.000202420,-0.228291424,0.435841434,-0.913385240,-0.002022453,-0.003787421,-0.007978201,0.999957909,0.000000000,0.000000000,0.000000000,0.000000000,0.000000000,0.000000000,-0.913531582,0.000000000,4.228152752
1772662978.644989967,0.025888000,0.005820000,0.071102000,-0.002989570,0.003837340,-0.011861290,0.999917820,-0.006070000,0.007603000,-0.023747000,-0.000073893,-0.000035431,-0.000074942,0.001157774,-0.011524020,-0.003254128,0.013874488,-0.005211429,0.999755468,0.000126655,-0.000686168,-0.003984199,0.000000000,0.000000000,0.000000000,0.000000000,0.026307423,0.005797653,0.071119612,0.021667481,-0.001295537,0.001027925,0.005311176,-0.001101966,0.000741394,-0.228540262,0.435691525,-0.913718660,-0.002024625,-0.003786090,-0.007981117,0.999957919,0.000000000,0.000000000,0.000000000,0.000000000,0.000000000,0.000000000,-0.913513192,0.000000000,4.228152752
1772662978.654989481,0.025889000,0.005823000,0.071104000,-0.003047190,0.003756160,-0.011935080,0.999917080,-0.006184000,0.007439000,-0.023894000,-0.000027176,-0.000141356,0.000067774,0.002640407,-0.017626298,-0.000264951,0.014405933,-0.004948846,0.998984623,-0.000833969,0.000065705,-0.003074043,0.000000000,0.000000000,0.000000000,0.000000000,0.026309874,0.005796144,0.071120142,0.021679684,-0.001371680,0.000952788,0.007684417,-0.001503381,-0.002462625,-0.228695585,0.434812217,-0.913000141,-0.002025896,-0.003778419,-0.007974837,0.999958004,0.000000000,0.000000000,0.000000000,0.000000000,0.000000000,0.000000000,-0.913461060,0.000000000,4.228152752
1772662978.664988756,0.025882000,0.005825000,0.071106000,-0.002979700,0.003775730,-0.011831790,0.999918430,-0.006048000,0.007480000,-0.023687000,0.000028982,-0.000087257,0.000190365,0.005942655,-0.015729527,0.002811521,0.014416961,-0.003422278,1.000016103,-0.000950870,-0.001020377,-0.002348372,0.000000000,0.000000000,0.000000000,0.000000000,0.026313333,0.005796799,0.071117107,0.021829163,-0.001395947,0.000778140,0.006219024,-0.000430503,0.000257061,-0.228387519,0.435413857,-0.913317416,-0.002023260,-0.003783685,-0.007977606,0.999957990,0.000000000,0.000000000,0.000000000,0.000000000,0.000000000,0.000000000,-0.913062393,0.000000000,4.228152752
1772662978.674988270,0.025887000,0.005820000,0.071103000,-0.002826380,0.003642720,-0.011821910,0.999919490,-0.005739000,0.007218000,-0.023665000,-0.000070824,0.000026573,0.000020940,0.004435545,-0.005785853,0.008730260,0.014310295,-0.002551048,1.000017221,-0.002171771,-0.001490604,-0.000732067,0.000000000,0.000000000,0.000000000,0.000000000,0.026313852,0.005796213,0.071120659,0.021871306,-0.001306369,0.000775163,0.006954105,0.001012827,-0.000855012,-0.228409286,0.435539748,-0.912949196,-0.002023447,-0.003784788,-0.007974396,0.999957979,0.000000000,0.000000000,0.000000000,0.000000000,0.000000000,0.000000000,-0.913142154,0.000000000,4.228152752
1772662978.684988022,0.025898000,0.005818000,0.071102000,-0.002920630,0.003629980,-0.011849290,0.999918940,-0.005927000,0.007190000,-0.023721000,0.000024806,-0.000029817,-0.000062082,0.002713306,0.009966489,0.010551890,0.014931591,-0.002774850,1.000676853,-0.002089298,-0.002010455,0.000473682,0.000000000,0.000000000,0.000000000,0.000000000,0.026317268,0.005794650,0.071123984,0.021954873,-0.001184422,0.000735099,0.007211948,0.001601748,0.000031139,-0.229008858,0.435830515,-0.912227159,-0.002028675,-0.003787297,-0.007968120,0.999958013,0.000000000,0.000000000,0.000000000,0.000000000,0.000000000,0.000000000,-0.912627281,0.000000000,4.228152752
1772662978.694987535,0.025885000,0.005823000,0.071102000,-0.002943920,0.003611370,-0.011745160,0.999920170,-0.005972000,0.007153000,-0.023512000,-0.000112393,-0.000061169,0.000022242,0.002236046,0.020401312,0.011893060,0.014851452,-0.003904040,1.002443521,0.001577970,0.001932780,0.000752912,0.000000000,0.000000000,0.000000000,0.000000000,0.026316125,0.005801699,0.071118848,0.022089493,-0.000990225,0.000811288,0.007825295,-0.000288912,0.002917505,-0.228820332,0.436273751,-0.910807740,-0.002027014,-0.003791202,-0.007955734,0.999958123,0.000000000,0.000000000,0.000000000,0.000000000,0.000000000,0.000000000,-0.911503504,0.000000000,4.228152752
1772662978.704987526,0.025881000,0.005828000,0.071106000,-0.002907200,0.003782770,-0.011667350,0.999920550,-0.005902000,0.007497000,-0.023358000,-0.000105323,-0.000040754,0.000051709,-0.000685214,0.021563687,0.005942843,0.015985754,-0.004880207,1.001208634,0.000477971,0.002311165,0.000776264,0.000000000,0.000000000,0.000000000,0.000000000,0.026318991,0.005805013,0.071115583,0.022258220,-0.000989971,0.001040613,0.007539610,-0.001339721,0.001922101,-0.229137592,0.435066879,-0.908788166,-0.002029632,-0.003780685,-0.007938101,0.999958260,0.000000000,0.000000000,0.000000000,0.000000000,0.000000000,0.000000000,-0.909702572,0.000000000,4.228152752
1772662978.714987040,0.025885000,0.005815000,0.071102000,-0.002917990,0.004090350,-0.011608670,0.999919990,-0.005931000,0.008112000,-0.023242000,-0.000185237,-0.000046018,0.000092269,-0.001025671,0.018233522,0.000345722,0.017164688,-0.005262113,1.000672476,-0.000116177,0.001347433,-0.000487680,0.000000000,0.000000000,0.000000000,0.000000000,0.026320105,0.005803317,0.071119978,0.022495418,-0.001064525,0.001121022,0.009324012,-0.001202722,-0.000111191,-0.227239295,0.433695579,-0.908876186,-0.002012975,-0.003768848,-0.007938783,0.999958337,0.000000000,0.000000000,0.000000000,0.000000000,0.000000000,0.000000000,-0.908916083,0.000000000,4.228152752
1772662978.724986792,0.025888000,0.005816000,0.071108000,-0.002850190,0.004168990,-0.011703690,0.999918760,-0.005798000,0.008271000,-0.023432000,-0.000095008,-0.000107518,0.000034732,0.001416219,0.006549435,-0.003536095,0.016944381,-0.005657052,1.000939889,0.000933387,-0.000861015,-0.000228821,0.000000000,0.000000000,0.000000000,0.000000000,0.026322011,0.005803249,0.071123283,0.022789755,-0.001151571,0.001147991,0.008792853,-0.002091799,0.001592637,-0.226033380,0.434129226,-0.907581575,-0.002002439,-0.003772738,-0.007927454,0.999958445,0.000000000,0.000000000,0.000000000,0.000000000,0.000000000,0.000000000,-0.908226737,0.000000000,4.228152752
1772662978.734986782,0.025879000,0.005824000,0.071104000,-0.002894540,0.003949660,-0.011656640,0.999920070,-0.005881000,0.007831000,-0.023337000,0.000135218,-0.000069367,-0.000080089,-0.005469869,-0.004786030,-0.005847397,0.015923854,-0.004875537,0.999472419,0.000956537,-0.002711413,0.002383763,0.000000000,0.000000000,0.000000000,0.000000000,0.026324906,0.005801188,0.071125213,0.023058220,-0.001294640,0.001177384,0.008422228,-0.001805694,-0.000503785,-0.226102276,0.434505652,-0.906802470,-0.002003041,-0.003776032,-0.007920663,0.999958514,0.000000000,0.000000000,0.000000000,0.000000000,0.000000000,0.000000000,-0.907155712,0.000000000,4.228152752
1772662978.744986296,0.025888000,0.005817000,0.071104000,-0.002966740,0.003874590,-0.011838710,0.999918010,-0.006025000,0.007678000,-0.023701000,0.000120746,0.000063811,-0.000083314,-0.008426404,-0.010008673,-0.003112646,0.015023199,-0.004566466,1.000130433,0.000695899,0.002528001,-0.000197684,0.000000000,0.000000000,0.000000000,0.000000000,0.026333281,0.005797093,0.071124434,0.023233929,-0.001384772,0.001085367,0.007361508,-0.000605803,-0.000185576,-0.224953464,0.436142032,-0.905931413,-0.001993100,-0.003790407,-0.007913052,0.999958479,0.000000000,0.000000000,0.000000000,0.000000000,0.000000000,0.000000000,-0.906531269,0.000000000,4.228152752
1772662978.754985809,0.025882000,0.005818000,0.071105000,-0.002976400,0.003921500,-0.011774690,0.999918560,-0.006045000,0.007772000,-0.023574000,0.000264045,0.000020688,-0.000047863,-0.009492728,-0.011313452,-0.002193673,0.014729291,-0.004332517,1.000277244,0.002053990,0.002745696,-0.000202920,0.000000000,0.000000000,0.000000000,0.000000000,0.026337183,0.005795755,0.071123596,0.023289674,-0.001388861,0.001055554,0.007403699,0.000459968,0.000634653,-0.224723035,0.435223459,-0.904155424,-0.001990967,-0.003782437,-0.007897531,0.999958698,0.000000000,0.000000000,0.000000000,0.000000000,0.000000000,0.000000000,-0.905753527,0.000000000,4.228152752
1772662978.764985800,0.025888000,0.005819000,0.071101000,-0.002999730,0.003865560,-0.011679640,0.999919820,-0.006089000,0.007660000,-0.023383000,0.000192172,-0.000062723,-0.000046542,-0.008449156,-0.006518542,-0.003168877,0.014526387,-0.004038265,1.000132098,0.003690498,0.001550803,0.000656554,0.000000000,0.000000000,0.000000000,0.000000000,0.026336705,0.005795987,0.071123350,0.023303614,-0.001355325,0.001052158,0.007439575,0.000097937,0.000742360,-0.224627476,0.434423740,-0.904178135,-0.001990079,-0.003775465,-0.007897712,0.999958720,0.000000000,0.000000000,0.000000000,0.000000000,0.000000000,0.000000000,-0.904889800,0.000000000,4.228152752
1772662978.774985552,0.025894000,0.005821000,0.071100000,-0.003165000,0.003879080,-0.011737180,0.999918580,-0.006421000,0.007683000,-0.023500000,0.000009071,-0.000069930,-0.000048349,-0.004920598,-0.007472036,-0.004801801,0.014626475,-0.003659339,1.000478842,0.003096438,-0.000480489,0.001392376,0.000000000,0.000000000,0.000000000,0.000000000,0.026340926,0.005795952,0.071123326,0.023331959,-0.001322616,0.001050813,0.007475451,-0.000264085,0.000850065,-0.224531919,0.433624041,-0.904200845,-0.001989191,-0.003768493,-0.007897893,0.999958743,0.000000000,0.000000000,0.000000000,0.000000000,0.000000000,0.000000000,-0.904157751,0.000000000,4.228152752
1772662978.784985065,0.025891000,0.005818000,0.071106000,-0.003038260,0.003872160,-0.011776220,0.999918540,-0.006167000,0.007672000,-0.023577000,-0.000314258,-0.000018473,0.000020629,-0.003928398,-0.014643172,-0.003960022,0.014341858,-0.003954660,1.001358969,-0.000359708,-0.003467758,0.001938944,0.000000000,0.000000000,0.000000000,0.000000000,0.026544365,0.005784491,0.071132843,0.023884354,-0.001320605,0.001146133,0.006740976,-0.000150375,0.001458074,-0.224315040,0.432713301,-0.903481914,-0.001987212,-0.003760573,-0.007891598,0.999958821,0.000000000,0.000000000,0.000000000,0.000000000,0.000000000,0.000000000,-0.904012373,0.000000000,4.228152752
1772662978.794985294,0.025893000,0.005812000,0.071102000,-0.003107760,0.003638690,-0.011894200,0.999917810,-0.006302000,0.007203000,-0.023812000,-0.000237296,-0.000021329,-0.000028633,-0.001080523,-0.020638253,-0.003937496,0.013844135,-0.005520330,1.000449317,0.000047514,-0.002231274,0.001760875,0.000000000,0.000000000,0.000000000,0.000000000,0.026119457,0.005806713,0.071115248,0.021269404,-0.001191830,0.001110069,0.005184949,-0.002455051,0.000534956,-0.225056343,0.449552161,-0.907600456,-0.001994980,-0.003907391,-0.007927846,0.999958056,0.000000000,0.000000000,0.000000000,0.000000000,0.000000000,0.000000000,-0.905058527,0.000000000,4.228152752
1772662978.804985285,0.025874000,0.005822000,0.071101000,-0.003086130,0.003648100,-0.011871760,0.999918110,-0.006259000,0.007222000,-0.023767000,-0.000089685,-0.000005109,-0.000165754,0.003668533,-0.011389824,0.000950482,0.015784738,-0.004572846,1.000094292,0.002038568,0.000785000,0.000198471,0.000000000,0.000000000,0.000000000,0.000000000,0.026232799,0.005799403,0.071123073,0.021932982,-0.001361652,0.001129073,0.007964603,-0.000907092,0.000020812,-0.224883592,0.451767053,-0.907442911,-0.001993619,-0.003926733,-0.007926503,0.999957865,0.000000000,0.000000000,0.000000000,0.000000000,0.000000000,0.000000000,-0.907810926,0.000000000,4.228152752
1772662978.814985037,0.025880000,0.005815000,0.071098000,-0.003100860,0.003534090,-0.011785480,0.999919500,-0.006285000,0.006995000,-0.023594000,0.000210839,-0.000122417,-0.000174107,0.006839757,-0.004843399,0.001599318,0.013801482,-0.004001791,1.001126021,0.000580174,0.000603171,-0.001170478,0.000000000,0.000000000,0.000000000,0.000000000,0.026277443,0.005796305,0.071124596,0.022304984,-0.001379704,0.001132688,0.006031726,-0.000145302,0.000952885,-0.222601009,0.451615444,-0.906522763,-0.001973658,-0.003925584,-0.007918392,0.999957973,0.000000000,0.000000000,0.000000000,0.000000000,0.000000000,0.000000000,-0.906854300,0.000000000,4.228152752
1772662978.824984312,0.025884000,0.005817000,0.071105000,-0.003091090,0.003529820,-0.011775940,0.999919650,-0.006265000,0.006986000,-0.023575000,0.000439084,-0.000112879,-0.000094425,0.005313221,0.006900298,0.000925011,0.013021815,-0.004576440,1.000263870,0.000165206,-0.000204853,-0.001562927,0.000000000,0.000000000,0.000000000,0.000000000,0.026297478,0.005794147,0.071125646,0.022374676,-0.001355537,0.001184029,0.005162116,-0.000563820,0.000762651,-0.222906064,0.450764762,-0.905972118,-0.001976243,-0.003918149,-0.007913585,0.999958059,0.000000000,0.000000000,0.000000000,0.000000000,0.000000000,0.000000000,-0.906436054,0.000000000,4.228152752
1772662978.834984779,0.025901000,0.005818000,0.071091000,-0.002972360,0.003576330,-0.011756690,0.999920070,-0.006029000,0.007082000,-0.023536000,0.000400680,-0.000103458,0.000088636,0.006610774,0.018314398,-0.000379794,0.015210071,-0.005731491,1.000335829,-0.001538651,-0.001547747,0.000377522,0.000000000,0.000000000,0.000000000,0.000000000,0.026247780,0.005797146,0.071122449,0.021950798,-0.001378010,0.001142986,0.006409333,-0.001842031,-0.000601527,-0.222397474,0.452247448,-0.904797950,-0.001971867,-0.003931143,-0.007903345,0.999958151,0.000000000,0.000000000,0.000000000,0.000000000,0.000000000,0.000000000,-0.905273276,0.000000000,4.228152752
1772662978.844984770,0.025900000,0.005811000,0.071094000,-0.002949490,0.003912000,-0.011835120,0.999917960,-0.005991000,0.007754000,-0.023694000,0.000374787,-0.000080614,-0.000029274,0.002756648,0.022455435,-0.003737444,0.015442238,-0.006143689,1.000874976,-0.002315603,0.006773186,0.001516183,0.000000000,0.000000000,0.000000000,0.000000000,0.026232915,0.005797995,0.071119456,0.021855908,-0.001509792,0.001102883,0.007959071,-0.001666091,0.001087860,-0.223115871,0.457701639,-0.905240950,-0.001978526,-0.003978681,-0.007907327,0.999957860,0.000000000,0.000000000,0.000000000,0.000000000,0.000000000,0.000000000,-0.905111989,0.000000000,4.228152752
1772662978.854984760,0.025897000,0.005807000,0.071105000,-0.002970750,0.003733590,-0.011937330,0.999917360,-0.006030000,0.007396000,-0.023898000,0.000054468,0.000054915,-0.000154002,-0.000696835,0.023044131,-0.002412400,0.015267236,-0.005315467,1.000246730,-0.000043965,-0.000227228,0.000540253,0.000000000,0.000000000,0.000000000,0.000000000,0.026277007,0.005793767,0.071122349,0.022231647,-0.001621732,0.001160608,0.007859716,-0.001506618,0.001194809,-0.223427577,0.456906346,-0.905216710,-0.001981191,-0.003971720,-0.007907113,0.999957860,0.000000000,0.000000000,0.000000000,0.000000000,0.000000000,0.000000000,-0.905227446,0.000000000,4.228152752
1772662978.864984512,0.025894000,0.005819000,0.071100000,-0.003012210,0.003994390,-0.011791560,0.999917960,-0.006118000,0.007917000,-0.023608000,-0.000184460,0.000056430,-0.000104254,-0.003444517,0.015374434,0.000970482,0.015374644,-0.004030225,0.999773164,0.000384685,-0.001844344,-0.001350185,0.000000000,0.000000000,0.000000000,0.000000000,0.026298849,0.005789789,0.071124347,0.022470262,-0.001654743,0.001168739,0.007537158,0.000090689,-0.000268494,-0.223223191,0.456055971,-0.902492553,-0.001979255,-0.003964360,-0.007883319,0.999958096,0.000000000,0.000000000,0.000000000,0.000000000,0.000000000,0.000000000,-0.904122539,0.000000000,4.228152752
1772662978.874984741,0.025893000,0.005817000,0.071097000,-0.003003710,0.004064430,-0.011814780,0.999917430,-0.006103000,0.008057000,-0.023655000,-0.000197999,0.000171814,0.000062704,-0.002499981,0.006142024,0.002687839,0.015213376,-0.004402200,0.999542706,0.000659852,0.001615804,-0.000826849,0.000000000,0.000000000,0.000000000,0.000000000,0.026312080,0.005786613,0.071123918,0.022658421,-0.001609123,0.001110141,0.006917940,-0.000309012,0.000018033,-0.222611260,0.456027642,-0.902873056,-0.001973926,-0.003964149,-0.007886618,0.999958098,0.000000000,0.000000000,0.000000000,0.000000000,0.000000000,0.000000000,-0.902608003,0.000000000,4.228152752
1772662978.884984732,0.025902000,0.005816000,0.071085000,-0.003032860,0.004050570,-0.011829880,0.999917220,-0.006161000,0.008029000,-0.023685000,0.000000058,0.000140346,0.000015171,0.001376580,-0.001827243,0.002622763,0.013987587,-0.005553139,0.999984366,-0.001862318,-0.000107706,-0.000624659,0.000000000,0.000000000,0.000000000,0.000000000,0.026314150,0.005788141,0.071121878,0.022715894,-0.001636669,0.001046697,0.005602342,-0.001946776,0.000523218,-0.222375174,0.454696983,-0.901843889,-0.001971739,-0.003952571,-0.007877606,0.999958198,0.000000000,0.000000000,0.000000000,0.000000000,0.000000000,0.000000000,-0.902361162,0.000000000,4.228152752
1772662978.894984722,0.025892000,0.005816000,0.071095000,-0.003007480,0.003984900,-0.011782280,0.999918120,-0.006109000,0.007898000,-0.023590000,0.000001690,0.000036869,-0.000033547,0.003396880,-0.005639636,0.000950113,0.013978588,-0.005452869,1.001794245,-0.001818869,0.002120971,0.001462732,0.000000000,0.000000000,0.000000000,0.000000000,0.026317844,0.005785527,0.071121763,0.022644635,-0.001769114,0.001093474,0.005921078,-0.001488952,0.001302064,-0.222642044,0.454787032,-0.901627203,-0.001974066,-0.003953342,-0.007875727,0.999958217,0.000000000,0.000000000,0.000000000,0.000000000,0.000000000,0.000000000,-0.901766470,0.000000000,4.228152752
1772662978.904984474,0.025889000,0.005818000,0.071105000,-0.002968850,0.003935910,-0.011806080,0.999918150,-0.006030000,0.007801000,-0.023637000,-0.000016647,-0.000008294,-0.000020824,0.003865630,-0.015783761,0.000994015,0.014184820,-0.005873800,1.000121258,0.002788030,0.000902088,-0.002333007,0.000000000,0.000000000,0.000000000,0.000000000,0.026327594,0.005784059,0.071118576,0.022669085,-0.001879130,0.001206894,0.006293185,-0.001137946,0.000979311,-0.223126394,0.453762249,-0.900720467,-0.001978192,-0.003944382,-0.007867814,0.999958277,0.000000000,0.000000000,0.000000000,0.000000000,0.000000000,0.000000000,-0.901233769,0.000000000,4.228152752
1772662978.914984465,0.025900000,0.005821000,0.071100000,-0.002936020,0.003892600,-0.011811160,0.999918360,-0.005964000,0.007715000,-0.023646000,0.000094250,0.000099456,-0.000181624,0.002110599,-0.012574164,0.005735055,0.012702313,-0.004454232,0.998694764,-0.001667904,0.000324757,-0.000593399,0.000000000,0.000000000,0.000000000,0.000000000,0.026352437,0.005777639,0.071118116,0.022626345,-0.001916411,0.001142341,0.005522504,-0.000754051,-0.001272925,-0.223033072,0.452434051,-0.900250371,-0.001977270,-0.003932806,-0.007863686,0.999958396,0.000000000,0.000000000,0.000000000,0.000000000,0.000000000,0.000000000,-0.900167272,0.000000000,4.228152752
1772662978.924984217,0.025897000,0.005815000,0.071091000,-0.002964450,0.003828790,-0.011785550,0.999918820,-0.006019000,0.007587000,-0.023595000,0.000277234,-0.000020027,-0.000279798,-0.000699689,-0.008706761,0.007459763,0.014048774,-0.004693805,0.998391137,0.000322236,-0.004396199,-0.000731844,0.000000000,0.000000000,0.000000000,0.000000000,0.026496661,0.005765171,0.071125386,0.022844139,-0.001963165,0.000954157,0.005713717,-0.000921422,-0.001547144,-0.223977496,0.459593024,-0.902722838,-0.001986088,-0.003995170,-0.007885414,0.999958023,0.000000000,0.000000000,0.000000000,0.000000000,0.000000000,0.000000000,-0.901503483,0.000000000,4.228152752
1772662978.934984207,0.025894000,0.005820000,0.071083000,-0.002973610,0.003757720,-0.011701660,0.999920050,-0.006035000,0.007445000,-0.023427000,0.000282595,-0.000077001,-0.000389627,-0.004591061,-0.005968774,0.008411997,0.014418344,-0.003589156,0.999566990,0.000835514,-0.003168343,-0.001214703,0.000000000,0.000000000,0.000000000,0.000000000,0.026276083,0.005783886,0.071115454,0.021913201,-0.001835612,0.000755515,0.006120168,0.000075215,-0.001060326,-0.223958341,0.461956707,-0.901749121,-0.001986049,-0.004015814,-0.007876956,0.999957906,0.000000000,0.000000000,0.000000000,0.000000000,0.000000000,0.000000000,-0.902638162,0.000000000,4.228152752
1772662978.944983959,0.025901000,0.005819000,0.071087000,-0.002977000,0.003727780,-0.011645760,0.999920810,-0.006041000,0.007386000,-0.023315000,0.000034363,-0.000087102,-0.000224184,-0.003519822,-0.001722851,0.007985577,0.013365006,-0.004230538,1.000242681,0.002542540,0.001778246,-0.000652619,0.000000000,0.000000000,0.000000000,0.000000000,0.026302616,0.005783408,0.071110448,0.022064410,-0.001731272,0.000703210,0.005868272,0.000400576,0.001236865,-0.223050244,0.461326968,-0.902698681,-0.001978114,-0.004010365,-0.007885199,0.999957919,0.000000000,0.000000000,0.000000000,0.000000000,0.000000000,0.000000000,-0.902183831,0.000000000,4.228152752
1772662978.954983950,0.025908000,0.005817000,0.071086000,-0.003013650,0.003823290,-0.011636010,0.999920450,-0.006116000,0.007576000,-0.023296000,-0.000222883,-0.000077700,0.000133761,0.000310117,0.000464930,0.004893464,0.013637827,-0.005163460,1.000223642,0.000621779,-0.001679526,-0.000406265,0.000000000,0.000000000,0.000000000,0.000000000,0.026315370,0.005783429,0.071106680,0.022080422,-0.001714864,0.000736697,0.005362616,-0.001338930,-0.000234341,-0.222217210,0.460504828,-0.901403298,-0.001970743,-0.004003270,-0.007873854,0.999958038,0.000000000,0.000000000,0.000000000,0.000000000,0.000000000,0.000000000,-0.901866652,0.000000000,4.228152752
1772662978.964983702,0.025902000,0.005811000,0.071090000,-0.003032010,0.003778530,-0.011628920,0.999920650,-0.006152000,0.007486000,-0.023282000,-0.000254992,-0.000073912,0.000232654,0.004278108,0.002883176,0.000494261,0.014184429,-0.004139724,0.997046444,-0.001897525,-0.001264063,-0.003591105,0.000000000,0.000000000,0.000000000,0.000000000,0.026316401,0.005783731,0.071110922,0.022029136,-0.001742686,0.000622198,0.005889758,-0.000584064,-0.001981203,-0.221298425,0.460408471,-0.900921150,-0.001962702,-0.004002501,-0.007869612,0.999958059,0.000000000,0.000000000,0.000000000,0.000000000,0.000000000,0.000000000,-0.901426040,0.000000000,4.228152752
1772662978.974983692,0.025888000,0.005818000,0.071087000,-0.002998190,0.003773570,-0.011624050,0.999920820,-0.006084000,0.007477000,-0.023272000,-0.000324864,-0.000035956,0.000130323,0.006789938,0.007470660,-0.002797694,0.014314584,-0.004165402,0.998578771,-0.002917412,-0.000676458,0.000450501,0.000000000,0.000000000,0.000000000,0.000000000,0.026320482,0.005785828,0.071110974,0.022059102,-0.001696729,0.000342715,0.006483336,-0.000561883,-0.001210132,-0.221946438,0.460188455,-0.899461264,-0.001968291,-0.004000562,-0.007856892,0.999958177,0.000000000,0.000000000,0.000000000,0.000000000,0.000000000,0.000000000,-0.899803993,0.000000000,4.228152752
1772662978.984983921,0.025890000,0.005816000,0.071090000,-0.002881140,0.003853830,-0.011653750,0.999920520,-0.005852000,0.007640000,-0.023331000,-0.000329993,0.000043279,-0.000002739,0.006253339,0.007746730,-0.004196455,0.014887120,-0.004451253,0.999365856,0.001038601,0.000188133,-0.001249105,0.000000000,0.000000000,0.000000000,0.000000000,0.026323097,0.005784824,0.071103067,0.022096881,-0.001695345,0.000222987,0.007104436,-0.000851918,0.000089068,-0.222753615,0.459548856,-0.898248889,-0.001975249,-0.003994946,-0.007846331,0.999958273,0.000000000,0.000000000,0.000000000,0.000000000,0.000000000,0.000000000,-0.899106610,0.000000000,4.228152752
1772662978.994983673,0.025888000,0.005814000,0.071097000,-0.002883410,0.003816060,-0.011660470,0.999920580,-0.005856000,0.007564000,-0.023344000,-0.000070901,0.000042638,0.000003807,0.003373197,0.008142980,-0.002710440,0.014042208,-0.003992618,0.999463467,-0.001559378,0.000242654,0.000336468,0.000000000,0.000000000,0.000000000,0.000000000,0.026322966,0.005786306,0.071093822,0.022193804,-0.001695159,0.000146924,0.005272938,-0.000472837,-0.000064076,-0.222300725,0.459085368,-0.896895669,-0.001971218,-0.003990956,-0.007834498,0.999958405,0.000000000,0.000000000,0.000000000,0.000000000,0.000000000,0.000000000,-0.897310996,0.000000000,4.228152752
1772662979.004983187,0.025894000,0.005815000,0.071087000,-0.002893720,0.003941110,-0.011697540,0.999919630,-0.005879000,0.007814000,-0.023419000,0.000250874,-0.000075661,0.000047572,0.000049492,0.007506528,-0.001018728,0.013436341,-0.003653359,1.000565066,-0.000730442,-0.000851296,0.000866117,0.000000000,0.000000000,0.000000000,0.000000000,0.026326679,0.005786740,0.071091701,0.022070420,-0.001628424,0.000134049,0.005572063,0.000504850,0.001068419,-0.222483040,0.459854382,-0.895559429,-0.001972815,-0.003997676,-0.007822857,0.999958496,0.000000000,0.000000000,0.000000000,0.000000000,0.000000000,0.000000000,-0.896209364,0.000000000,4.228152752
1772662979.014982700,0.025892000,0.005819000,0.071087000,-0.002900840,0.004025200,-0.011693730,0.999919320,-0.005896000,0.007982000,-0.023412000,0.000274806,-0.000080556,0.000042405,-0.003749850,0.002869471,0.000715953,0.014232666,-0.004050935,1.001771348,0.002881865,-0.001810045,-0.000878161,0.000000000,0.000000000,0.000000000,0.000000000,0.026330632,0.005787036,0.071090659,0.022042797,-0.001534526,0.000240965,0.005716678,0.000390470,0.001134406,-0.222660877,0.460198364,-0.895187150,-0.001974377,-0.004000672,-0.007819620,0.999958510,0.000000000,0.000000000,0.000000000,0.000000000,0.000000000,0.000000000,-0.895246531,0.000000000,4.228152752
1772662979.024982452,0.025893000,0.005813000,0.071091000,-0.002967300,0.003897960,-0.011690970,0.999919660,-0.006025000,0.007726000,-0.023406000,0.000253749,0.000065249,-0.000036208,-0.006267401,-0.002789903,-0.000623060,0.014448268,-0.004418246,1.001633417,0.003166188,-0.001802530,-0.000673025,0.000000000,0.000000000,0.000000000,0.000000000,0.026330479,0.005786656,0.071091017,0.022048486,-0.001545752,0.000253523,0.005804326,0.000199790,0.001113989,-0.222771946,0.460323192,-0.895052416,-0.001975350,-0.004001757,-0.007818450,0.999958502,0.000000000,0.000000000,0.000000000,0.000000000,0.000000000,0.000000000,-0.895112604,0.000000000,4.228152752
1772662979.034982443,0.025901000,0.005813000,0.071094000,-0.002961790,0.003939740,-0.011635300,0.999920160,-0.006015000,0.007810000,-0.023295000,0.000113520,0.000060626,-0.000062160,-0.006748303,-0.006681461,-0.001523617,0.014663875,-0.004785564,1.001495481,0.003450516,-0.001795015,-0.000467883,0.000000000,0.000000000,0.000000000,0.000000000,0.026330326,0.005786275,0.071091376,0.022054175,-0.001556978,0.000266080,0.005891977,0.000009105,0.001093571,-0.222883017,0.460448023,-0.894917678,-0.001976323,-0.004002841,-0.007817280,0.999958495,0.000000000,0.000000000,0.000000000,0.000000000,0.000000000,0.000000000,-0.894978673,0.000000000,4.228152752
1772662979.044981956,0.025901000,0.005812000,0.071093000,-0.002957270,0.003867140,-0.011679480,0.999919940,-0.006005000,0.007665000,-0.023383000,0.000096814,0.000022669,-0.000146737,-0.009508933,-0.012103628,-0.002068640,0.014879471,-0.005152866,1.001357553,0.003734832,-0.001787501,-0.000262752,0.000000000,0.000000000,0.000000000,0.000000000,0.026330173,0.005785895,0.071091734,0.022059864,-0.001568204,0.000278637,0.005979623,-0.000181570,0.001073155,-0.222994084,0.460572848,-0.894782947,-0.001977296,-0.004003925,-0.007816111,0.999958487,0.000000000,0.000000000,0.000000000,0.000000000,0.000000000,0.000000000,-0.894844750,0.000000000,4.228152752
1772662979.054981947,0.025896000,0.005822000,0.071085000,-0.003048950,0.003841440,-0.011711450,0.999919390,-0.006188000,0.007611000,-0.023447000,0.000058994,-0.000003710,-0.000180575,-0.009720664,-0.006768908,-0.002784351,0.015095078,-0.005520185,1.001219617,0.004019161,-0.001779986,-0.000057611,0.000000000,0.000000000,0.000000000,0.000000000,0.026330021,0.005785514,0.071092093,0.022065553,-0.001579430,0.000291194,0.006067274,-0.000372254,0.001052737,-0.223105155,0.460697679,-0.894648210,-0.001978269,-0.004005009,-0.007814941,0.999958480,0.000000000,0.000000000,0.000000000,0.000000000,0.000000000,0.000000000,-0.894710820,0.000000000,4.228152752
1772662979.064981937,0.025903000,0.005818000,0.071085000,-0.003102190,0.003783320,-0.011773520,0.999918720,-0.006293000,0.007493000,-0.023571000,-0.000126302,-0.000007051,-0.000155323,-0.005556922,-0.002139514,-0.000981818,0.015310685,-0.005887504,1.001081682,0.004303489,-0.001772471,0.000147530,0.000000000,0.000000000,0.000000000,0.000000000,0.026329868,0.005785134,0.071092451,0.022071242,-0.001590656,0.000303752,0.006154924,-0.000562938,0.001032319,-0.223216227,0.460822510,-0.894513472,-0.001979242,-0.004006093,-0.007813771,0.999958473,0.000000000,0.000000000,0.000000000,0.000000000,0.000000000,0.000000000,-0.894576889,0.000000000,4.228152752
1772662979.074981451,0.025892000,0.005812000,0.071084000,-0.003134360,0.003774360,-0.011693250,0.999919600,-0.006357000,0.007475000,-0.023411000,-0.000098330,-0.000136811,-0.000007207,-0.000417963,0.001035151,-0.001387359,0.015526282,-0.006254805,1.000943754,0.004587805,-0.001764956,0.000352661,0.000000000,0.000000000,0.000000000,0.000000000,0.026329715,0.005784753,0.071092810,0.022076931,-0.001601882,0.000316309,0.006242571,-0.000753614,0.001011903,-0.223327293,0.460947335,-0.894378741,-0.001980215,-0.004007177,-0.007812601,0.999958465,0.000000000,0.000000000,0.000000000,0.000000000,0.000000000,0.000000000,-0.894442966,0.000000000,4.228152752
1772662979.084981203,0.025905000,0.005813000,0.071083000,-0.003149050,0.003761510,-0.011712250,0.999919380,-0.006386000,0.007449000,-0.023449000,0.000045824,-0.000121445,0.000152933,0.007759093,0.003637584,-0.000796005,0.015741884,-0.006622115,1.000805822,0.004872127,-0.001757442,0.000557797,0.000000000,0.000000000,0.000000000,0.000000000,0.026329562,0.005784373,0.071093168,0.022082620,-0.001613108,0.000328866,0.006330219,-0.000944293,0.000991486,-0.223438362,0.461072163,-0.894244007,-0.001981188,-0.004008261,-0.007811432,0.999958458,0.000000000,0.000000000,0.000000000,0.000000000,0.000000000,0.000000000,-0.894309039,0.000000000,4.228152752
1772662979.094981194,0.025894000,0.005813000,0.071094000,-0.003031290,0.003935430,-0.011716330,0.999919020,-0.006155000,0.007799000,-0.023457000,0.000027059,-0.000010198,0.000183703,0.013142150,0.003903339,-0.001970704,0.013896208,-0.007363807,1.001482338,-0.001919663,-0.001644202,0.000680107,0.000000000,0.000000000,0.000000000,0.000000000,0.026327390,0.005784091,0.071093638,0.022065884,-0.001710341,0.000378438,0.006548413,-0.004509964,0.001307288,-0.221487864,0.462784428,-0.893494404,-0.001964257,-0.004023349,-0.007804851,0.999958501,0.000000000,0.000000000,0.000000000,0.000000000,0.000000000,0.000000000,-0.893896979,0.000000000,4.228152752
1772662979.104980707,0.025894000,0.005814000,0.071086000,-0.002934510,0.003822860,-0.011713470,0.999919780,-0.005958000,0.007576000,-0.023450000,-0.000006818,0.000110276,0.000105225,0.011666236,0.002274035,-0.002428730,0.012714927,-0.005374149,1.000530619,-0.000580985,-0.000385793,0.001360056,0.000000000,0.000000000,0.000000000,0.000000000,0.026319547,0.005782578,0.071095348,0.021912608,-0.002034606,0.000502055,0.003904149,-0.002485664,0.000299367,-0.221572006,0.462616843,-0.891699387,-0.001964918,-0.004021911,-0.007789187,0.999958623,0.000000000,0.000000000,0.000000000,0.000000000,0.000000000,0.000000000,-0.892509568,0.000000000,4.228152752
