t,px,py,pz,qx,qy,qz,qw,roll,pitch,yaw,vx,vy,vz,wx_vicon,wy_vicon,wz_vicon,imu_acc_x,imu_acc_y,imu_acc_z,imu_gyro_x,imu_gyro_y,imu_gyro_z,motor_motor_m1,motor_motor_m2,motor_motor_m3,motor_motor_m4,est_stateEstimate_x,est_stateEstimate_y,est_stateEstimate_z,est_stateEstimate_vx,est_stateEstimate_vy,est_stateEstimate_vz,est_stateEstimate_ax,est_stateEstimate_ay,est_stateEstimate_az,att_stateEstimate_roll,att_stateEstimate_pitch,att_stateEstimate_yaw,att_stateEstimate_qx,att_stateEstimate_qy,att_stateEstimate_qz,att_stateEstimate_qw,sp_ctrltarget_x,sp_ctrltarget_y,sp_ctrltarget_z,sp_ctrltarget_yaw,pid_controller_roll,pid_controller_pitch,pid_controller_yaw,pid_controller_cmd_thrust,pwr_pm_vbat
1772426661.140738487,0.015324000,0.007632000,0.054232000,0.001154980,-0.010668480,-0.026263500,0.999597460,0.002870000,-0.021269000,-0.052567000,-0.002825022,0.000507479,-0.000181974,0.002770119,-0.014903457,-0.018202499,0.009863178,-0.001292839,1.000276485,0.001508535,-0.000275443,0.000965724,0.000000000,0.000000000,0.000000000,0.000000000,0.015246992,0.007609408,0.054190940,-0.006138691,-0.002726641,-0.003405288,-0.001570211,-0.000952563,0.000256644,-0.008710047,0.686679826,-2.373306742,-0.000200091,-0.005989523,-0.020709593,0.999765650,0.000000000,0.000000000,0.000000000,0.000000000,0.000000000,0.000000000,-2.378578589,0.000000000,4.164809227
1772426661.150738478,0.015311000,0.007634000,0.054237000,0.001162130,-0.010542260,-0.026251670,0.999599100,0.002877000,-0.021017000,-0.052543000,-0.001056139,0.000296873,-0.000392463,0.004064088,-0.008001207,-0.009102343,0.008418534,-0.000522574,1.000640594,0.000359322,0.000440391,0.000852846,0.000000000,0.000000000,0.000000000,0.000000000,0.015251419,0.007606424,0.054192747,-0.005998729,-0.002755408,-0.003231793,-0.004036269,-0.000007477,0.000103489,-0.008735857,0.687017600,-2.377676169,-0.000200606,-0.005992458,-0.020747714,0.999764920,0.000000000,0.000000000,0.000000000,0.000000000,0.000000000,0.000000000,-2.382794523,0.000000000,4.164809227
1772426661.160737991,0.015298000,0.007636000,0.054227000,0.001151750,-0.010597480,-0.026287970,0.999597570,0.002860000,-0.021127000,-0.052615000,0.000004118,0.000122514,-0.000374748,0.003119218,-0.005411633,-0.002414428,0.009430094,-0.000264440,1.000137487,0.001365231,0.001289553,-0.000241748,0.000000000,0.000000000,0.000000000,0.000000000,0.015252291,0.007604452,0.054197190,-0.006170388,-0.002743870,-0.002990962,-0.001299532,-0.000263548,0.000465720,-0.008950600,0.686783393,-2.379836842,-0.000202550,-0.005990372,-0.020766576,0.999764322,0.000000000,0.000000000,0.000000000,0.000000000,0.000000000,0.000000000,-2.385556958,0.000000000,4.164809227
1772426661.170737505,0.015303000,0.007640000,0.054223000,0.001211510,-0.010804800,-0.026390760,0.999592580,0.002993000,-0.021539000,-0.052823000,0.000499806,-0.000012102,-0.000214142,0.000776624,-0.005724554,0.002004090,0.010366033,-0.000169278,1.000006910,0.001483332,-0.000030028,-0.000930931,0.000000000,0.000000000,0.000000000,0.000000000,0.015253872,0.007604562,0.054198287,-0.006217178,-0.002720541,-0.002941105,-0.000966889,-0.000175091,-0.000149147,-0.009063776,0.686120085,-2.381117974,-0.000203484,-0.005984562,-0.020777760,0.999764156,0.000000000,0.000000000,0.000000000,0.000000000,0.000000000,0.000000000,-2.386622439,0.000000000,4.164809227
1772426661.180737972,0.015314000,0.007640000,0.054220000,0.001205500,-0.010933630,-0.026375520,0.999591580,0.002987000,-0.021796000,-0.052793000,0.000574981,-0.000103477,0.000004040,-0.002127014,-0.007529790,0.004295080,0.011302061,-0.000074108,0.999876320,0.001601445,-0.001349734,-0.001620179,0.000000000,0.000000000,0.000000000,0.000000000,0.015255454,0.007604671,0.054199384,-0.006263972,-0.002697210,-0.002891244,-0.000634214,-0.000086626,-0.000764072,-0.009176963,0.685456714,-2.382399228,-0.000204418,-0.005978751,-0.020788945,0.999763990,0.000000000,0.000000000,0.000000000,0.000000000,0.000000000,0.000000000,-2.387688023,0.000000000,4.164809227
1772426661.190737963,0.015315000,0.007632000,0.054221000,0.001196490,-0.010804510,-0.026257610,0.999596100,0.002960000,-0.021539000,-0.052556000,0.000373699,-0.000148116,0.000194483,-0.004756513,-0.009416074,0.004598707,0.011860039,0.000029993,0.999784218,0.001369008,-0.001921561,-0.001604840,0.000000000,0.000000000,0.000000000,0.000000000,0.015257036,0.007604781,0.054200482,-0.006310764,-0.002673880,-0.002841384,-0.000301554,0.000001835,-0.001378969,-0.008946338,0.684658280,-2.385387717,-0.000202417,-0.005971822,-0.020815006,0.999763718,0.000000000,0.000000000,0.000000000,0.000000000,0.000000000,0.000000000,-2.388952695,0.000000000,4.164809227
1772426661.200737715,0.015315000,0.007634000,0.054234000,0.001104210,-0.010620750,-0.026229320,0.999598920,0.002765000,-0.021177000,-0.052497000,0.000100175,-0.000077739,0.000071465,-0.005452297,-0.000999444,0.002961354,0.011717474,0.000150649,0.999763433,0.000486940,-0.001107503,-0.000283804,0.000000000,0.000000000,0.000000000,0.000000000,0.015256326,0.007605263,0.054202155,-0.006299477,-0.002645472,-0.002788407,-0.000520304,-0.000005633,-0.001613944,-0.008609380,0.684310869,-2.387438846,-0.000199521,-0.005968849,-0.020832883,0.999763050,0.000000000,0.000000000,0.000000000,0.000000000,0.000000000,0.000000000,-2.390866929,0.000000000,4.164809227
1772426661.210737705,0.015321000,0.007635000,0.054233000,0.001093980,-0.010804850,-0.026225830,0.999597050,0.002754000,-0.021545000,-0.052490000,-0.000210801,-0.000076010,-0.000227525,-0.003836472,-0.000356227,-0.001435245,0.011574906,0.000271309,0.999742647,-0.000395150,-0.000293426,0.001037263,0.000000000,0.000000000,0.000000000,0.000000000,0.015254818,0.007605875,0.054204029,-0.006268000,-0.002615298,-0.002734344,-0.001039295,-0.000065333,-0.001642067,-0.008205708,0.684361596,-2.388559407,-0.000196067,-0.005969363,-0.020842638,0.999762850,0.000000000,0.000000000,0.000000000,0.000000000,0.000000000,0.000000000,-2.392781208,0.000000000,4.164809227
1772426661.220738411,0.015307000,0.007632000,0.054225000,0.001065040,-0.011010550,-0.026300940,0.999592860,0.002709000,-0.021958000,-0.052641000,-0.000287840,0.000016259,-0.000292949,-0.000313392,-0.009546369,-0.007467618,0.011432328,0.000391977,0.999721860,-0.001277302,0.000520710,0.002358425,0.000000000,0.000000000,0.000000000,0.000000000,0.015253311,0.007606487,0.054205904,-0.006236521,-0.002585122,-0.002680278,-0.001558324,-0.000125037,-0.001670192,-0.007802008,0.684412326,-2.389680048,-0.000192612,-0.005969877,-0.020852394,0.999762649,0.000000000,0.000000000,0.000000000,0.000000000,0.000000000,0.000000000,-2.394695625,0.000000000,4.164809227
1772426661.230738401,0.015311000,0.007635000,0.054220000,0.001140950,-0.010983670,-0.026361180,0.999591490,0.002861000,-0.021900000,-0.052763000,-0.000057848,0.000031469,-0.000149981,0.002820654,-0.014726237,-0.006637698,0.011228822,0.000261637,1.000554352,0.000202964,0.001545781,0.002375448,0.000000000,0.000000000,0.000000000,0.000000000,0.015246795,0.007608427,0.054204315,-0.006221424,-0.002522176,-0.002724312,-0.000606440,0.000677956,0.000048537,-0.008013862,0.683795795,-2.391596911,-0.000194448,-0.005964456,-0.020869130,0.999762414,0.000000000,0.000000000,0.000000000,0.000000000,0.000000000,0.000000000,-2.396840363,0.000000000,4.164809227
1772426661.240737915,0.015307000,0.007637000,0.054209000,0.001116880,-0.010727620,-0.026362070,0.999594270,0.002799000,-0.021389000,-0.052763000,0.000110490,-0.000021911,0.000049106,0.002963084,-0.006614227,-0.003024601,0.010625605,-0.000957706,1.001164881,0.001182240,0.001458894,-0.000095452,0.000000000,0.000000000,0.000000000,0.000000000,0.015247374,0.007610010,0.054202022,-0.006170824,-0.002445791,-0.002583184,-0.001122088,-0.000125054,0.000919896,-0.007861009,0.682897171,-2.394858452,-0.000193120,-0.005956638,-0.020897577,0.999762032,0.000000000,0.000000000,0.000000000,0.000000000,0.000000000,0.000000000,-2.399969769,0.000000000,4.164809227
1772426661.250737667,0.015311000,0.007629000,0.054222000,0.001138750,-0.011042570,-0.026364350,0.999590760,0.002860000,-0.022018000,-0.052770000,0.000176923,-0.000021873,0.000340618,0.000412078,0.000960490,0.001483700,0.011163720,-0.000521228,1.000114150,0.003816097,-0.000743343,0.000769342,0.000000000,0.000000000,0.000000000,0.000000000,0.015250456,0.007611423,0.054199642,-0.006108060,-0.002366396,-0.002378106,-0.001652566,-0.000941818,0.000066030,-0.008993221,0.682551290,-2.400093094,-0.000203207,-0.005953404,-0.020943309,0.999761917,0.000000000,0.000000000,0.000000000,0.000000000,0.000000000,0.000000000,-2.400728332,0.000000000,4.164809227
1772426661.260737419,0.015315000,0.007636000,0.054235000,0.001120030,-0.011128380,-0.026355870,0.999590050,0.002826000,-0.022190000,-0.052752000,0.000294639,-0.000009848,0.000409052,-0.001061603,0.003774227,0.003813453,0.009953446,-0.000616253,0.999961545,0.002049343,0.000820309,-0.000885736,0.000000000,0.000000000,0.000000000,0.000000000,0.015252893,0.007612129,0.054201408,-0.006052024,-0.002315984,-0.002200742,-0.001704794,-0.000840189,-0.000467554,-0.007392828,0.682927302,-2.397907390,-0.000189200,-0.005956981,-0.020924156,0.999761886,0.000000000,0.000000000,0.000000000,0.000000000,0.000000000,0.000000000,-2.398438525,0.000000000,4.164809227
1772426661.270736694,0.015323000,0.007633000,0.054235000,0.001134310,-0.010956080,-0.026275280,0.999594060,0.002844000,-0.021845000,-0.052591000,0.000114413,-0.000016395,0.000113870,-0.002085961,0.002054587,0.003038178,0.010641006,-0.001901183,0.999387246,-0.001516358,-0.000577164,0.001472256,0.000000000,0.000000000,0.000000000,0.000000000,0.015254738,0.007612089,0.054206820,-0.006032309,-0.002305001,-0.002091549,-0.001397544,-0.002286068,0.000277492,-0.006502013,0.682055683,-2.396081068,-0.000181174,-0.005949542,-0.020908175,0.999761897,0.000000000,0.000000000,0.000000000,0.000000000,0.000000000,0.000000000,-2.396562850,0.000000000,4.164809227
1772426661.280736446,0.015315000,0.007634000,0.054227000,0.001083970,-0.010833060,-0.026341750,0.999593710,0.002738000,-0.021602000,-0.052722000,-0.000018998,0.000040695,-0.000074359,-0.002145140,0.000908200,-0.000419967,0.010303548,-0.002360054,0.998912268,-0.001446806,-0.000166102,-0.000573816,0.000000000,0.000000000,0.000000000,0.000000000,0.015257022,0.007612361,0.054209113,-0.006061285,-0.002296864,-0.002038927,-0.001019858,-0.002165714,-0.000810865,-0.006812454,0.682122808,-2.394435125,-0.000183809,-0.005950074,-0.020893832,0.999761907,0.000000000,0.000000000,0.000000000,0.000000000,0.000000000,0.000000000,-2.394988750,0.000000000,4.164809227
1772426661.290736675,0.015313000,0.007633000,0.054228000,0.001096250,-0.010962750,-0.026293400,0.999593550,0.002769000,-0.021861000,-0.052626000,-0.000184111,0.000059441,-0.000253788,-0.004183293,0.000236826,-0.002703300,0.009261116,-0.002202880,0.998822705,-0.000831374,0.002206346,-0.003201471,0.000000000,0.000000000,0.000000000,0.000000000,0.015255609,0.007611751,0.054207919,-0.006085135,-0.002396587,-0.002023865,-0.002534127,-0.002004037,-0.001332022,-0.007508972,0.682135791,-2.394899759,-0.000189912,-0.005950060,-0.020897923,0.999761918,0.000000000,0.000000000,0.000000000,0.000000000,0.000000000,0.000000000,-2.393480131,0.000000000,4.164809227
1772426661.300735712,0.015319000,0.007635000,0.054225000,0.001095870,-0.010891200,-0.026345500,0.999592960,0.002765000,-0.021717000,-0.052730000,-0.000079002,0.000003535,0.000004876,-0.003363232,-0.011405040,-0.003317810,0.008625681,-0.000998669,0.999944161,-0.002655165,0.005901684,0.001927786,0.000000000,0.000000000,0.000000000,0.000000000,0.015252416,0.007610715,0.054205046,-0.006106515,-0.002548220,-0.002026886,-0.002354464,-0.000765971,-0.000436655,-0.008914427,0.680806335,-2.399260285,-0.000202158,-0.005938196,-0.020936040,0.999761928,0.000000000,0.000000000,0.000000000,0.000000000,0.000000000,0.000000000,-2.403697059,0.000000000,4.164809227
1772426661.310735941,0.015311000,0.007635000,0.054220000,0.001071520,-0.011067970,-0.026353760,0.999590830,0.002726000,-0.022072000,-0.052747000,0.000039375,0.000104604,0.000253458,-0.001044553,-0.014602305,-0.000643691,0.010716841,-0.000850616,0.999951110,0.001127225,-0.000260770,0.003912357,0.000000000,0.000000000,0.000000000,0.000000000,0.015249396,0.007610890,0.054199243,-0.006270377,-0.002613082,-0.002018616,-0.001947143,-0.000627199,-0.000200693,-0.009778492,0.679082601,-2.399265244,-0.000209382,-0.005923000,-0.020936128,0.999761938,0.000000000,0.000000000,0.000000000,0.000000000,0.000000000,0.000000000,-2.400531744,0.000000000,4.164809227
1772426661.320735693,0.015312000,0.007636000,0.054236000,0.001030030,-0.011138650,-0.026390200,0.999589130,0.002648000,-0.022216000,-0.052819000,0.000042716,0.000134635,0.000197203,0.002241312,-0.003206877,0.003018952,0.009817743,-0.002454104,1.000487967,-0.000668114,0.005115766,-0.001749081,0.000000000,0.000000000,0.000000000,0.000000000,0.015248657,0.007608838,0.054199192,-0.006320780,-0.002593258,-0.001952100,-0.002322721,-0.001705324,0.000056492,-0.009581856,0.677773498,-2.396772886,-0.000207298,-0.005911618,-0.020914374,0.999762585,0.000000000,0.000000000,0.000000000,0.000000000,0.000000000,0.000000000,-2.397160103,0.000000000,4.164809227
1772426661.330735683,0.015316000,0.007636000,0.054232000,0.001040090,-0.011123210,-0.026332530,0.999590810,0.002666000,-0.022184000,-0.052704000,-0.000052700,0.000152020,-0.000073524,0.004158489,0.004051339,0.003112823,0.009409832,-0.001270772,1.000389694,0.001856448,-0.004841595,0.000278806,0.000000000,0.000000000,0.000000000,0.000000000,0.015249700,0.007608379,0.054205003,-0.006338562,-0.002627207,-0.001840089,-0.002294552,-0.002126113,0.000535640,-0.009392504,0.675695080,-2.395837168,-0.000205219,-0.005893521,-0.020906199,0.999762927,0.000000000,0.000000000,0.000000000,0.000000000,0.000000000,0.000000000,-2.396145099,0.000000000,4.164809227
1772426661.340735197,0.015322000,0.007638000,0.054237000,0.001122760,-0.011099830,-0.026291290,0.999592070,0.002829000,-0.022133000,-0.052623000,-0.000000194,0.000035451,-0.000223252,0.007308938,0.001625364,0.003772283,0.009663107,-0.001020556,1.000617235,0.001864271,-0.004681568,-0.000319486,0.000000000,0.000000000,0.000000000,0.000000000,0.015251141,0.007609022,0.054209891,-0.006373782,-0.002685770,-0.001751631,-0.002121776,-0.001565115,0.000565365,-0.009140973,0.675467726,-2.395129606,-0.000202947,-0.005891585,-0.020900014,0.999763119,0.000000000,0.000000000,0.000000000,0.000000000,0.000000000,0.000000000,-2.395401887,0.000000000,4.164809227
1772426661.350734234,0.015312000,0.007641000,0.054225000,0.001170630,-0.010956920,-0.026254610,0.999594550,0.002916000,-0.021845000,-0.052550000,0.000099009,-0.000134169,-0.000325136,0.008556086,0.005038260,0.002556231,0.009916370,-0.000770352,1.000844766,0.001872094,-0.004521548,-0.000917749,0.000000000,0.000000000,0.000000000,0.000000000,0.015252471,0.007608614,0.054211215,-0.006392590,-0.002706719,-0.001711824,-0.001949007,-0.001004144,0.000595090,-0.008889453,0.675240382,-2.394422078,-0.000200674,-0.005889648,-0.020893829,0.999763267,0.000000000,0.000000000,0.000000000,0.000000000,0.000000000,0.000000000,-2.394694217,0.000000000,4.164809227
1772426661.360734224,0.015308000,0.007639000,0.054217000,0.001187280,-0.010865520,-0.026298300,0.999594380,0.002946000,-0.021661000,-0.052638000,-0.000045843,-0.000180517,-0.000413365,0.006796205,0.008641178,0.001386628,0.010169657,-0.000520124,1.001072318,0.001879918,-0.004361514,-0.001516069,0.000000000,0.000000000,0.000000000,0.000000000,0.015253802,0.007608205,0.054212539,-0.006411400,-0.002727670,-0.001672013,-0.001776222,-0.000443119,0.000624817,-0.008637910,0.675013017,-2.393714483,-0.000198402,-0.005887712,-0.020887644,0.999763416,0.000000000,0.000000000,0.000000000,0.000000000,0.000000000,0.000000000,-2.393986480,0.000000000,4.164809227
1772426661.370733500,0.015317000,0.007635000,0.054218000,0.001199450,-0.011101480,-0.026312850,0.999591390,0.002983000,-0.022133000,-0.052668000,-0.000100971,-0.000148096,-0.000113423,0.002954879,0.019069144,-0.000788732,0.010711658,-0.000782085,1.000236918,0.000970367,-0.001768685,-0.001288477,0.000000000,0.000000000,0.000000000,0.000000000,0.015255133,0.007607796,0.054213864,-0.006430209,-0.002748619,-0.001632205,-0.001451358,-0.000819783,-0.000498397,-0.008254979,0.674857803,-2.392725741,-0.000194982,-0.005886429,-0.020878997,0.999763570,0.000000000,0.000000000,0.000000000,0.000000000,0.000000000,0.000000000,-2.393180276,0.000000000,4.164809227
1772426661.380733490,0.015320000,0.007629000,0.054225000,0.001242040,-0.011036770,-0.026284580,0.999592800,0.003064000,-0.022001000,-0.052612000,-0.000008605,0.000024864,0.000196795,0.000776598,0.026673346,0.001189208,0.011595876,-0.001814491,0.997828272,-0.001137320,0.004300910,0.000227181,0.000000000,0.000000000,0.000000000,0.000000000,0.015254442,0.007607561,0.054213501,-0.006436282,-0.002728344,-0.001552705,-0.001214458,-0.001245196,-0.001293096,-0.007970841,0.674487320,-2.391468114,-0.000192371,-0.005883252,-0.020868009,0.999763765,0.000000000,0.000000000,0.000000000,0.000000000,0.000000000,0.000000000,-2.391977018,0.000000000,4.164809227
1772426661.390734434,0.015314000,0.007631000,0.054224000,0.001231890,-0.010665360,-0.026260830,0.999597470,0.003024000,-0.021259000,-0.052563000,-0.000008333,0.000178322,0.000501477,-0.000387841,0.028905437,0.001987626,0.010699377,-0.001768143,0.997985729,0.001001734,0.002918587,0.000585557,0.000000000,0.000000000,0.000000000,0.000000000,0.015253307,0.007607322,0.054212927,-0.006431051,-0.002710164,-0.001488678,-0.001090392,-0.001635430,-0.001610459,-0.008513619,0.672972189,-2.389919764,-0.000196751,-0.005869937,-0.020854529,0.999764062,0.000000000,0.000000000,0.000000000,0.000000000,0.000000000,0.000000000,-2.390474758,0.000000000,4.164809227
1772426661.400733948,0.015307000,0.007641000,0.054222000,0.001217090,-0.010460930,-0.026268830,0.999599440,0.002983000,-0.020851000,-0.052578000,-0.000170591,0.000256721,0.000469154,-0.000752806,0.019121561,0.001820646,0.010018052,-0.001674974,0.998208844,0.002060543,0.000953237,0.000179836,0.000000000,0.000000000,0.000000000,0.000000000,0.015252116,0.007606871,0.054213156,-0.006379871,-0.002750598,-0.001553223,-0.001911452,-0.001467328,-0.001705149,-0.008482143,0.671793323,-2.388490653,-0.000196189,-0.005859659,-0.020842060,0.999764422,0.000000000,0.000000000,0.000000000,0.000000000,0.000000000,0.000000000,-2.388988390,0.000000000,4.164809227
1772426661.410733461,0.015312000,0.007641000,0.054236000,0.001222310,-0.010354420,-0.026280020,0.999600250,0.002989000,-0.020638000,-0.052600000,-0.000295979,0.000202972,0.000176768,-0.000422096,0.000996630,-0.002443954,0.009738597,-0.001392897,0.998300380,0.001447208,-0.001233059,-0.000547693,0.000000000,0.000000000,0.000000000,0.000000000,0.015252955,0.007607135,0.054212195,-0.006354380,-0.002800737,-0.001631951,-0.002399211,-0.000973616,-0.001949717,-0.008054613,0.671108476,-2.387124864,-0.000192265,-0.005853764,-0.020830122,0.999764714,0.000000000,0.000000000,0.000000000,0.000000000,0.000000000,0.000000000,-2.387686820,0.000000000,4.164809227
1772426661.420732737,0.015314000,0.007645000,0.054239000,0.001235400,-0.010561250,-0.026232950,0.999599300,0.003025000,-0.021051000,-0.052507000,-0.000114627,0.000039821,-0.000160839,-0.000201575,-0.023230402,-0.004856109,0.010402991,-0.000302031,0.997167117,-0.001847489,-0.000809234,0.001951557,0.000000000,0.000000000,0.000000000,0.000000000,0.015253049,0.007607373,0.054209980,-0.006373901,-0.002844335,-0.001712016,-0.001958410,-0.000163694,-0.002094129,-0.007353246,0.671352310,-2.385760860,-0.000186120,-0.005856021,-0.020818185,0.999764985,0.000000000,0.000000000,0.000000000,0.000000000,0.000000000,0.000000000,-2.386247890,0.000000000,4.164809227
1772426661.430732250,0.015305000,0.007638000,0.054234000,0.001198480,-0.010704070,-0.026325270,0.999595400,0.002960000,-0.021338000,-0.052691000,-0.000044678,-0.000201438,-0.000330167,-0.001877715,-0.023796165,-0.007549948,0.011260156,0.000522574,0.998230157,0.000927614,-0.000716767,0.004003159,0.000000000,0.000000000,0.000000000,0.000000000,0.015250957,0.007607214,0.054207804,-0.006430565,-0.002859890,-0.001791059,-0.000159716,0.000789114,-0.001472294,-0.007777792,0.671510357,-2.383518769,-0.000189738,-0.005857327,-0.020798645,0.999765299,0.000000000,0.000000000,0.000000000,0.000000000,0.000000000,0.000000000,-2.384307031,0.000000000,4.164809227
1772426661.440732241,0.015306000,0.007637000,0.054226000,0.001219050,-0.010971480,-0.026347230,0.999591900,0.003016000,-0.021872000,-0.052737000,0.000064705,-0.000180789,-0.000273660,-0.003150976,-0.010960642,-0.005920771,0.011201272,0.000083138,0.998280211,0.002533408,0.000893638,0.000501214,0.000000000,0.000000000,0.000000000,0.000000000,0.015250030,0.007607826,0.054212515,-0.006432570,-0.002786064,-0.001915337,-0.001078505,-0.000353827,-0.002236440,-0.006625788,0.672540417,-2.378830896,-0.000179634,-0.005866530,-0.020757687,0.999765916,0.000000000,0.000000000,0.000000000,0.000000000,0.000000000,0.000000000,-2.380639041,0.000000000,4.164809227
1772426661.450731993,0.015306000,0.007637000,0.054217000,0.001202560,-0.010893410,-0.026414410,0.999591000,0.002980000,-0.021716000,-0.052871000,0.000148330,-0.000019464,0.000049922,-0.005168735,0.002387683,-0.003117081,0.011947766,-0.001810783,0.998962085,0.003245119,-0.002186636,-0.000466065,0.000000000,0.000000000,0.000000000,0.000000000,0.015252847,0.007612700,0.054207819,-0.006182006,-0.002698130,-0.002162635,-0.000691803,-0.000622041,-0.002696268,-0.005817305,0.672836233,-2.372252284,-0.000172297,-0.005869267,-0.020700250,0.999767173,0.000000000,0.000000000,0.000000000,0.000000000,0.000000000,0.000000000,-2.373891337,0.000000000,4.164809227
1772426661.460732698,0.015315000,0.007636000,0.054221000,0.001143390,-0.010796400,-0.026371690,0.999593250,0.002856000,-0.021525000,-0.052783000,0.000246679,0.000115657,0.000424534,-0.006937551,0.008397492,-0.001116085,0.010485781,-0.000394893,0.996112025,0.000437544,0.005147342,0.000600043,0.000000000,0.000000000,0.000000000,0.000000000,0.015255675,0.007613882,0.054202279,-0.005921964,-0.002707224,-0.002298469,-0.000416024,-0.000640379,-0.002633343,-0.004868446,0.673109375,-2.369447593,-0.000163925,-0.005871826,-0.020675732,0.999767787,0.000000000,0.000000000,0.000000000,0.000000000,0.000000000,0.000000000,-2.370273517,0.000000000,4.164809227
1772426661.470733404,0.015309000,0.007636000,0.054234000,0.001095710,-0.010479940,-0.026427540,0.999595200,0.002745000,-0.020895000,-0.052893000,0.000099806,0.000151438,0.000440871,-0.005557757,0.007183758,0.000244504,0.010366285,-0.001381995,0.999304510,-0.001502284,-0.002274330,-0.000749294,0.000000000,0.000000000,0.000000000,0.000000000,0.015258297,0.007609006,0.054200704,-0.005797765,-0.002753674,-0.002423208,-0.001120713,-0.000770684,-0.001516837,-0.005310035,0.671910852,-2.367070530,-0.000167440,-0.005861293,-0.020655015,0.999768368,0.000000000,0.000000000,0.000000000,0.000000000,0.000000000,0.000000000,-2.367168500,0.000000000,4.164809227
1772426661.480732679,0.015319000,0.007645000,0.054245000,0.001136500,-0.010722560,-0.026316750,0.999595500,0.002837000,-0.021378000,-0.052673000,-0.000207013,0.000048601,0.000011636,-0.003574006,0.004267503,-0.001136335,0.008852664,-0.000908639,0.999354543,-0.001179261,-0.001129015,-0.000583300,0.000000000,0.000000000,0.000000000,0.000000000,0.015257987,0.007607585,0.054200592,-0.005805600,-0.002754847,-0.002507093,-0.002766466,-0.000685760,-0.000969474,-0.005650490,0.671501523,-2.364948126,-0.000170227,-0.005857663,-0.020636515,0.999768817,0.000000000,0.000000000,0.000000000,0.000000000,0.000000000,0.000000000,-2.365507531,0.000000000,4.164809227
1772426661.490732431,0.015312000,0.007641000,0.054243000,0.001067610,-0.010793130,-0.026378050,0.999593200,0.002704000,-0.021523000,-0.052794000,-0.000311811,-0.000059713,-0.000401302,0.003138979,-0.004193569,-0.001556072,0.009073985,0.000652482,0.997666543,-0.001658562,0.002571104,0.002567287,0.000000000,0.000000000,0.000000000,0.000000000,0.015255400,0.007608934,0.054199748,-0.005851759,-0.002769531,-0.002484186,-0.003422153,-0.000077132,-0.001524938,-0.005800428,0.672075766,-2.362881688,-0.000171533,-0.005862649,-0.020618495,0.999769042,0.000000000,0.000000000,0.000000000,0.000000000,0.000000000,0.000000000,-2.363846482,0.000000000,4.164809227
1772426661.500731945,0.015306000,0.007640000,0.054226000,0.001078110,-0.010845200,-0.026437190,0.999591060,0.002729000,-0.021626000,-0.052913000,-0.000196853,-0.000103671,-0.000535801,0.007761924,-0.009736061,-0.002192136,0.008143091,-0.000227654,0.997447791,-0.002054461,0.002274865,-0.002288405,0.000000000,0.000000000,0.000000000,0.000000000,0.015253853,0.007610665,0.054202269,-0.005948819,-0.002724780,-0.002486172,-0.002434294,0.000403477,-0.002316847,-0.005997429,0.671207258,-2.360049503,-0.000172951,-0.005855041,-0.020593796,0.999769543,0.000000000,0.000000000,0.000000000,0.000000000,0.000000000,0.000000000,-2.360914700,0.000000000,4.164809227
1772426661.510731220,0.015299000,0.007634000,0.054215000,0.001167220,-0.010701330,-0.026434300,0.999592590,0.002900000,-0.021334000,-0.052909000,0.000107051,-0.000198796,-0.000233120,0.005079341,-0.009987279,0.000651714,0.009139996,0.000668230,0.998761293,-0.000370628,-0.003363746,-0.001767015,0.000000000,0.000000000,0.000000000,0.000000000,0.015253529,0.007612893,0.054207188,-0.006080849,-0.002632563,-0.002526201,-0.002868330,0.000309061,-0.002523301,-0.006452559,0.669950302,-2.359065147,-0.000176646,-0.005843994,-0.020585231,0.999769897,0.000000000,0.000000000,0.000000000,0.000000000,0.000000000,0.000000000,-2.359438613,0.000000000,4.164809227
1772426661.520730734,0.015305000,0.007636000,0.054212000,0.001182360,-0.010722330,-0.026400800,0.999593230,0.002931000,-0.021375000,-0.052842000,0.000379973,-0.000144891,0.000345280,0.001937709,-0.005362023,0.003737160,0.009745464,0.000874929,0.999165495,0.001643072,-0.000676420,-0.001297663,0.000000000,0.000000000,0.000000000,0.000000000,0.015253558,0.007615341,0.054210307,-0.006183210,-0.002562437,-0.002591358,-0.001789559,0.001162398,-0.000992213,-0.006766483,0.669979953,-2.357027279,-0.000179286,-0.005844200,-0.020567466,0.999770194,0.000000000,0.000000000,0.000000000,0.000000000,0.000000000,0.000000000,-2.357735503,0.000000000,4.164809227
1772426661.530730724,0.015315000,0.007635000,0.054232000,0.001258520,-0.010884300,-0.026373700,0.999592100,0.003091000,-0.021695000,-0.052790000,0.000368862,-0.000021989,0.000540735,-0.001918089,-0.001240698,0.004605463,0.010175602,0.000283600,0.999447106,0.002730151,0.002352326,-0.000820718,0.000000000,0.000000000,0.000000000,0.000000000,0.015249965,0.007615073,0.054209934,-0.006277559,-0.002455906,-0.002631375,-0.001854418,0.000087171,-0.000357433,-0.006709121,0.669164221,-2.354730355,-0.000178522,-0.005837097,-0.020547423,0.999770607,0.000000000,0.000000000,0.000000000,0.000000000,0.000000000,0.000000000,-2.355362172,0.000000000,4.164809227
1772426661.540731192,0.015321000,0.007637000,0.054243000,0.001144120,-0.010956780,-0.026358190,0.999591860,0.002866000,-0.021846000,-0.052757000,0.000108431,0.000020241,0.000304565,-0.008595163,0.007555560,0.000602845,0.010592231,-0.001789793,1.000439089,0.000411032,-0.004367282,-0.000246446,0.000000000,0.000000000,0.000000000,0.000000000,0.015247295,0.007614609,0.054207273,-0.006322019,-0.002331986,-0.002627565,-0.001530232,-0.000606926,-0.000226957,-0.006380504,0.666590509,-2.353205582,-0.000175116,-0.005814703,-0.020534105,0.999771135,0.000000000,0.000000000,0.000000000,0.000000000,0.000000000,0.000000000,-2.352850990,0.000000000,4.164809227
1772426661.550731659,0.015320000,0.007632000,0.054244000,0.001021510,-0.010824270,-0.026320440,0.999594430,0.002613000,-0.021588000,-0.052678000,-0.000226457,0.000001807,-0.000127040,-0.010333569,0.019479672,-0.004232527,0.011671660,0.000368144,0.999527299,0.000230060,-0.004649060,0.000558820,0.000000000,0.000000000,0.000000000,0.000000000,0.015263306,0.007619943,0.054210786,-0.005996900,-0.002192088,-0.002523044,-0.000275901,-0.000035151,-0.000258479,-0.007860727,0.664495868,-2.356559876,-0.000187825,-0.005796157,-0.020563446,0.999771914,0.000000000,0.000000000,0.000000000,0.000000000,0.000000000,0.000000000,-2.350323368,0.000000000,4.164809227
1772426661.560731888,0.015315000,0.007638000,0.054235000,0.001094760,-0.010712680,-0.026356580,0.999594600,0.002754000,-0.021361000,-0.052752000,-0.000387238,-0.000032265,-0.000526419,-0.007569737,0.022579483,-0.005044586,0.011614513,-0.001094658,1.000339964,0.000069685,-0.004344302,0.002515169,0.000000000,0.000000000,0.000000000,0.000000000,0.015249785,0.007617223,0.054210798,-0.005634132,-0.002003523,-0.002405312,0.000281155,-0.000359297,-0.000223738,-0.007611674,0.658631959,-2.355353847,-0.000184539,-0.005745043,-0.020552914,0.999771815,0.000000000,0.000000000,0.000000000,0.000000000,0.000000000,0.000000000,-2.352243552,0.000000000,4.164809227
1772426661.570731401,0.015295000,0.007634000,0.054212000,0.001023210,-0.010428450,-0.026493920,0.999594050,0.002599000,-0.020796000,-0.053024000,-0.000307965,0.000045493,-0.000540307,-0.001155755,0.012495576,-0.002920653,0.010933143,-0.002153810,0.999735704,0.001534675,-0.002882862,0.001596403,0.000000000,0.000000000,0.000000000,0.000000000,0.015266742,0.007623748,0.054210412,-0.005629846,-0.002076584,-0.002150992,-0.000268544,-0.002105463,-0.000083825,-0.005910505,0.658663410,-2.352181587,-0.000169544,-0.005745627,-0.020525152,0.999771699,0.000000000,0.000000000,0.000000000,0.000000000,0.000000000,0.000000000,-2.352795824,0.000000000,4.164809227
1772426661.580731630,0.015306000,0.007636000,0.054217000,0.001012090,-0.010465060,-0.026447470,0.999594910,0.002577000,-0.020870000,-0.052931000,0.000040229,0.000108372,-0.000061888,0.004892715,-0.011116995,0.001333840,0.010728159,-0.002547437,0.998648782,0.001935002,-0.001916764,0.000591013,0.000000000,0.000000000,0.000000000,0.000000000,0.015262130,0.007620665,0.054203036,-0.005647169,-0.002224528,-0.001992464,-0.000850680,-0.002144745,-0.001175765,-0.004682679,0.659525072,-2.350073802,-0.000158880,-0.005753368,-0.020506701,0.999772047,0.000000000,0.000000000,0.000000000,0.000000000,0.000000000,0.000000000,-2.350629057,0.000000000,4.164809227
1772426661.590731859,0.015308000,0.007634000,0.054227000,0.001087450,-0.010528660,-0.026411530,0.999595120,0.002731000,-0.020993000,-0.052861000,0.000256508,0.000159616,0.000319309,0.004273592,-0.026163531,0.005709011,0.011467371,-0.002810109,0.998879107,-0.001927079,-0.002350252,0.001464595,0.000000000,0.000000000,0.000000000,0.000000000,0.015259826,0.007616328,0.054206761,-0.005668373,-0.002430024,-0.001962909,-0.000235227,-0.002797136,-0.001089685,-0.003931576,0.659576580,-2.347390714,-0.000152201,-0.005753955,-0.020483255,0.999772423,0.000000000,0.000000000,0.000000000,0.000000000,0.000000000,0.000000000,-2.348196715,0.000000000,4.164809227
1772426661.600732327,0.015316000,0.007639000,0.054227000,0.001093090,-0.010908990,-0.026326730,0.999593270,0.002760000,-0.021753000,-0.052693000,0.000351380,0.000073679,0.000383237,0.004038270,-0.030428156,0.011000420,0.010766122,-0.003203107,0.998938177,-0.001679502,0.000293071,-0.001293979,0.000000000,0.000000000,0.000000000,0.000000000,0.015262190,0.007614484,0.054214105,-0.005594203,-0.002574144,-0.001954436,-0.000953884,-0.003018640,-0.000719306,-0.004817448,0.659347493,-2.344251171,-0.000159732,-0.005751803,-0.020455908,0.999773026,0.000000000,0.000000000,0.000000000,0.000000000,0.000000000,0.000000000,-2.345012692,0.000000000,4.164809227
1772426661.610733032,0.015314000,0.007641000,0.054236000,0.001150200,-0.010992720,-0.026312170,0.999592670,0.002879000,-0.021918000,-0.052665000,0.000242696,-0.000064957,-0.000037607,0.003922163,-0.011003723,0.008309122,0.010905985,-0.002483406,0.999840685,-0.000754698,0.001259438,-0.000219324,0.000000000,0.000000000,0.000000000,0.000000000,0.015230010,0.007593402,0.054206883,-0.005602135,-0.002917345,-0.001980873,-0.002337112,-0.001861638,-0.000232963,-0.006187335,0.658917996,-2.340911690,-0.000171440,-0.005747816,-0.020426841,0.999773505,0.000000000,0.000000000,0.000000000,0.000000000,0.000000000,0.000000000,-2.342784247,0.000000000,4.164809227
1772426661.620733500,0.015319000,0.007639000,0.054234000,0.001082810,-0.011078440,-0.026276680,0.999592730,0.002748000,-0.022093000,-0.052593000,0.000013092,-0.000253011,-0.000421154,0.001122121,0.014690271,0.003909686,0.009812449,-0.002246876,1.000546173,-0.004222093,-0.000068614,0.000155841,0.000000000,0.000000000,0.000000000,0.000000000,0.015235655,0.007596559,0.054205794,-0.005615702,-0.003052009,-0.001937196,-0.002523121,-0.000756253,0.000093730,-0.007010833,0.658680430,-2.337506490,-0.000178411,-0.005745602,-0.020397172,0.999773626,0.000000000,0.000000000,0.000000000,0.000000000,0.000000000,0.000000000,-2.343059148,0.000000000,4.164809227
1772426661.630733490,0.015310000,0.007636000,0.054221000,0.001094030,-0.010765600,-0.026265650,0.999596430,0.002753000,-0.021467000,-0.052570000,-0.000003438,-0.000201904,-0.000343376,0.002877700,0.029710884,0.000419792,0.011869320,-0.000570524,0.998979755,0.001496619,-0.002405051,-0.001931965,0.000000000,0.000000000,0.000000000,0.000000000,0.015263151,0.007613256,0.054210435,-0.005620032,-0.002986975,-0.001843203,-0.000362853,-0.000625019,0.000016886,-0.006569926,0.659505084,-2.338660719,-0.000174769,-0.005752873,-0.020407220,0.999773746,0.000000000,0.000000000,0.000000000,0.000000000,0.000000000,0.000000000,-2.341400116,0.000000000,4.164809227
1772426661.640733957,0.015316000,0.007630000,0.054214000,0.001184760,-0.010677870,-0.026230010,0.999598200,0.002929000,-0.021287000,-0.052500000,-0.000010878,-0.000095027,-0.000028127,0.007111699,0.028755863,-0.001234286,0.012674051,-0.001304284,0.999374405,0.000788867,-0.005087390,-0.000160779,0.000000000,0.000000000,0.000000000,0.000000000,0.015258315,0.007609885,0.054208682,-0.005645834,-0.003008262,-0.001784305,0.001550072,-0.001163626,-0.001407445,-0.006128999,0.660329778,-2.339815004,-0.000171127,-0.005760145,-0.020417268,0.999773870,0.000000000,0.000000000,0.000000000,0.000000000,0.000000000,0.000000000,-2.339772722,0.000000000,4.164809227
1772426661.650733948,0.015315000,0.007627000,0.054211000,0.001148470,-0.010254510,-0.026351570,0.999599480,0.002837000,-0.020442000,-0.052741000,-0.000061927,0.000179915,0.000121348,0.006982340,0.010934257,-0.002662005,0.010919378,-0.002281252,0.997731025,-0.001521968,-0.001773329,-0.003277040,0.000000000,0.000000000,0.000000000,0.000000000,0.015255872,0.007607771,0.054207838,-0.005591475,-0.003037685,-0.001742090,0.000241508,-0.001817082,-0.001408958,-0.005968783,0.662010732,-2.338121196,-0.000169943,-0.005774842,-0.020402483,0.999774072,0.000000000,0.000000000,0.000000000,0.000000000,0.000000000,0.000000000,-2.338424203,0.000000000,4.164809227
1772426661.660733938,0.015317000,0.007635000,0.054232000,0.001220900,-0.010530650,-0.026252710,0.999599120,0.002994000,-0.020990000,-0.052546000,-0.000218512,0.000279818,0.000224126,0.005657506,-0.011484693,-0.002728644,0.009649477,-0.001983470,0.997077539,-0.001045135,0.000133836,-0.003369754,0.000000000,0.000000000,0.000000000,0.000000000,0.015259311,0.007607903,0.054207788,-0.005339817,-0.003006482,-0.001755847,-0.002742202,-0.002012267,-0.003356975,-0.007030190,0.661296150,-2.336996884,-0.000179020,-0.005768420,-0.020392726,0.999774323,0.000000000,0.000000000,0.000000000,0.000000000,0.000000000,0.000000000,-2.337479620,0.000000000,4.164809227
1772426661.670733213,0.015312000,0.007644000,0.054234000,0.001308690,-0.010651990,-0.026326420,0.999595790,0.003178000,-0.021228000,-0.052696000,-0.000214880,0.000215288,0.000180750,-0.001834344,-0.023954086,-0.002219864,0.009245288,-0.001224792,0.997425401,-0.000664051,0.001922966,-0.001847769,0.000000000,0.000000000,0.000000000,0.000000000,0.015262657,0.007605777,0.054203919,-0.005090684,-0.002763593,-0.001808186,-0.001202470,-0.001240195,-0.001481194,-0.006994673,0.660881855,-2.334127157,-0.000178492,-0.005764816,-0.020367688,0.999774553,0.000000000,0.000000000,0.000000000,0.000000000,0.000000000,0.000000000,-2.336870982,0.000000000,4.164809227
1772426661.680733442,0.015311000,0.007641000,0.054230000,0.001239870,-0.010823680,-0.026294270,0.999594880,0.003049000,-0.021575000,-0.052631000,-0.000235101,0.000031546,0.000042599,-0.007068842,-0.019585717,-0.002007068,0.009063992,-0.000589749,0.997783687,-0.001287738,0.004199946,-0.001040243,0.000000000,0.000000000,0.000000000,0.000000000,0.015274946,0.007610103,0.054204568,-0.005034153,-0.002696292,-0.001819405,-0.001857625,-0.000728418,-0.002025765,-0.007313815,0.657906931,-2.333839674,-0.000180733,-0.005738805,-0.020365196,0.999774760,0.000000000,0.000000000,0.000000000,0.000000000,0.000000000,0.000000000,-2.336262286,0.000000000,4.164809227
1772426661.690733671,0.015303000,0.007642000,0.054218000,0.001121810,-0.010868470,-0.026353150,0.999592980,0.002816000,-0.021671000,-0.052746000,-0.000023796,-0.000283042,-0.000080828,-0.009683332,-0.006857357,-0.000075503,0.009404029,-0.000824562,0.997377341,-0.003278885,0.000903168,-0.002831969,0.000000000,0.000000000,0.000000000,0.000000000,0.015287595,0.007615679,0.054207051,-0.005068330,-0.002699503,-0.001828056,-0.002109752,-0.000006548,-0.001636949,-0.007752126,0.654510964,-2.334037381,-0.000183964,-0.005709098,-0.020366943,0.999775035,0.000000000,0.000000000,0.000000000,0.000000000,0.000000000,0.000000000,-2.335039981,0.000000000,4.164809227
1772426661.700733423,0.015306000,0.007631000,0.054221000,0.001113450,-0.010921960,-0.026301270,0.999593770,0.002801000,-0.021778000,-0.052642000,0.000302681,-0.000326321,-0.000036072,-0.010534299,0.007561179,0.000106991,0.009982595,-0.001046023,0.997623004,-0.002615143,0.002241284,-0.001624718,0.000000000,0.000000000,0.000000000,0.000000000,0.015278710,0.007612494,0.054209954,-0.005205885,-0.002713699,-0.001929454,-0.001387690,-0.000611950,-0.002681493,-0.008233215,0.653753967,-2.333289269,-0.000187989,-0.005702409,-0.020360441,0.999775360,0.000000000,0.000000000,0.000000000,0.000000000,0.000000000,0.000000000,-2.333704214,0.000000000,4.164809227
1772426661.710734367,0.015315000,0.007631000,0.054229000,0.001018160,-0.010661000,-0.026344250,0.999595560,0.002598000,-0.021261000,-0.052725000,0.000506197,-0.000223291,0.000197630,-0.008215783,0.007066031,0.002179622,0.010170158,-0.001310912,0.998581152,-0.000380779,0.005149775,0.002062968,0.000000000,0.000000000,0.000000000,0.000000000,0.015269231,0.007614481,0.054212157,-0.005350709,-0.002700471,-0.002082089,-0.000926871,-0.001785003,-0.001336621,-0.008663369,0.653411391,-2.331244141,-0.000191580,-0.005699348,-0.020342621,0.999775856,0.000000000,0.000000000,0.000000000,0.000000000,0.000000000,0.000000000,-2.332132854,0.000000000,4.164809227
1772426661.720734358,0.015317000,0.007630000,0.054233000,0.001065420,-0.010677280,-0.026328980,0.999595740,0.002693000,-0.021291000,-0.052696000,0.000448621,0.000002700,0.000211578,-0.005289221,0.000260781,-0.000829617,0.009472939,-0.001473083,0.998825133,-0.000286541,0.001445683,0.001161111,0.000000000,0.000000000,0.000000000,0.000000000,0.015263978,0.007614575,0.054211211,-0.005377996,-0.002724572,-0.002190073,-0.001492914,-0.001026508,-0.000723771,-0.008993608,0.651580325,-2.328225913,-0.000193987,-0.005683319,-0.020316305,0.999776353,0.000000000,0.000000000,0.000000000,0.000000000,0.000000000,0.000000000,-2.329368613,0.000000000,4.164809227
1772426661.730734348,0.015324000,0.007629000,0.054230000,0.001030030,-0.010691940,-0.026276660,0.999597000,0.002622000,-0.021323000,-0.052590000,0.000191589,0.000106779,-0.000018609,-0.003064664,-0.008153920,-0.003076224,0.010349894,-0.001085290,0.998347817,0.001713487,0.001436652,0.000364523,0.000000000,0.000000000,0.000000000,0.000000000,0.015258019,0.007614720,0.054205483,-0.005436348,-0.002800239,-0.002232072,-0.001179947,-0.001102846,-0.001688306,-0.009069597,0.650206282,-2.325523384,-0.000194272,-0.005671321,-0.020292731,0.999776826,0.000000000,0.000000000,0.000000000,0.000000000,0.000000000,0.000000000,-2.326242925,0.000000000,4.164809227
1772426661.740735292,0.015329000,0.007640000,0.054231000,0.001027040,-0.010912430,-0.026312480,0.999593680,0.002628000,-0.021764000,-0.052663000,-0.000084557,0.000172786,-0.000221950,-0.000648575,-0.016735450,-0.003254820,0.011738004,0.000018903,0.998320493,0.001455723,0.000416144,0.003236308,0.000000000,0.000000000,0.000000000,0.000000000,0.015254471,0.007610685,0.054202141,-0.005504415,-0.002853628,-0.002261989,0.000240213,-0.000569448,-0.001910172,-0.008894943,0.649282661,-2.323131827,-0.000192466,-0.005663298,-0.020271858,0.999777152,0.000000000,0.000000000,0.000000000,0.000000000,0.000000000,0.000000000,-2.324202661,0.000000000,4.164809227
1772426661.750734806,0.015318000,0.007632000,0.054225000,0.000956080,-0.010921580,-0.026371350,0.999592100,0.002488000,-0.021786000,-0.052779000,-0.000251205,0.000192813,-0.000131410,0.003516538,-0.026024890,0.000317239,0.011778795,0.001213942,0.998995131,-0.000932437,-0.001321917,0.001983808,0.000000000,0.000000000,0.000000000,0.000000000,0.015256101,0.007607624,0.054203448,-0.005427082,-0.002810586,-0.002295015,-0.000005866,0.000507436,-0.000977637,-0.008778992,0.648677927,-2.320631757,-0.000191224,-0.005658046,-0.020250040,0.999777675,0.000000000,0.000000000,0.000000000,0.000000000,0.000000000,0.000000000,-2.321817507,0.000000000,4.164809227
1772426661.760734797,0.015314000,0.007637000,0.054223000,0.000987300,-0.011039230,-0.026408160,0.999589800,0.002557000,-0.022019000,-0.052854000,-0.000307751,0.000156799,-0.000062044,0.005942113,-0.018507240,0.001856532,0.010687400,-0.000459846,0.999200842,0.000772183,-0.002933246,-0.000841974,0.000000000,0.000000000,0.000000000,0.000000000,0.015259402,0.007605709,0.054206041,-0.005289933,-0.002733818,-0.002328406,-0.000806919,0.000633648,-0.000933707,-0.008647918,0.648587599,-2.318076023,-0.000189939,-0.005657285,-0.020227735,0.999778185,0.000000000,0.000000000,0.000000000,0.000000000,0.000000000,0.000000000,-2.318974758,0.000000000,4.164809227
1772426661.770735025,0.015312000,0.007635000,0.054221000,0.001086390,-0.011006350,-0.026346440,0.999591690,0.002753000,-0.021948000,-0.052732000,-0.000197999,-0.000089336,-0.000055925,0.005940412,0.006291675,0.004402699,0.010792757,0.000053087,0.998378569,0.002281329,-0.000287989,0.002690016,0.000000000,0.000000000,0.000000000,0.000000000,0.015263496,0.007604378,0.054207633,-0.005198644,-0.002656217,-0.002329319,-0.000249972,0.000248947,-0.001519316,-0.007992822,0.648256941,-2.316000852,-0.000184062,-0.005654520,-0.020209596,0.999778565,0.000000000,0.000000000,0.000000000,0.000000000,0.000000000,0.000000000,-2.316804206,0.000000000,4.164809227
1772426661.780735016,0.015318000,0.007638000,0.054231000,0.001117900,-0.011143540,-0.026239040,0.999592960,0.002820000,-0.022221000,-0.052519000,0.000049806,-0.000207576,-0.000067114,0.004929834,0.029507187,0.007368667,0.011163743,-0.000281411,0.999070951,-0.001393789,0.003038326,0.002194499,0.000000000,0.000000000,0.000000000,0.000000000,0.015268435,0.007605431,0.054207950,-0.005155309,-0.002574095,-0.002315101,-0.000085125,-0.000124072,-0.000906283,-0.006600464,0.647553760,-2.313969657,-0.000171690,-0.005648633,-0.020191806,0.999778953,0.000000000,0.000000000,0.000000000,0.000000000,0.000000000,0.000000000,-2.314631379,0.000000000,4.164809227
1772426661.790735960,0.015313000,0.007641000,0.054230000,0.001133580,-0.011097920,-0.026241000,0.999593400,0.002849000,-0.022129000,-0.052523000,0.000178458,-0.000084402,0.000029992,0.005438912,0.036351029,0.006678787,0.010239387,-0.001560139,0.998766417,-0.000302880,0.002162563,0.002519900,0.000000000,0.000000000,0.000000000,0.000000000,0.015272697,0.007609827,0.054208062,-0.005092093,-0.002487238,-0.002353027,-0.000777583,-0.001259998,-0.001252493,-0.006643661,0.646568566,-2.312011348,-0.000171797,-0.005640033,-0.020174722,0.999779353,0.000000000,0.000000000,0.000000000,0.000000000,0.000000000,0.000000000,-2.312632139,0.000000000,4.164809227
1772426661.800735474,0.015314000,0.007629000,0.054218000,0.001132500,-0.010589240,-0.026280360,0.999597880,0.002821000,-0.021112000,-0.052600000,0.000051340,-0.000108061,0.000017988,0.003674235,0.028489997,0.001216119,0.009499987,-0.002058354,0.998100381,0.001369150,0.002086004,0.002064552,0.000000000,0.000000000,0.000000000,0.000000000,0.015270584,0.007609017,0.054205834,-0.005026772,-0.002450933,-0.002334408,-0.001697231,-0.001955809,-0.001209594,-0.006560459,0.645702341,-2.309337905,-0.000170787,-0.005632494,-0.020151393,0.999779725,0.000000000,0.000000000,0.000000000,0.000000000,0.000000000,0.000000000,-2.310608507,0.000000000,4.164809227
1772426661.810735703,0.015321000,0.007624000,0.054221000,0.001082510,-0.010164900,-0.026248930,0.999603170,0.002698000,-0.020266000,-0.052534000,-0.000095785,0.000004759,0.000061597,0.002932055,0.008081929,-0.005153728,0.010598661,-0.000147527,0.997676279,-0.001519154,0.005945964,-0.001056693,0.000000000,0.000000000,0.000000000,0.000000000,0.015267816,0.007609453,0.054203384,-0.005060227,-0.002495125,-0.002379571,-0.000571507,-0.000101373,-0.002371631,-0.006248905,0.644053257,-2.306106288,-0.000167621,-0.005618166,-0.020123184,0.999780369,0.000000000,0.000000000,0.000000000,0.000000000,0.000000000,0.000000000,-2.307396617,0.000000000,4.164809227
1772426661.820734501,0.015317000,0.007637000,0.054227000,0.001210790,-0.010512010,-0.026243230,0.999599580,0.002973000,-0.020954000,-0.052527000,-0.000334829,0.000182051,0.000047669,0.003398777,-0.012408342,-0.009805913,0.010600031,-0.000732911,0.997875638,-0.003141153,-0.001413568,-0.000658417,0.000000000,0.000000000,0.000000000,0.000000000,0.015264870,0.007610232,0.054200874,-0.005120762,-0.002561383,-0.002442217,-0.000509624,0.000024157,-0.002023037,-0.006830716,0.641652042,-2.303258704,-0.000172136,-0.005597118,-0.020098370,0.999781166,0.000000000,0.000000000,0.000000000,0.000000000,0.000000000,0.000000000,-2.304063672,0.000000000,4.164809227
1772426661.830734730,0.015310000,0.007640000,0.054231000,0.001242130,-0.010812440,-0.026312940,0.999594510,0.003053000,-0.021552000,-0.052668000,-0.000344134,0.000254643,0.000022261,0.000820512,-0.029625623,-0.010977533,0.008809166,-0.002976792,1.000488212,0.000917542,-0.000467589,0.001198938,0.000000000,0.000000000,0.000000000,0.000000000,0.015264251,0.007612152,0.054202087,-0.005119338,-0.002557516,-0.002485555,-0.001613848,-0.002560097,0.000946659,-0.007796019,0.641205837,-2.300732213,-0.000180356,-0.005593060,-0.020076374,0.999781528,0.000000000,0.000000000,0.000000000,0.000000000,0.000000000,0.000000000,-2.301942232,0.000000000,4.164809227
1772426661.840734720,0.015307000,0.007635000,0.054226000,0.001169640,-0.011017560,-0.026421590,0.999589490,0.002921000,-0.021966000,-0.052885000,-0.000147766,0.000131857,0.000001768,-0.002613146,-0.038700114,-0.008814684,0.008808220,-0.002732896,0.999988892,0.003820575,0.001579950,0.000931438,0.000000000,0.000000000,0.000000000,0.000000000,0.015264293,0.007614397,0.054204359,-0.005100295,-0.002533707,-0.002523401,-0.002117523,-0.002297837,0.000668493,-0.006536666,0.640363042,-2.298066465,-0.000169091,-0.005585931,-0.020053056,0.999781993,0.000000000,0.000000000,0.000000000,0.000000000,0.000000000,0.000000000,-2.299248045,0.000000000,4.164809227
1772426661.850735664,0.015305000,0.007639000,0.054227000,0.001138050,-0.011012080,-0.026450350,0.999588820,0.002858000,-0.021957000,-0.052942000,0.000027176,-0.000118862,-0.000169600,-0.007102542,-0.017951336,-0.005174463,0.009188092,-0.000096371,0.998582707,0.000882057,-0.001070850,-0.001168483,0.000000000,0.000000000,0.000000000,0.000000000,0.015265219,0.007608113,0.054201836,-0.005215407,-0.002725778,-0.002388491,-0.002124377,-0.000506393,-0.001547890,-0.005955280,0.638016274,-2.294742040,-0.000163447,-0.005565562,-0.020024021,0.999782712,0.000000000,0.000000000,0.000000000,0.000000000,0.000000000,0.000000000,-2.295771118,0.000000000,4.164809227
1772426661.860736609,0.015302000,0.007641000,0.054220000,0.001114760,-0.010953610,-0.026478980,0.999588740,0.002809000,-0.021841000,-0.052998000,0.000295377,-0.000373077,-0.000073971,-0.011171946,0.012516915,0.001510851,0.010865053,-0.000361920,0.998714798,0.000142350,-0.000375970,-0.000005725,0.000000000,0.000000000,0.000000000,0.000000000,0.015265843,0.007603110,0.054200101,-0.005339506,-0.002868721,-0.002279460,-0.001192435,0.000239482,-0.001404097,-0.006326691,0.638052972,-2.292350368,-0.000166577,-0.005565821,-0.020003174,0.999783279,0.000000000,0.000000000,0.000000000,0.000000000,0.000000000,0.000000000,-2.292965797,0.000000000,4.164809227
1772426661.870736837,0.015317000,0.007629000,0.054220000,0.001038600,-0.010954210,-0.026413550,0.999590540,0.002656000,-0.021846000,-0.052865000,0.000332770,-0.000292230,0.000086383,-0.009236884,0.023966264,0.006401224,0.011777396,-0.000125101,0.998171348,0.002906089,-0.001524111,0.000289777,0.000000000,0.000000000,0.000000000,0.000000000,0.015263932,0.007606900,0.054203503,-0.005388553,-0.002749185,-0.002321081,0.000903378,-0.000070629,-0.001444559,-0.005862098,0.637762570,-2.290089547,-0.000162363,-0.005563372,-0.019983426,0.999783671,0.000000000,0.000000000,0.000000000,0.000000000,0.000000000,0.000000000,-2.290772189,0.000000000,4.164809227
1772426661.880737305,0.015323000,0.007627000,0.054230000,0.001032210,-0.011026570,-0.026330160,0.999591950,0.002645000,-0.021992000,-0.052699000,0.000139666,-0.000082110,0.000122164,-0.005936016,0.020712528,0.008102756,0.009365137,-0.001558334,0.998032135,-0.000197746,0.003326222,-0.001288716,0.000000000,0.000000000,0.000000000,0.000000000,0.015260269,0.007609535,0.054205441,-0.005299591,-0.002682822,-0.002328355,-0.001456971,-0.000834879,-0.001254395,-0.004658264,0.638268803,-2.288316513,-0.000151862,-0.005568001,-0.019967898,0.999783524,0.000000000,0.000000000,0.000000000,0.000000000,0.000000000,0.000000000,-2.292331183,0.000000000,4.164809227
1772426661.890737057,0.015310000,0.007631000,0.054224000,0.000997240,-0.010551300,-0.026350210,0.999596590,0.002550000,-0.021043000,-0.052736000,-0.000181838,0.000046251,0.000031760,-0.002236031,0.010384346,0.006909153,0.009078358,-0.002363721,0.999066176,-0.000965348,0.000066195,-0.000298741,0.000000000,0.000000000,0.000000000,0.000000000,0.015257530,0.007609701,0.054204590,-0.005191412,-0.002633579,-0.002379534,-0.001316270,-0.001720523,-0.000472412,-0.005221820,0.637372867,-2.290386761,-0.000156724,-0.005560083,-0.019985990,0.999783067,0.000000000,0.000000000,0.000000000,0.000000000,0.000000000,0.000000000,-2.294914320,0.000000000,4.164809227
1772426661.900737286,0.015316000,0.007626000,0.054231000,0.000981850,-0.010532030,-0.026306820,0.999597950,0.002518000,-0.021005000,-0.052649000,-0.000296387,0.000259266,-0.000038345,0.004129240,-0.005064464,0.005520917,0.009623156,-0.002719071,1.000287628,-0.000112667,-0.005727773,0.001459642,0.000000000,0.000000000,0.000000000,0.000000000,0.015256175,0.007610775,0.054204565,-0.005261016,-0.002666745,-0.002403718,-0.002269512,-0.002307364,0.000033296,-0.005773862,0.637032534,-2.293134657,-0.000161614,-0.005557014,-0.020009992,0.999782610,0.000000000,0.000000000,0.000000000,0.000000000,0.000000000,0.000000000,-2.297258283,0.000000000,4.164809227
1772426661.910737514,0.015308000,0.007638000,0.054225000,0.001026470,-0.010778190,-0.026308020,0.999595250,0.002620000,-0.021495000,-0.052653000,-0.000276379,0.000384868,-0.000150369,0.012411826,-0.024953855,0.005096940,0.008699287,-0.002581080,0.999716131,0.002843212,-0.002505966,0.000636944,0.000000000,0.000000000,0.000000000,0.000000000,0.015254157,0.007612006,0.054202971,-0.005323769,-0.002745679,-0.002368115,-0.002706662,-0.002332629,-0.000120992,-0.005546954,0.638233199,-2.295383518,-0.000159953,-0.005567526,-0.020029601,0.999782694,0.000000000,0.000000000,0.000000000,0.000000000,0.000000000,0.000000000,-2.296260227,0.000000000,4.164809227
1772426661.920737267,0.015303000,0.007642000,0.054220000,0.001092790,-0.010992680,-0.026262610,0.999594040,0.002763000,-0.021921000,-0.052565000,0.000020493,0.000208819,0.000002389,0.015942622,-0.033727353,0.004676222,0.010880136,-0.002351232,0.998691119,0.001284817,-0.000138964,-0.001003336,0.000000000,0.000000000,0.000000000,0.000000000,0.015253751,0.007611361,0.054200527,-0.005399848,-0.002875095,-0.002280547,-0.001027933,-0.001946133,-0.001117094,-0.004159882,0.639009806,-2.293441579,-0.000147893,-0.005574547,-0.020012591,0.999783029,0.000000000,0.000000000,0.000000000,0.000000000,0.000000000,0.000000000,-2.294105916,0.000000000,4.164809227
1772426661.930737257,0.015304000,0.007636000,0.054223000,0.001175270,-0.011058010,-0.026244750,0.999593690,0.002931000,-0.022047000,-0.052531000,0.000097863,-0.000023932,0.000120863,0.014883261,-0.018850798,0.000973883,0.011865439,-0.001685149,0.997634923,0.000086612,0.003684467,-0.001038205,0.000000000,0.000000000,0.000000000,0.000000000,0.015258543,0.007606143,0.054200132,-0.005502781,-0.003014887,-0.002216678,0.001928927,-0.002320402,-0.002322093,-0.004150466,0.637671229,-2.291894660,-0.000147502,-0.005562871,-0.019999094,0.999783329,0.000000000,0.000000000,0.000000000,0.000000000,0.000000000,0.000000000,-2.292428629,0.000000000,4.164809227
1772426661.940737247,0.015317000,0.007640000,0.054226000,0.001271680,-0.011243860,-0.026227860,0.999591950,0.003133000,-0.022414000,-0.052500000,0.000032284,-0.000128924,0.000090812,0.006506081,0.013834794,-0.004521680,0.010977315,-0.001265731,0.997566461,-0.000013826,0.005650941,-0.001245668,0.000000000,0.000000000,0.000000000,0.000000000,0.015263336,0.007601598,0.054204468,-0.005375663,-0.003137605,-0.002244191,-0.000274402,-0.001085075,-0.001846057,-0.004539758,0.635720505,-2.290462076,-0.000150488,-0.005545785,-0.019986613,0.999783674,0.000000000,0.000000000,0.000000000,0.000000000,0.000000000,0.000000000,-2.290917151,0.000000000,4.164809227
1772426661.950737953,0.015312000,0.007638000,0.054229000,0.001326880,-0.011203500,-0.026226840,0.999592350,0.003241000,-0.022330000,-0.052499000,0.000113695,-0.000194153,0.000261694,-0.002963443,0.036850295,-0.007217617,0.009687912,-0.001061306,0.998334357,-0.000268821,0.003046080,-0.001434477,0.000000000,0.000000000,0.000000000,0.000000000,0.015260928,0.007601019,0.054203488,-0.005192258,-0.003196767,-0.002366560,-0.001897365,-0.000656261,-0.002117062,-0.004516145,0.634103121,-2.289025292,-0.000149931,-0.005531680,-0.019974078,0.999784094,0.000000000,0.000000000,0.000000000,0.000000000,0.000000000,0.000000000,-2.288802795,0.000000000,4.164809227
1772426661.960737944,0.015311000,0.007631000,0.054235000,0.001226430,-0.010718700,-0.026340580,0.999594810,0.003017000,-0.021366000,-0.052723000,0.000035936,-0.000122844,0.000077079,-0.009679639,0.038388543,-0.008302993,0.009480516,-0.000535666,0.998500067,-0.001275598,-0.000257591,-0.000363930,0.000000000,0.000000000,0.000000000,0.000000000,0.015260079,0.007601722,0.054203452,-0.005208444,-0.003178994,-0.002433099,-0.001540383,-0.000468447,-0.001919907,-0.004352374,0.632983074,-2.287228636,-0.000148220,-0.005521939,-0.019958395,0.999784430,0.000000000,0.000000000,0.000000000,0.000000000,0.000000000,0.000000000,-2.286688591,0.000000000,4.164809227
1772426661.970737934,0.015303000,0.007631000,0.054223000,0.001159350,-0.010349660,-0.026423090,0.999596600,0.002865000,-0.020631000,-0.052885000,-0.000132129,0.000000350,-0.000111772,-0.011212221,0.024676803,-0.006812554,0.010334312,-0.001920238,0.997417899,-0.000933340,0.000500163,-0.003091331,0.000000000,0.000000000,0.000000000,0.000000000,0.015259486,0.007602635,0.054203572,-0.005257403,-0.003148588,-0.002490473,-0.000228714,-0.001736567,-0.001841390,-0.004318345,0.632468941,-2.284471132,-0.000147701,-0.005517462,-0.019934336,0.999784924,0.000000000,0.000000000,0.000000000,0.000000000,0.000000000,0.000000000,-2.284574387,0.000000000,4.164809227
1772426661.980737448,0.015311000,0.007638000,0.054228000,0.001071900,-0.010470570,-0.026386790,0.999596400,0.002696000,-0.020878000,-0.052811000,-0.000239472,0.000069309,-0.000158159,-0.007059216,-0.002996765,-0.003007685,0.008979224,-0.003152368,0.997417112,-0.000930788,-0.001445187,-0.000573243,0.000000000,0.000000000,0.000000000,0.000000000,0.015254619,0.007606807,0.054199192,-0.005252540,-0.003177127,-0.002629367,-0.002565874,-0.002954717,-0.002821576,-0.004214862,0.631738072,-2.281713960,-0.000146538,-0.005511107,-0.019910277,0.999785460,0.000000000,0.000000000,0.000000000,0.000000000,0.000000000,0.000000000,-2.282284104,0.000000000,4.164809227
1772426661.990737438,0.015312000,0.007636000,0.054233000,0.001101300,-0.010587720,-0.026365700,0.999595690,0.002761000,-0.021110000,-0.052770000,-0.000040909,0.000110121,-0.000224262,-0.000372896,-0.030197089,0.001007911,0.010329771,-0.001623999,1.000074937,-0.001114234,0.000597287,-0.001246786,0.000000000,0.000000000,0.000000000,0.000000000,0.015255131,0.007605638,0.054198883,-0.005273567,-0.003381432,-0.002739241,-0.001809852,-0.001392450,-0.000444698,-0.004734898,0.630978247,-2.277995009,-0.000150765,-0.005504393,-0.019877856,0.999786076,0.000000000,0.000000000,0.000000000,0.000000000,0.000000000,0.000000000,-2.278820882,0.000000000,4.164809227
1772426662.000737190,0.015307000,0.007633000,0.054217000,0.001111100,-0.010881640,-0.026376160,0.999592240,0.002796000,-0.021698000,-0.052792000,0.000024242,0.000097300,-0.000136947,0.003863809,-0.036832201,0.002867716,0.010645333,-0.000038092,1.000127248,-0.001900553,-0.002195725,-0.000311443,0.000000000,0.000000000,0.000000000,0.000000000,0.015258144,0.007605140,0.054200034,-0.005384272,-0.003529104,-0.002746171,-0.001110059,-0.000802141,0.000449321,-0.004950622,0.630407706,-2.276341089,-0.000152469,-0.005499380,-0.019863436,0.999786458,0.000000000,0.000000000,0.000000000,0.000000000,0.000000000,0.000000000,-2.276742690,0.000000000,4.164809227
1772426662.010737181,0.015301000,0.007640000,0.054224000,0.001148760,-0.011011530,-0.026376910,0.999590760,0.002878000,-0.021955000,-0.052795000,0.000028205,-0.000016880,-0.000070357,0.001209965,-0.018552489,0.002381570,0.012370792,-0.001632938,0.998957630,0.000768564,-0.002957632,0.002149772,0.000000000,0.000000000,0.000000000,0.000000000,0.015244732,0.007591396,0.054198719,-0.005379124,-0.003596304,-0.002543554,0.000813992,-0.003852342,-0.000646851,-0.004944118,0.630854268,-2.275130675,-0.000152431,-0.005503278,-0.019852874,0.999786624,0.000000000,0.000000000,0.000000000,0.000000000,0.000000000,0.000000000,-2.275660004,0.000000000,4.164809227
1772426662.020737171,0.015305000,0.007637000,0.054224000,0.001150980,-0.011170010,-0.026341710,0.999589930,0.002890000,-0.022272000,-0.052725000,0.000107401,-0.000078205,-0.000058644,-0.004181046,0.006517358,0.001996437,0.013438834,-0.001693631,0.998138713,0.000925113,-0.000901885,0.000456155,0.000000000,0.000000000,0.000000000,0.000000000,0.015256639,0.007600125,0.054203373,-0.005113175,-0.003877195,-0.002423792,0.003171614,-0.001286951,-0.000990830,-0.003770882,0.631290511,-2.274248929,-0.000142228,-0.005507290,-0.019845124,0.999786546,0.000000000,0.000000000,0.000000000,0.000000000,0.000000000,0.000000000,-2.274577317,0.000000000,4.164809227
1772426662.030737400,0.015316000,0.007633000,0.054219000,0.001099990,-0.010912530,-0.026360900,0.999592320,0.002775000,-0.021760000,-0.052761000,0.000126535,-0.000073990,0.000043182,-0.009139508,0.023424100,0.001842839,0.010705538,-0.001671477,0.999060703,-0.003008516,0.001993991,-0.001632174,0.000000000,0.000000000,0.000000000,0.000000000,0.015259709,0.007598707,0.054206117,-0.004804719,-0.004037802,-0.002453078,0.000033746,-0.001410775,-0.001144798,-0.003846398,0.630274285,-2.273356739,-0.000142668,-0.005498411,-0.019837345,0.999786854,0.000000000,0.000000000,0.000000000,0.000000000,0.000000000,0.000000000,-2.273730308,0.000000000,4.164809227
