t,px,py,pz,qx,qy,qz,qw,roll,pitch,yaw,vx,vy,vz,wx_vicon,wy_vicon,wz_vicon,imu_acc_x,imu_acc_y,imu_acc_z,imu_gyro_x,imu_gyro_y,imu_gyro_z,motor_motor_m1,motor_motor_m2,motor_motor_m3,motor_motor_m4,est_stateEstimate_x,est_stateEstimate_y,est_stateEstimate_z,est_stateEstimate_vx,est_stateEstimate_vy,est_stateEstimate_vz,est_stateEstimate_ax,est_stateEstimate_ay,est_stateEstimate_az,att_stateEstimate_roll,att_stateEstimate_pitch,att_stateEstimate_yaw,att_stateEstimate_qx,att_stateEstimate_qy,att_stateEstimate_qz,att_stateEstimate_qw,sp_ctrltarget_x,sp_ctrltarget_y,sp_ctrltarget_z,sp_ctrltarget_yaw,pid_controller_roll,pid_controller_pitch,pid_controller_yaw,pid_controller_cmd_thrust,pwr_pm_vbat
1772426634.140748739,0.015306000,0.007640000,0.054215000,0.001130020,-0.010828690,-0.026120050,0.999599520,0.002825000,-0.021591000,-0.052280000,-0.001199399,0.000688598,0.000806994,0.016769250,-0.045704184,-0.010791892,0.018309560,0.011258220,0.997114804,-0.006086800,0.002120507,0.004945862,0.000000000,0.000000000,0.000000000,0.000000000,0.015301150,0.007616152,0.054260572,0.000580654,0.005524731,-0.007820910,0.003516764,0.001654491,0.000961932,0.291263642,0.892388986,-2.338424581,0.002382239,-0.007837709,-0.020384696,0.999758637,0.000000000,0.000000000,0.000000000,0.000000000,0.000000000,0.000000000,-2.337659499,0.000000000,4.053958893
1772426634.150748730,0.015312000,0.007645000,0.054229000,0.001125370,-0.010947150,-0.026082230,0.999599230,0.002822000,-0.021829000,-0.052204000,-0.000595436,0.000242910,0.000059324,0.003869728,-0.011748617,-0.006311124,0.016986043,0.007745616,0.997471792,-0.004404935,0.002635349,0.002872167,0.000000000,0.000000000,0.000000000,0.000000000,0.015310026,0.007676655,0.054176596,0.000730183,0.005724887,-0.008018610,0.002372141,0.000941710,-0.000597852,0.290550033,0.891857608,-2.341643341,0.002375888,-0.007833013,-0.020412837,0.999758152,0.000000000,0.000000000,0.000000000,0.000000000,0.000000000,0.000000000,-2.341096888,0.000000000,4.053958893
1772426634.160748720,0.015294000,0.007645000,0.054218000,0.001195450,-0.010942880,-0.026137660,0.999597740,0.002963000,-0.021816000,-0.052317000,-0.000154526,-0.000007090,-0.000258975,-0.002507595,0.008825039,-0.003063006,0.015662526,0.004233012,0.997828781,-0.002723069,0.003150192,0.000798472,0.000000000,0.000000000,0.000000000,0.000000000,0.015318902,0.007737158,0.054092620,0.000879712,0.005925044,-0.008216309,0.001227518,0.000228930,-0.002157636,0.289810363,0.891411479,-2.344774365,0.002369300,-0.007829054,-0.020440214,0.999757667,0.000000000,0.000000000,0.000000000,0.000000000,0.000000000,0.000000000,-2.344418006,0.000000000,4.053958893
1772426634.170749426,0.015293000,0.007647000,0.054211000,0.001156180,-0.010918200,-0.026230050,0.999595640,0.002885000,-0.021769000,-0.052501000,0.000138015,-0.000106857,-0.000269581,-0.004050645,0.018296530,-0.000995482,0.016269578,0.005924664,0.996690668,-0.000858893,0.002784528,-0.000545139,0.000000000,0.000000000,0.000000000,0.000000000,0.015316989,0.007720569,0.054113492,0.000844496,0.005695311,-0.007964187,0.000770679,0.000549660,-0.003500449,0.289107937,0.890862008,-2.348024648,0.002363048,-0.007824201,-0.020468633,0.999757113,0.000000000,0.000000000,0.000000000,0.000000000,0.000000000,0.000000000,-2.347452047,0.000000000,4.053958893
1772426634.180749416,0.015300000,0.007641000,0.054222000,0.001104790,-0.010824810,-0.026189530,0.999597770,0.002776000,-0.021585000,-0.052418000,0.000296873,-0.000101845,-0.000094173,-0.002438492,0.018946358,-0.000055485,0.016273691,0.008218948,0.994725905,-0.002882116,-0.003310209,-0.003816726,0.000000000,0.000000000,0.000000000,0.000000000,0.015320053,0.007738457,0.054086013,0.000860953,0.005596633,-0.008025811,0.000914583,0.002714034,-0.004489089,0.289059718,0.889943366,-2.351996924,0.002362521,-0.007816260,-0.020503312,0.999756326,0.000000000,0.000000000,0.000000000,0.000000000,0.000000000,0.000000000,-2.351315897,0.000000000,4.053958893
1772426634.190749645,0.015302000,0.007645000,0.054212000,0.001173090,-0.010660780,-0.026168710,0.999600010,0.002904000,-0.021253000,-0.052377000,0.000336733,-0.000037510,0.000145571,0.000642622,0.013053758,-0.000192309,0.016170278,0.007420845,0.995892339,-0.001601370,0.002652299,0.002443828,0.000000000,0.000000000,0.000000000,0.000000000,0.015317566,0.007719274,0.054115018,0.000824891,0.005567722,-0.007963148,0.001001711,0.002259993,-0.004584161,0.288989249,0.890030659,-2.356461499,0.002361585,-0.007817101,-0.020542268,0.999755393,0.000000000,0.000000000,0.000000000,0.000000000,0.000000000,0.000000000,-2.355728548,0.000000000,4.053958893
1772426634.200749636,0.015310000,0.007642000,0.054218000,0.001106580,-0.010662610,-0.026124460,0.999601220,0.002770000,-0.021260000,-0.052287000,0.000314705,0.000001437,0.000196776,0.000716974,0.000359216,-0.000747913,0.016556937,0.005972118,0.996300400,0.000400408,0.000605898,-0.000955833,0.000000000,0.000000000,0.000000000,0.000000000,0.015313654,0.007697447,0.054146583,0.000774131,0.005537514,-0.007885942,0.000913676,0.000996531,-0.004123342,0.287879893,0.890813259,-2.361009837,0.002351456,-0.007823823,-0.020582010,0.999754758,0.000000000,0.000000000,0.000000000,0.000000000,0.000000000,0.000000000,-2.360657537,0.000000000,4.053958893
1772426634.210749865,0.015314000,0.007644000,0.054229000,0.001157750,-0.010714000,-0.026160330,0.999599670,0.002876000,-0.021360000,-0.052360000,-0.000039705,0.000026399,-0.000038753,0.001432814,-0.013770040,-0.004244439,0.016207583,0.007502621,0.996318585,0.002286175,-0.001255101,0.000721593,0.000000000,0.000000000,0.000000000,0.000000000,0.015310745,0.007698948,0.054144418,0.000755539,0.005503948,-0.007912899,0.000403943,0.002195938,-0.003853961,0.286682613,0.890552462,-2.364306915,0.002340832,-0.007821400,-0.020610862,0.999754056,0.000000000,0.000000000,0.000000000,0.000000000,0.000000000,0.000000000,-2.363761146,0.000000000,4.053958893
1772426634.220749855,0.015305000,0.007647000,0.054220000,0.001204870,-0.010747430,-0.026243460,0.999597080,0.002974000,-0.021425000,-0.052528000,-0.000221581,0.000024340,-0.000215268,0.001007902,-0.018839252,-0.009105770,0.016648743,0.008048768,0.995038317,0.000787409,0.002555535,0.003623909,0.000000000,0.000000000,0.000000000,0.000000000,0.015308029,0.007700187,0.054142346,0.000725069,0.005490710,-0.007915022,0.000917910,0.003211639,-0.004147434,0.287247917,0.891622202,-2.368697545,0.002345271,-0.007830925,-0.020649104,0.999753104,0.000000000,0.000000000,0.000000000,0.000000000,0.000000000,0.000000000,-2.367867292,0.000000000,4.053958893
1772426634.230749130,0.015302000,0.007642000,0.054219000,0.001160520,-0.010900500,-0.026273320,0.999594690,0.002894000,-0.021733000,-0.052587000,-0.000000019,-0.000122553,-0.000072028,-0.001503824,-0.014577892,-0.009348186,0.018970623,0.006263541,0.995032956,0.000702115,-0.002006457,0.004102124,0.000000000,0.000000000,0.000000000,0.000000000,0.015308563,0.007700882,0.054140128,0.000728836,0.005584177,-0.007960006,0.003025146,0.001352715,-0.004678711,0.288630778,0.892548354,-2.373067920,0.002356870,-0.007839344,-0.020687117,0.999752502,0.000000000,0.000000000,0.000000000,0.000000000,0.000000000,0.000000000,-2.372768143,0.000000000,4.053958893
1772426634.240749121,0.015303000,0.007643000,0.054210000,0.001100970,-0.011052100,-0.026299240,0.999592410,0.002783000,-0.022039000,-0.052638000,0.000022766,-0.000090152,-0.000054604,-0.003858260,0.006845365,-0.007213922,0.017309535,0.006124357,0.995116035,-0.002525146,0.000925464,-0.001808415,0.000000000,0.000000000,0.000000000,0.000000000,0.015310752,0.007701937,0.054141059,0.000895698,0.005577657,-0.008044665,0.002376164,0.000751921,-0.004516864,0.288844378,0.891514636,-2.375745632,0.002358737,-0.007830419,-0.020710487,0.999752009,0.000000000,0.000000000,0.000000000,0.000000000,0.000000000,0.000000000,-2.375506010,0.000000000,4.053958893
1772426634.250748873,0.015303000,0.007643000,0.054215000,0.001130160,-0.010974840,-0.026336010,0.999592260,0.002838000,-0.021883000,-0.052712000,0.000201243,-0.000043240,0.000210024,-0.005356746,0.018777384,-0.001892188,0.016459311,0.007100846,0.995583773,-0.000708162,0.000798625,-0.001106975,0.000000000,0.000000000,0.000000000,0.000000000,0.015317353,0.007726327,0.054106990,0.001097979,0.005565741,-0.008267447,0.001021645,0.001977390,-0.004206524,0.289148754,0.892564832,-2.378093205,0.002361042,-0.007839685,-0.020730923,0.999751401,0.000000000,0.000000000,0.000000000,0.000000000,0.000000000,0.000000000,-2.377535333,0.000000000,4.053958893
1772426634.260748863,0.015311000,0.007640000,0.054221000,0.001143200,-0.010703280,-0.026364790,0.999594430,0.002851000,-0.021339000,-0.052769000,0.000155128,-0.000028730,0.000353594,-0.003429918,0.024872857,0.001842141,0.016737801,0.007139543,0.996313103,-0.001058227,-0.001601916,0.002443486,0.000000000,0.000000000,0.000000000,0.000000000,0.015321296,0.007733620,0.054094479,0.001152810,0.005555644,-0.008368492,0.001492895,0.001946507,-0.003918648,0.288887018,0.891887657,-2.381759287,0.002358631,-0.007833805,-0.020762941,0.999750884,0.000000000,0.000000000,0.000000000,0.000000000,0.000000000,0.000000000,-2.381433008,0.000000000,4.053958893
1772426634.270748615,0.015320000,0.007638000,0.054229000,0.001058600,-0.010576010,-0.026321040,0.999597030,0.002674000,-0.021089000,-0.052679000,-0.000091298,-0.000009907,-0.000015249,-0.000999889,0.022845549,0.000104001,0.015833690,0.007511948,0.996234900,0.000224504,-0.002741320,-0.001906451,0.000000000,0.000000000,0.000000000,0.000000000,0.015323303,0.007723412,0.054107021,0.001174448,0.005535879,-0.008287971,0.000860229,0.002266362,-0.003424704,0.288779872,0.892016386,-2.384540111,0.002357483,-0.007834966,-0.020787206,0.999750389,0.000000000,0.000000000,0.000000000,0.000000000,0.000000000,0.000000000,-2.384222602,0.000000000,4.053958893
1772426634.280749083,0.015299000,0.007646000,0.054223000,0.001061850,-0.010305850,-0.026309980,0.999600140,0.002666000,-0.020549000,-0.052656000,-0.000249476,0.000007906,-0.000238559,-0.000127551,0.010857011,-0.001734425,0.015664703,0.005650245,0.995541254,-0.000784924,0.002548545,0.001203760,0.000000000,0.000000000,0.000000000,0.000000000,0.015317463,0.007724263,0.054102748,0.001133994,0.005557885,-0.008267230,0.000143341,0.000958753,-0.004789131,0.289129285,0.892483474,-2.387919973,0.002360215,-0.007839174,-0.020816660,0.999749518,0.000000000,0.000000000,0.000000000,0.000000000,0.000000000,0.000000000,-2.387303648,0.000000000,4.053958893
1772426634.290749550,0.015309000,0.007643000,0.054224000,0.001128690,-0.010662260,-0.026279090,0.999597140,0.002817000,-0.021258000,-0.052597000,-0.000121387,0.000032576,-0.000322728,0.001813598,-0.003080893,-0.000263691,0.015649533,0.006748389,0.993258175,0.000384404,0.000752784,0.001172964,0.000000000,0.000000000,0.000000000,0.000000000,0.015312290,0.007728367,0.054093478,0.001040461,0.005508571,-0.008347319,0.000350458,0.000765694,-0.004975214,0.289657198,0.892107460,-2.391485429,0.002364645,-0.007836063,-0.020847740,0.999748979,0.000000000,0.000000000,0.000000000,0.000000000,0.000000000,0.000000000,-2.391524256,0.000000000,4.053958893
1772426634.300749063,0.015298000,0.007637000,0.054210000,0.001110470,-0.010563340,-0.026338000,0.999596660,0.002777000,-0.021061000,-0.052714000,0.000065268,-0.000073640,-0.000129274,0.002991682,-0.008597924,0.001582951,0.016354393,0.005752320,0.997069556,-0.002022547,-0.000557572,0.000385362,0.000000000,0.000000000,0.000000000,0.000000000,0.015313321,0.007727275,0.054093104,0.000983009,0.005419743,-0.008465651,0.000893176,0.001252889,-0.004469501,0.290099740,0.890615582,-2.391244888,0.002368794,-0.007823123,-0.020845644,0.999748426,0.000000000,0.000000000,0.000000000,0.000000000,0.000000000,0.000000000,-2.391244888,0.000000000,4.053958893
1772426634.310748100,0.015303000,0.007641000,0.054203000,0.001112190,-0.010607190,-0.026423730,0.999593940,0.002785000,-0.021149000,-0.052886000,0.000249592,-0.000176185,0.000181488,0.002436745,-0.004006362,0.001160562,0.016036930,0.007364360,0.997290736,-0.001344502,-0.001173699,-0.000738007,0.000000000,0.000000000,0.000000000,0.000000000,0.015312688,0.007717425,0.054103997,0.000944305,0.005317427,-0.008451770,0.000693802,0.001584013,-0.002221617,0.289878876,0.890309549,-2.391000042,0.002366940,-0.007820408,-0.020843530,0.999748627,0.000000000,0.000000000,0.000000000,0.000000000,0.000000000,0.000000000,-2.391214351,0.000000000,4.053683401
1772426634.320748329,0.015311000,0.007643000,0.054224000,0.001125880,-0.010638630,-0.026320160,0.999596320,0.002812000,-0.021211000,-0.052679000,0.000356003,-0.000139588,0.000371368,-0.001461828,-0.005927364,0.001648336,0.016576340,0.006550692,0.995740822,-0.000399492,-0.000301767,0.000395689,0.000000000,0.000000000,0.000000000,0.000000000,0.015320934,0.007751084,0.054050189,0.001003762,0.005390932,-0.008549160,0.001345434,0.002055545,-0.003505098,0.288305034,0.888404420,-2.389264056,0.002353674,-0.007803464,-0.020828537,0.999749016,0.000000000,0.000000000,0.000000000,0.000000000,0.000000000,0.000000000,-2.389434357,0.000000000,4.053266592
1772426634.330747843,0.015320000,0.007637000,0.054229000,0.001152240,-0.010625400,-0.026215180,0.999599190,0.002861000,-0.021183000,-0.052470000,-0.000010664,0.000055964,0.000322766,-0.002320610,-0.007578354,0.000944515,0.017060310,0.007190617,0.995913695,-0.001893386,0.002471390,-0.000915948,0.000000000,0.000000000,0.000000000,0.000000000,0.015325639,0.007751977,0.054051072,0.001036285,0.005404754,-0.008456884,0.001884822,0.001542052,-0.003576831,0.287157779,0.888267909,-2.388292764,0.002343756,-0.007802045,-0.020820147,0.999749363,0.000000000,0.000000000,0.000000000,0.000000000,0.000000000,0.000000000,-2.388061200,0.000000000,4.052849812
1772426634.340747833,0.015311000,0.007633000,0.054228000,0.001080880,-0.010633040,-0.026280250,0.999597480,0.002720000,-0.021202000,-0.052598000,-0.000064918,0.000071834,0.000093609,-0.001479571,-0.022768684,0.001371820,0.017092136,0.007459143,0.996861652,-0.003656721,0.001743225,-0.002456115,0.000000000,0.000000000,0.000000000,0.000000000,0.015327046,0.007745181,0.054066716,0.001082843,0.005341310,-0.008364103,0.002295642,0.001903041,-0.003823353,0.287311233,0.889379092,-2.390749156,0.002344725,-0.007811818,-0.020841541,0.999749271,0.000000000,0.000000000,0.000000000,0.000000000,0.000000000,0.000000000,-2.390418418,0.000000000,4.052433013
1772426634.350747585,0.015306000,0.007640000,0.054225000,0.001090500,-0.010752900,-0.026362870,0.999594010,0.002748000,-0.021441000,-0.052764000,-0.000198446,0.000143163,-0.000256799,0.001110510,-0.032544948,-0.000333239,0.016866624,0.007052893,0.997754004,-0.004769388,-0.001042038,-0.003426342,0.000000000,0.000000000,0.000000000,0.000000000,0.015318379,0.007713585,0.054114286,0.001071030,0.005241950,-0.008094971,0.001650925,0.001873654,-0.003085785,0.287269063,0.889610423,-2.393163327,0.002344151,-0.007813878,-0.020862601,0.999748705,0.000000000,0.000000000,0.000000000,0.000000000,0.000000000,0.000000000,-2.392768901,0.000000000,4.052016223
1772426634.360748291,0.015307000,0.007645000,0.054217000,0.001064050,-0.011120090,-0.026329670,0.999590900,0.002713000,-0.022177000,-0.052699000,-0.000250194,0.000203341,-0.000399379,0.001588490,-0.037707028,-0.003593757,0.016622414,0.006326321,0.997159190,-0.003224619,-0.000262455,-0.003088787,0.000000000,0.000000000,0.000000000,0.000000000,0.015315196,0.007704044,0.054128469,0.001091100,0.005217485,-0.007974285,0.001190789,0.001768350,-0.002541211,0.287120945,0.889365278,-2.395554893,0.002342740,-0.007811761,-0.020883481,0.999748434,0.000000000,0.000000000,0.000000000,0.000000000,0.000000000,0.000000000,-2.394995950,0.000000000,4.051599393
1772426634.370748281,0.015300000,0.007645000,0.054217000,0.001123200,-0.011164310,-0.026325770,0.999590440,0.002834000,-0.022262000,-0.052692000,-0.000037315,0.000201360,-0.000142502,0.001799790,-0.029554160,-0.001735368,0.016378221,0.005599801,0.996564419,-0.001679961,0.000517073,-0.002751255,0.000000000,0.000000000,0.000000000,0.000000000,0.015320484,0.007728561,0.054091093,0.001160402,0.005308682,-0.008082860,0.001648981,0.001502535,-0.002925370,0.286783241,0.889664221,-2.397568620,0.002339602,-0.007814349,-0.020901065,0.999748163,0.000000000,0.000000000,0.000000000,0.000000000,0.000000000,0.000000000,-2.397138426,0.000000000,4.051182594
1772426634.380748510,0.015313000,0.007641000,0.054214000,0.001110320,-0.011379120,-0.026277680,0.999589300,0.002818000,-0.022692000,-0.052597000,0.000165016,-0.000007459,0.000099340,0.001253127,-0.013183157,0.001163105,0.016733414,0.006128830,0.995915654,0.001063590,-0.000581398,-0.002286666,0.000000000,0.000000000,0.000000000,0.000000000,0.015321998,0.007735644,0.054079378,0.001194178,0.005318688,-0.008065147,0.001992600,0.001310036,-0.003318784,0.286384826,0.890137367,-2.399461476,0.002335910,-0.007818443,-0.020917595,0.999747785,0.000000000,0.000000000,0.000000000,0.000000000,0.000000000,0.000000000,-2.399192587,0.000000000,4.050765784
1772426634.390748262,0.015309000,0.007648000,0.054221000,0.001162970,-0.011433180,-0.026322130,0.999587450,0.002928000,-0.022798000,-0.052687000,0.000227525,-0.000135528,0.000258003,-0.002539740,0.004576194,-0.001094156,0.016979949,0.007448972,0.996937166,0.001881219,0.001060829,0.001901407,0.000000000,0.000000000,0.000000000,0.000000000,0.015313342,0.007693147,0.054140855,0.001133991,0.005098259,-0.007695841,0.001430084,0.001710758,-0.003775732,0.285311323,0.888385621,-2.397322893,0.002327010,-0.007802920,-0.020899053,0.999747719,0.000000000,0.000000000,0.000000000,0.000000000,0.000000000,0.000000000,-2.397622258,0.000000000,4.050348995
1772426634.400748014,0.015304000,0.007641000,0.054223000,0.001045410,-0.011276380,-0.026366700,0.999588190,0.002685000,-0.022490000,-0.052773000,0.000279254,-0.000138850,0.000247086,-0.002402672,0.014745910,0.001623070,0.017913687,0.008387074,0.997333044,0.000827686,0.002689609,0.001596556,0.000000000,0.000000000,0.000000000,0.000000000,0.015317564,0.007691007,0.054144712,0.001207599,0.005080951,-0.007659715,0.002303165,0.003215107,-0.002673198,0.285501641,0.887481654,-2.399967405,0.002328657,-0.007795122,-0.020922131,0.999747978,0.000000000,0.000000000,0.000000000,0.000000000,0.000000000,0.000000000,-2.399555460,0.000000000,4.049932205
1772426634.410748005,0.015317000,0.007642000,0.054225000,0.001079500,-0.011084300,-0.026307930,0.999591850,0.002742000,-0.022105000,-0.052656000,0.000176302,-0.000101709,0.000135684,-0.003409348,0.016597916,0.005408027,0.018408357,0.008635380,0.996582941,-0.000186628,0.002666429,-0.001903055,0.000000000,0.000000000,0.000000000,0.000000000,0.015324159,0.007689548,0.054150232,0.001304326,0.005195010,-0.007502925,0.002909113,0.003170382,-0.002801679,0.285058647,0.885664589,-2.397583226,0.002325286,-0.007779140,-0.020901403,0.999747898,0.000000000,0.000000000,0.000000000,0.000000000,0.000000000,0.000000000,-2.398026811,0.000000000,4.049515405
1772426634.420747995,0.015313000,0.007637000,0.054226000,0.001069590,-0.011086780,-0.026294790,0.999592180,0.002722000,-0.022110000,-0.052629000,-0.000082071,-0.000113753,-0.000034460,-0.002016155,0.021079472,0.007144247,0.017230075,0.008946514,0.996487513,-0.000551726,0.001952360,-0.000111820,0.000000000,0.000000000,0.000000000,0.000000000,0.015318906,0.007692796,0.054151298,0.001489773,0.005333864,-0.007446149,0.002285640,0.003929323,-0.003517040,0.284187649,0.883532217,-2.395498555,0.002318217,-0.007760336,-0.020883323,0.999748331,0.000000000,0.000000000,0.000000000,0.000000000,0.000000000,0.000000000,-2.395663694,0.000000000,4.049098606
1772426634.430748224,0.015317000,0.007642000,0.054224000,0.001053040,-0.011051490,-0.026290210,0.999592710,0.002687000,-0.022040000,-0.052619000,-0.000182926,-0.000047281,-0.000068454,0.000474390,0.013937822,0.005482198,0.017149703,0.007678066,0.995216914,-0.001574903,-0.000968511,-0.003700039,0.000000000,0.000000000,0.000000000,0.000000000,0.015320025,0.007694405,0.054152328,0.001596553,0.005519632,-0.007381519,0.001945007,0.002658413,-0.004127510,0.283252021,0.881523583,-2.393235568,0.002310574,-0.007742595,-0.020863690,0.999749088,0.000000000,0.000000000,0.000000000,0.000000000,0.000000000,0.000000000,-2.393580372,0.000000000,4.048681796
1772426634.440748215,0.015313000,0.007639000,0.054221000,0.001123090,-0.011029390,-0.026109240,0.999597620,0.002822000,-0.021993000,-0.052259000,-0.000304895,0.000099592,-0.000021251,0.003559028,0.005778851,0.000177583,0.016651421,0.006328023,0.997322884,-0.001891093,0.004878307,-0.002408668,0.000000000,0.000000000,0.000000000,0.000000000,0.015317938,0.007693515,0.054147964,0.001667521,0.005625763,-0.007450744,0.001575043,0.001403922,-0.003148992,0.282205793,0.880018972,-2.391397952,0.002301845,-0.007729240,-0.020847763,0.999749292,0.000000000,0.000000000,0.000000000,0.000000000,0.000000000,0.000000000,-2.391509454,0.000000000,4.049167144
1772426634.450747967,0.015302000,0.007640000,0.054223000,0.001047570,-0.010899530,-0.026236670,0.999595790,0.002667000,-0.021737000,-0.052511000,-0.000350583,0.000146076,-0.000066978,0.002791427,0.002079163,-0.004486834,0.016447064,0.006588941,0.996824528,-0.000582110,0.003219127,-0.000467501,0.000000000,0.000000000,0.000000000,0.000000000,0.015317247,0.007693780,0.054141286,0.001699558,0.005611243,-0.007443322,0.001245959,0.001955115,-0.002376935,0.281177765,0.878423712,-2.392306182,0.002293106,-0.007715153,-0.020855792,0.999749887,0.000000000,0.000000000,0.000000000,0.000000000,0.000000000,0.000000000,-2.391703709,0.000000000,4.049655718
1772426634.460747957,0.015301000,0.007640000,0.054220000,0.001112200,-0.010844090,-0.026281290,0.999595150,0.002794000,-0.021623000,-0.052602000,0.000012413,0.000138870,-0.000123660,0.004323524,-0.007175693,-0.004505947,0.016698175,0.009075692,0.997776052,0.000281099,0.001101160,-0.002626647,0.000000000,0.000000000,0.000000000,0.000000000,0.015327557,0.007726622,0.054095588,0.001773818,0.005692832,-0.007576222,0.001426775,0.003623959,-0.002045448,0.280639473,0.875925783,-2.393953760,0.002288754,-0.007693296,-0.020870259,0.999749485,0.000000000,0.000000000,0.000000000,0.000000000,0.000000000,0.000000000,-2.394356972,0.000000000,4.050144304
1772426634.470748663,0.015305000,0.007646000,0.054228000,0.001156690,-0.011058920,-0.026341340,0.999591160,0.002896000,-0.022050000,-0.052724000,0.000141589,0.000023193,-0.000114919,0.004711133,-0.013818881,-0.004314719,0.017074585,0.006582008,0.999066988,-0.001434047,-0.001714773,0.001511681,0.000000000,0.000000000,0.000000000,0.000000000,0.015337951,0.007752344,0.054068011,0.001856332,0.005881340,-0.007579522,0.001819245,0.003301276,-0.001413952,0.280468606,0.873475829,-2.391933051,0.002287846,-0.007671850,-0.020852696,0.999749680,0.000000000,0.000000000,0.000000000,0.000000000,0.000000000,0.000000000,-2.392114961,0.000000000,4.050632925
1772426634.480749130,0.015310000,0.007644000,0.054219000,0.001154930,-0.011073140,-0.026314380,0.999591720,0.002892000,-0.022078000,-0.052670000,0.000375874,-0.000085121,-0.000090365,0.003943909,-0.011412076,-0.001413896,0.017512341,0.007011978,0.997572287,-0.000520397,0.000880964,0.002979336,0.000000000,0.000000000,0.000000000,0.000000000,0.015344028,0.007753075,0.054076754,0.001926539,0.005957035,-0.007354706,0.002222986,0.001728296,-0.001543325,0.279753349,0.871729548,-2.390335233,0.002282031,-0.007656452,-0.020838844,0.999750219,0.000000000,0.000000000,0.000000000,0.000000000,0.000000000,0.000000000,-2.390588754,0.000000000,4.051121534
1772426634.490748405,0.015311000,0.007644000,0.054215000,0.001155210,-0.011119790,-0.026273800,0.999592270,0.002895000,-0.022172000,-0.052589000,0.000406236,-0.000206352,0.000033838,0.001664803,-0.001766638,0.004490943,0.016958482,0.006797742,0.996665371,-0.000425340,0.003975900,0.000472929,0.000000000,0.000000000,0.000000000,0.000000000,0.015348218,0.007751459,0.054084027,0.002015622,0.005928824,-0.007167634,0.002240330,0.002267915,-0.002593162,0.278059612,0.870453294,-2.387993115,0.002267642,-0.007644963,-0.020818555,0.999750835,0.000000000,0.000000000,0.000000000,0.000000000,0.000000000,0.000000000,-2.388319013,0.000000000,4.051610085
1772426634.500748396,0.015321000,0.007638000,0.054218000,0.001185700,-0.011289040,-0.026241460,0.999591190,0.002964000,-0.022509000,-0.052526000,0.000185587,-0.000113229,0.000169367,-0.000796016,0.006310882,0.002632345,0.016089640,0.006761352,0.996113075,-0.000892160,0.000274769,0.002843235,0.000000000,0.000000000,0.000000000,0.000000000,0.015347452,0.007750187,0.054088288,0.002084133,0.005930218,-0.007099805,0.000619887,0.001983303,-0.004123810,0.277382408,0.868430098,-2.385150701,0.002262292,-0.007627133,-0.020793847,0.999751473,0.000000000,0.000000000,0.000000000,0.000000000,0.000000000,0.000000000,-2.385488267,0.000000000,4.052098671
1772426634.510747910,0.015310000,0.007637000,0.054224000,0.001176700,-0.011009510,-0.026290680,0.999593020,0.002932000,-0.021950000,-0.052623000,0.000005983,0.000035781,0.000278458,-0.001113836,0.009495254,0.000303912,0.016003065,0.005867214,0.996751307,-0.000607138,0.001904321,0.000376835,0.000000000,0.000000000,0.000000000,0.000000000,0.015345633,0.007752744,0.054088435,0.002066082,0.005932245,-0.007137600,0.001421813,0.001602892,-0.003525188,0.276655964,0.866473522,-2.382637968,0.002256477,-0.007609881,-0.020772014,0.999752074,0.000000000,0.000000000,0.000000000,0.000000000,0.000000000,0.000000000,-2.382998387,0.000000000,4.052587234
1772426634.520747662,0.015320000,0.007637000,0.054226000,0.001147530,-0.010905990,-0.026257670,0.999595060,0.002868000,-0.021745000,-0.052556000,-0.000222261,0.000292114,0.000174845,-0.002409873,0.001727308,-0.003628233,0.015650620,0.005222082,0.997988754,-0.001471712,0.006815559,-0.000505995,0.000000000,0.000000000,0.000000000,0.000000000,0.015344457,0.007755487,0.054085282,0.002034867,0.005899972,-0.007173550,0.000644028,0.001056414,-0.001612947,0.276158181,0.866249660,-2.379412625,0.002252388,-0.007607774,-0.020743914,0.999752593,0.000000000,0.000000000,0.000000000,0.000000000,0.000000000,0.000000000,-2.379843167,0.000000000,4.053075808
1772426634.530748367,0.015313000,0.007644000,0.054230000,0.001113930,-0.010944160,-0.026279380,0.999594110,0.002803000,-0.021823000,-0.052599000,-0.000385432,0.000368648,-0.000053710,-0.002544922,-0.005552576,-0.004826974,0.015321059,0.006392243,0.997700885,-0.001532020,0.005517046,0.000559728,0.000000000,0.000000000,0.000000000,0.000000000,0.015341172,0.007756130,0.054083348,0.001976577,0.005789352,-0.007086025,0.000287139,0.001011443,-0.001772296,0.274905423,0.864777701,-2.377672448,0.002241841,-0.007594671,-0.020728847,0.999753141,0.000000000,0.000000000,0.000000000,0.000000000,0.000000000,0.000000000,-2.377911561,0.000000000,4.053564429
1772426634.540747881,0.015307000,0.007652000,0.054225000,0.001180170,-0.011157360,-0.026338900,0.999590110,0.002948000,-0.022245000,-0.052720000,-0.000417833,0.000226710,-0.000231022,-0.003211389,-0.013179796,-0.004684753,0.016190613,0.008045934,0.996253924,-0.000271527,0.000034439,-0.000858122,0.000000000,0.000000000,0.000000000,0.000000000,0.015344315,0.007753740,0.054082187,0.001891837,0.005695449,-0.006960234,0.001393971,0.003130532,-0.003556997,0.272778795,0.861130430,-2.375466258,0.002224093,-0.007562423,-0.020709821,0.999753865,0.000000000,0.000000000,0.000000000,0.000000000,0.000000000,0.000000000,-2.375751636,0.000000000,4.053958893
1772426634.550747633,0.015306000,0.007649000,0.054223000,0.001103760,-0.011156740,-0.026330460,0.999590420,0.002795000,-0.022248000,-0.052701000,-0.000241240,-0.000100719,-0.000266939,-0.002706742,-0.011318930,-0.001403190,0.016967362,0.007933392,0.996380485,-0.000444579,0.003558175,-0.002630441,0.000000000,0.000000000,0.000000000,0.000000000,0.015343296,0.007755956,0.054085792,0.001854510,0.005826940,-0.006980489,0.003019125,0.004245407,-0.002297131,0.271587543,0.858316698,-2.372514021,0.002214404,-0.007537602,-0.020684205,0.999754494,0.000000000,0.000000000,0.000000000,0.000000000,0.000000000,0.000000000,-2.372868853,0.000000000,4.053958893
1772426634.560747623,0.015298000,0.007650000,0.054211000,0.001072610,-0.011233730,-0.026365430,0.999588670,0.002737000,-0.022404000,-0.052771000,-0.000124437,-0.000303691,-0.000153089,-0.003999935,0.006571780,0.000768374,0.016833855,0.006641656,0.997222064,-0.000511710,0.006665394,-0.001676487,0.000000000,0.000000000,0.000000000,0.000000000,0.015341718,0.007755151,0.054088617,0.001974906,0.005999443,-0.006964290,0.001719786,0.001781361,-0.002564645,0.270611600,0.856591145,-2.370332989,0.002206344,-0.007522330,-0.020665277,0.999754915,0.000000000,0.000000000,0.000000000,0.000000000,0.000000000,0.000000000,-2.370556502,0.000000000,4.053958893
1772426634.570747137,0.015302000,0.007641000,0.054222000,0.001112970,-0.011150490,-0.026330810,0.999590470,0.002813000,-0.022235000,-0.052702000,0.000249553,-0.000405983,-0.000051632,-0.003222052,0.020362818,0.002561988,0.016893778,0.005019713,0.996602559,-0.000175225,0.004363549,-0.000470141,0.000000000,0.000000000,0.000000000,0.000000000,0.015347576,0.007756071,0.054091234,0.002053230,0.006032383,-0.006906011,0.002325592,0.001054119,-0.002759738,0.270109786,0.852834818,-2.369723414,0.002202685,-0.007489455,-0.020660074,0.999755378,0.000000000,0.000000000,0.000000000,0.000000000,0.000000000,0.000000000,-2.369762698,0.000000000,4.053958893
1772426634.580746889,0.015307000,0.007634000,0.054220000,0.001049150,-0.011030000,-0.026320030,0.999592160,0.002679000,-0.021998000,-0.052679000,0.000399165,-0.000323796,0.000153147,-0.002299373,0.025832726,0.003831194,0.016705762,0.005329415,0.995537053,-0.000334342,0.003292746,-0.000638897,0.000000000,0.000000000,0.000000000,0.000000000,0.015349273,0.007754032,0.054093621,0.002132218,0.005920661,-0.006852265,0.001717718,-0.000002190,-0.004764576,0.270094399,0.850305012,-2.367358873,0.002203162,-0.007467335,-0.020639502,0.999755937,0.000000000,0.000000000,0.000000000,0.000000000,0.000000000,0.000000000,-2.367669752,0.000000000,4.053958893
1772426634.590747118,0.015311000,0.007635000,0.054221000,0.001073450,-0.010752560,-0.026246840,0.999597090,0.002711000,-0.021442000,-0.052532000,0.000359538,-0.000046154,0.000232168,0.002808840,0.019558487,0.003537088,0.016834021,0.006836287,0.996077541,0.001074548,-0.000024098,-0.000938543,0.000000000,0.000000000,0.000000000,0.000000000,0.015352725,0.007754222,0.054093484,0.002182122,0.005758173,-0.006977540,0.001869209,0.001415540,-0.004279375,0.269469167,0.848216487,-2.365913776,0.002198177,-0.007448974,-0.020626981,0.999756322,0.000000000,0.000000000,0.000000000,0.000000000,0.000000000,0.000000000,-2.366064893,0.000000000,4.053958893
1772426634.600747824,0.015313000,0.007641000,0.054223000,0.001058690,-0.010713920,-0.026297480,0.999596190,0.002681000,-0.021365000,-0.052633000,0.000051787,0.000276593,0.000234130,0.002906760,0.004491096,0.002507145,0.017347643,0.007747159,0.996813260,0.003688495,0.000187929,-0.001556067,0.000000000,0.000000000,0.000000000,0.000000000,0.015353500,0.007752181,0.054090951,0.002236042,0.005709682,-0.007099716,0.002773650,0.003214942,-0.003250588,0.268547904,0.847011967,-2.364365538,0.002190458,-0.007438270,-0.020613559,0.999756636,0.000000000,0.000000000,0.000000000,0.000000000,0.000000000,0.000000000,-2.364636787,0.000000000,4.053958893
1772426634.610747099,0.015317000,0.007639000,0.054222000,0.001136190,-0.010834410,-0.026303350,0.999594650,0.002842000,-0.021602000,-0.052647000,-0.000398582,0.000448039,0.000042619,0.003890310,-0.013978799,-0.000098578,0.018185964,0.007891227,0.996975113,0.000676588,0.003655678,0.002106366,0.000000000,0.000000000,0.000000000,0.000000000,0.015350147,0.007751255,0.054089563,0.002339869,0.005805476,-0.007126771,0.003327887,0.003477004,-0.003515959,0.268036841,0.846430444,-2.363462417,0.002186162,-0.007433087,-0.020605724,0.999756695,0.000000000,0.000000000,0.000000000,0.000000000,0.000000000,0.000000000,-2.363492098,0.000000000,4.053958893
1772426634.620747566,0.015309000,0.007643000,0.054229000,0.001112740,-0.010886830,-0.026241310,0.999595730,0.002797000,-0.021708000,-0.052522000,-0.000511131,0.000363773,-0.000071193,0.003759866,-0.028331068,-0.000662874,0.016904454,0.006894749,0.995804983,-0.002344875,0.001769776,-0.002542279,0.000000000,0.000000000,0.000000000,0.000000000,0.015348218,0.007751908,0.054087582,0.002497100,0.005934508,-0.007151700,0.002999538,0.001998087,-0.004430180,0.268128116,0.845073645,-2.362187722,0.002187285,-0.007421242,-0.020594629,0.999757377,0.000000000,0.000000000,0.000000000,0.000000000,0.000000000,0.000000000,-2.362578875,0.000000000,4.053958893
1772426634.630747557,0.015300000,0.007652000,0.054225000,0.001185520,-0.011063660,-0.026267620,0.999593020,0.002952000,-0.022058000,-0.052577000,-0.000490521,0.000139685,-0.000269911,0.003113417,-0.028834831,-0.000817348,0.017230644,0.006645063,0.995081407,-0.001546995,0.001016460,-0.002373120,0.000000000,0.000000000,0.000000000,0.000000000,0.015349483,0.007754841,0.054087891,0.002625679,0.005984077,-0.007244727,0.002171049,0.001603570,-0.004064597,0.267941299,0.842451855,-2.359799493,0.002186282,-0.007398289,-0.020573863,0.999757813,0.000000000,0.000000000,0.000000000,0.000000000,0.000000000,0.000000000,-2.360002636,0.000000000,4.053958893
1772426634.640748024,0.015290000,0.007654000,0.054222000,0.001098120,-0.011279930,-0.026296660,0.999589940,0.002789000,-0.022495000,-0.052634000,-0.000174437,-0.000116298,-0.000319736,0.003489605,-0.014494848,0.000543336,0.015253673,0.006410771,0.996534952,-0.002121617,-0.003079712,0.000450190,0.000000000,0.000000000,0.000000000,0.000000000,0.015352868,0.007757329,0.054086455,0.002704080,0.005988647,-0.007354009,0.001337714,0.002305673,-0.003526984,0.266855828,0.840099036,-2.358551880,0.002177315,-0.007377543,-0.020563098,0.999758113,0.000000000,0.000000000,0.000000000,0.000000000,0.000000000,0.000000000,-2.358644211,0.000000000,4.053958893
1772426634.650748014,0.015295000,0.007644000,0.054215000,0.001168810,-0.011267140,-0.026292880,0.999590100,0.002930000,-0.022465000,-0.052628000,0.000269697,-0.000359111,-0.000095824,0.004570730,0.001667713,0.000920889,0.015905702,0.006971616,0.995044535,-0.002538538,0.000046096,0.002028770,0.000000000,0.000000000,0.000000000,0.000000000,0.015356252,0.007758265,0.054082090,0.002713529,0.005992267,-0.007436025,0.001161574,0.002013517,-0.004669460,0.266156262,0.838758767,-2.357655362,0.002171510,-0.007365707,-0.020555351,0.999758496,0.000000000,0.000000000,0.000000000,0.000000000,0.000000000,0.000000000,-2.357902110,0.000000000,4.053958893
1772426634.660747528,0.015307000,0.007642000,0.054213000,0.001153210,-0.011275810,-0.026260040,0.999590880,0.002898000,-0.022484000,-0.052562000,0.000707926,-0.000478070,0.000214744,0.003396732,0.011474606,0.003219170,0.017067549,0.007321062,0.995423630,-0.003107300,0.000671459,0.001236876,0.000000000,0.000000000,0.000000000,0.000000000,0.015359803,0.007757803,0.054078138,0.002674837,0.005995496,-0.007533372,0.002400406,0.002585176,-0.004981390,0.265249755,0.837933340,-2.355496825,0.002163888,-0.007358302,-0.020536595,0.999759074,0.000000000,0.000000000,0.000000000,0.000000000,0.000000000,0.000000000,-2.355866515,0.000000000,4.053958893
1772426634.670748234,0.015306000,0.007637000,0.054218000,0.001239540,-0.011040890,-0.026261000,0.999593380,0.003059000,-0.022009000,-0.052565000,0.000646096,-0.000326651,0.000405692,-0.001553770,0.018020545,0.003478317,0.017627460,0.007296356,0.995792769,-0.001896325,0.004251892,-0.000495138,0.000000000,0.000000000,0.000000000,0.000000000,0.015364447,0.007755427,0.054076380,0.002738049,0.006031442,-0.007684463,0.003011905,0.003176015,-0.003869325,0.264213851,0.837064070,-2.352154089,0.002155221,-0.007350470,-0.020507516,0.999759642,0.000000000,0.000000000,0.000000000,0.000000000,0.000000000,0.000000000,-2.352571328,0.000000000,4.053958893
1772426634.680747509,0.015320000,0.007633000,0.054227000,0.001216990,-0.010942430,-0.026234490,0.999595180,0.003008000,-0.021814000,-0.052511000,0.000232149,0.000047417,0.000282984,-0.004075346,0.018151283,0.000880405,0.016151151,0.006525315,0.996103636,-0.000004688,0.001402251,0.002260674,0.000000000,0.000000000,0.000000000,0.000000000,0.015363504,0.007754471,0.054077347,0.002870038,0.006110313,-0.007738551,0.002769680,0.002110254,-0.004286197,0.263356443,0.836506973,-2.349617776,0.002148003,-0.007345408,-0.020485453,0.999760224,0.000000000,0.000000000,0.000000000,0.000000000,0.000000000,0.000000000,-2.349875053,0.000000000,4.053958893
1772426634.690747976,0.015320000,0.007634000,0.054236000,0.001197170,-0.010944540,-0.026214940,0.999595700,0.002968000,-0.021819000,-0.052471000,-0.000237898,0.000280109,-0.000041453,-0.008358775,0.006301894,-0.004362424,0.015303205,0.006593474,0.997227381,-0.000528324,-0.001331330,-0.000578257,0.000000000,0.000000000,0.000000000,0.000000000,0.015368524,0.007755445,0.054078881,0.002968411,0.006126809,-0.007792489,0.000640358,0.001148894,-0.002368254,0.261879787,0.832599025,-2.346496188,0.002136018,-0.007310991,-0.020458396,0.999761015,0.000000000,0.000000000,0.000000000,0.000000000,0.000000000,0.000000000,-2.346838962,0.000000000,4.053958893
1772426634.700748205,0.015316000,0.007643000,0.054229000,0.001053370,-0.011010830,-0.026235080,0.999594600,0.002684000,-0.021959000,-0.052509000,-0.000385626,0.000351127,-0.000250408,-0.006489462,-0.010477173,-0.007722974,0.017543495,0.006492962,0.998198743,-0.001034402,0.003292192,-0.002139082,0.000000000,0.000000000,0.000000000,0.000000000,0.015366623,0.007760263,0.054080130,0.002884554,0.006103488,-0.007726134,0.002245920,0.002539691,-0.002026733,0.260860327,0.832430762,-2.343001937,0.002127377,-0.007309276,-0.020427980,0.999761570,0.000000000,0.000000000,0.000000000,0.000000000,0.000000000,0.000000000,-2.343205693,0.000000000,4.053958893
1772426634.710748672,0.015299000,0.007647000,0.054216000,0.001053700,-0.010931730,-0.026348650,0.999592480,0.002683000,-0.021801000,-0.052736000,-0.000371601,0.000265365,-0.000423058,-0.003606190,-0.012774838,-0.007602570,0.017066230,0.006303573,0.998126475,-0.004578238,0.001063771,0.001868914,0.000000000,0.000000000,0.000000000,0.000000000,0.015363300,0.007764496,0.054079468,0.002945266,0.006114571,-0.007578709,0.002791522,0.000966943,-0.001939952,0.259986892,0.830880049,-2.341031828,0.002120159,-0.007295554,-0.020410881,0.999762042,0.000000000,0.000000000,0.000000000,0.000000000,0.000000000,0.000000000,-2.341202359,0.000000000,4.053958893
1772426634.720749140,0.015298000,0.007649000,0.054212000,0.001110630,-0.010959170,-0.026354390,0.999591970,0.002799000,-0.021853000,-0.052749000,-0.000365812,0.000007090,-0.000329157,0.002615391,0.004133008,-0.005150829,0.016751284,0.006588590,0.996909803,-0.002599304,0.003021755,-0.001086118,0.000000000,0.000000000,0.000000000,0.000000000,0.015359956,0.007765583,0.054076276,0.003049705,0.006054324,-0.007453746,0.002406040,0.001941604,-0.002746463,0.258585343,0.828366653,-2.338770480,0.002108523,-0.007273335,-0.020391292,0.999762741,0.000000000,0.000000000,0.000000000,0.000000000,0.000000000,0.000000000,-2.339131593,0.000000000,4.053958893
1772426634.730749130,0.015304000,0.007643000,0.054213000,0.001093940,-0.011181000,-0.026409370,0.999588080,0.002778000,-0.022297000,-0.052859000,-0.000104274,-0.000215093,-0.000040501,0.006909619,0.028076147,-0.000543115,0.017567974,0.006244813,0.997212120,0.003336908,-0.002336130,-0.000429046,0.000000000,0.000000000,0.000000000,0.000000000,0.015358748,0.007762210,0.054077179,0.003131345,0.006036943,-0.007396890,0.002522906,0.001496850,-0.002441004,0.256999411,0.825576467,-2.335483155,0.002095392,-0.007248649,-0.020362770,0.999763487,0.000000000,0.000000000,0.000000000,0.000000000,0.000000000,0.000000000,-2.335772509,0.000000000,4.053958893
1772426634.740749121,0.015308000,0.007644000,0.054224000,0.001174830,-0.011078200,-0.026344330,0.999590850,0.002933000,-0.022087000,-0.052730000,0.000132285,-0.000309188,0.000179759,0.008688879,0.042097811,0.005210440,0.015205041,0.006329288,0.996327628,-0.000557639,0.004412361,0.000607479,0.000000000,0.000000000,0.000000000,0.000000000,0.015362261,0.007756060,0.054079325,0.003260107,0.005981086,-0.007332623,0.001367636,0.001616419,-0.003800524,0.257041766,0.824173589,-2.334447646,0.002096076,-0.007236398,-0.020353762,0.999763484,0.000000000,0.000000000,0.000000000,0.000000000,0.000000000,0.000000000,-2.334428330,0.000000000,4.053958893
1772426634.750748634,0.015301000,0.007636000,0.054215000,0.001184770,-0.010454100,-0.026302110,0.999598670,0.002919000,-0.020839000,-0.052644000,0.000205575,-0.000167852,0.000205167,0.004466439,0.041395266,0.007412343,0.015660824,0.005877534,0.996226348,-0.002253117,0.002619007,0.000248259,0.000000000,0.000000000,0.000000000,0.000000000,0.015365078,0.007753644,0.054080214,0.003255528,0.005956739,-0.007347299,0.001047249,0.001287389,-0.003991864,0.257746318,0.824185756,-2.334629424,0.002102210,-0.007236632,-0.020355304,0.999763764,0.000000000,0.000000000,0.000000000,0.000000000,0.000000000,0.000000000,-2.334607884,0.000000000,4.053958893
1772426634.760747671,0.015300000,0.007636000,0.054222000,0.001239220,-0.010200220,-0.026282250,0.999601750,0.003014000,-0.020329000,-0.052604000,0.000085431,-0.000090676,0.000042133,0.001589756,0.032334409,0.004424010,0.015685253,0.005629684,0.996754073,-0.001596361,0.000382858,-0.000680233,0.000000000,0.000000000,0.000000000,0.000000000,0.015366519,0.007749946,0.054083652,0.003218653,0.005931175,-0.007365811,0.001192118,0.000496924,-0.003519484,0.257589551,0.822938744,-2.333064685,0.002101163,-0.007225697,-0.020341689,0.999764028,0.000000000,0.000000000,0.000000000,0.000000000,0.000000000,0.000000000,-2.333311339,0.000000000,4.053958893
1772426634.770747423,0.015307000,0.007640000,0.054221000,0.001244190,-0.010151760,-0.026266570,0.999602650,0.003021000,-0.020231000,-0.052572000,0.000079740,0.000079701,0.000006061,-0.000430487,0.006437136,0.000709813,0.015409923,0.005523510,0.997718969,0.000695106,-0.002161237,-0.002004428,0.000000000,0.000000000,0.000000000,0.000000000,0.015352779,0.007718347,0.054123887,0.003117510,0.005767872,-0.007215327,0.001357681,0.000949948,-0.002095993,0.256925749,0.821855053,-2.331832060,0.002095642,-0.007216102,-0.020330999,0.999764275,0.000000000,0.000000000,0.000000000,0.000000000,0.000000000,0.000000000,-2.332041855,0.000000000,4.053958893
1772426634.780747175,0.015310000,0.007640000,0.054217000,0.001219010,-0.010436990,-0.026243500,0.999600350,0.002985000,-0.020803000,-0.052527000,0.000048524,0.000278069,-0.000052156,-0.000880711,-0.030009555,-0.003953866,0.015398686,0.005967961,0.998134130,-0.000185316,0.001011196,-0.002020954,0.000000000,0.000000000,0.000000000,0.000000000,0.015346371,0.007701773,0.054145113,0.003057350,0.005660170,-0.007119296,0.001550011,0.001747771,-0.000735322,0.255908760,0.820922808,-2.330887423,0.002086994,-0.007207771,-0.020322839,0.999764492,0.000000000,0.000000000,0.000000000,0.000000000,0.000000000,0.000000000,-2.331209670,0.000000000,4.053958893
1772426634.790747166,0.015306000,0.007643000,0.054221000,0.001167120,-0.010599680,-0.026310270,0.999596950,0.002892000,-0.021131000,-0.052660000,-0.000066201,0.000238306,0.000068007,-0.000232314,-0.046907002,-0.005654655,0.015485422,0.006616692,0.998345363,-0.002242454,0.006304399,-0.001552366,0.000000000,0.000000000,0.000000000,0.000000000,0.015362675,0.007731736,0.054107457,0.003124139,0.005724697,-0.007191932,0.001890930,0.001955663,-0.002285187,0.255538997,0.820546963,-2.329863454,0.002083899,-0.007204407,-0.020313938,0.999764684,0.000000000,0.000000000,0.000000000,0.000000000,0.000000000,0.000000000,-2.330264247,0.000000000,4.053958893
1772426634.800746918,0.015306000,0.007639000,0.054219000,0.001202330,-0.010706900,-0.026344060,0.999594870,0.002968000,-0.021343000,-0.052729000,-0.000147863,0.000107945,0.000077137,0.000834383,-0.043313132,-0.002691767,0.017217609,0.005751874,0.997217040,-0.000797991,0.005539267,0.000590812,0.000000000,0.000000000,0.000000000,0.000000000,0.015372776,0.007751797,0.054083747,0.003166129,0.005773606,-0.007217492,0.002433237,0.001801565,-0.003443590,0.255380884,0.820228848,-2.328792412,0.002082643,-0.007201584,-0.020304612,0.999765044,0.000000000,0.000000000,0.000000000,0.000000000,0.000000000,0.000000000,-2.329060117,0.000000000,4.053958893
1772426634.810746908,0.015305000,0.007650000,0.054224000,0.001200650,-0.011049340,-0.026342880,0.999591180,0.002983000,-0.022028000,-0.052728000,-0.000067755,-0.000113481,0.000119619,0.002125115,-0.034120350,0.003426956,0.017939395,0.005621633,0.996235325,-0.000590601,0.002671842,0.000056630,0.000000000,0.000000000,0.000000000,0.000000000,0.015370820,0.007752616,0.054087139,0.003159925,0.005792167,-0.007151559,0.003677690,0.000385463,-0.003237378,0.254891122,0.818242694,-2.327526371,0.002078802,-0.007184147,-0.020293637,0.999765446,0.000000000,0.000000000,0.000000000,0.000000000,0.000000000,0.000000000,-2.327750130,0.000000000,4.053958893
1772426634.820747137,0.015300000,0.007649000,0.054218000,0.001237470,-0.011202380,-0.026325370,0.999589890,0.003065000,-0.022332000,-0.052694000,0.000292211,-0.000255051,0.000033314,0.000708727,-0.018879282,0.010500799,0.017668508,0.006533468,0.995684459,-0.001325275,-0.000165824,-0.002614946,0.000000000,0.000000000,0.000000000,0.000000000,0.015367219,0.007755751,0.054088504,0.003266000,0.005724469,-0.007149912,0.003869531,0.001228709,-0.003353993,0.254373246,0.816545560,-2.325902878,0.002074686,-0.007169219,-0.020279539,0.999765815,0.000000000,0.000000000,0.000000000,0.000000000,0.000000000,0.000000000,-2.326184815,0.000000000,4.053958893
1772426634.830748081,0.015304000,0.007633000,0.054227000,0.001185160,-0.011078350,-0.026266820,0.999592880,0.002952000,-0.022087000,-0.052576000,0.000396329,-0.000319969,0.000017269,-0.003666159,0.000387698,0.014724634,0.017409383,0.009588810,0.996257339,0.001514047,0.003829563,-0.004099026,0.000000000,0.000000000,0.000000000,0.000000000,0.015361988,0.007759167,0.054087896,0.003405668,0.005704668,-0.007204034,0.003777862,0.003391325,-0.003498888,0.253743750,0.815219542,-2.323990214,0.002069549,-0.007157503,-0.020262917,0.999766144,0.000000000,0.000000000,0.000000000,0.000000000,0.000000000,0.000000000,-2.324223512,0.000000000,4.053958893
1772426634.840747833,0.015315000,0.007639000,0.054224000,0.001203320,-0.011216480,-0.026123500,0.999595070,0.002992000,-0.022363000,-0.052290000,0.000296892,-0.000216667,0.000049048,-0.009130960,0.012562021,0.011161606,0.017189455,0.007641384,0.997009045,0.001551361,0.002785199,0.002238362,0.000000000,0.000000000,0.000000000,0.000000000,0.015359480,0.007759353,0.054084274,0.003567111,0.005887851,-0.007273358,0.003556290,0.003511645,-0.003474685,0.252983905,0.813899082,-2.322374824,0.002063254,-0.007145819,-0.020248900,0.999766513,0.000000000,0.000000000,0.000000000,0.000000000,0.000000000,0.000000000,-2.322523024,0.000000000,4.053958893
1772426634.850747824,0.015318000,0.007630000,0.054219000,0.001132810,-0.011103790,-0.026081860,0.999597500,0.002845000,-0.022141000,-0.052204000,0.000039705,0.000024242,-0.000008741,-0.010365265,0.020931824,0.004374711,0.016966272,0.006260968,0.995951261,-0.000460236,0.001047988,-0.001377297,0.000000000,0.000000000,0.000000000,0.000000000,0.015364190,0.007758368,0.054079823,0.003712303,0.006033827,-0.007312979,0.002461594,0.001832373,-0.003530936,0.252752624,0.811378182,-2.320621177,0.002061791,-0.007123753,-0.020233666,0.999767101,0.000000000,0.000000000,0.000000000,0.000000000,0.000000000,0.000000000,-2.321043833,0.000000000,4.053958893
1772426634.860748291,0.015322000,0.007637000,0.054221000,0.001065270,-0.010875460,-0.026089540,0.999599880,0.002698000,-0.021688000,-0.052217000,-0.000131779,0.000287821,-0.000080594,-0.008367111,0.009424571,-0.004546576,0.015440324,0.005801046,0.997373582,0.000186914,0.001512135,-0.001856066,0.000000000,0.000000000,0.000000000,0.000000000,0.015370278,0.007757164,0.054077929,0.003803813,0.006032457,-0.007356153,0.002073234,0.001610094,-0.002840359,0.252169829,0.809369584,-2.318221830,0.002057211,-0.007106083,-0.020212810,0.999767470,0.000000000,0.000000000,0.000000000,0.000000000,0.000000000,0.000000000,-2.318335756,0.000000000,4.053958893
1772426634.870748043,0.015304000,0.007641000,0.054227000,0.001011010,-0.010736540,-0.026165060,0.999599470,0.002584000,-0.021413000,-0.052367000,-0.000282926,0.000331702,-0.000194755,-0.005323840,0.001107569,-0.012709466,0.017130127,0.005412539,0.996000718,-0.002878914,0.001247728,0.000395468,0.000000000,0.000000000,0.000000000,0.000000000,0.015376030,0.007754314,0.054079845,0.003840138,0.005982147,-0.007347086,0.002571582,0.000941389,-0.002718512,0.251677326,0.808322567,-2.317226825,0.002053161,-0.007096843,-0.020204181,0.999767819,0.000000000,0.000000000,0.000000000,0.000000000,0.000000000,0.000000000,-2.317449037,0.000000000,4.053958893
1772426634.880747557,0.015305000,0.007646000,0.054221000,0.001003080,-0.011015250,-0.026272440,0.999593630,0.002585000,-0.021971000,-0.052583000,-0.000295163,0.000104973,-0.000051185,-0.001183660,0.000254298,-0.014551904,0.016979371,0.004672026,0.995073192,-0.003774537,0.000661489,0.003311132,0.000000000,0.000000000,0.000000000,0.000000000,0.015382918,0.007751275,0.054083885,0.003857028,0.005919271,-0.007269521,0.003849496,0.000502454,-0.006324894,0.251565776,0.806699196,-2.315652161,0.002052571,-0.007082632,-0.020190482,0.999768326,0.000000000,0.000000000,0.000000000,0.000000000,0.000000000,0.000000000,-2.315865369,0.000000000,4.053791038
1772426634.890747309,0.015303000,0.007648000,0.054217000,0.001060890,-0.010920830,-0.026296640,0.999593970,0.002696000,-0.021779000,-0.052632000,-0.000051865,-0.000011946,0.000019231,0.002681382,-0.004308974,-0.009926926,0.015758310,0.004894048,0.995359347,-0.002084652,0.000826562,0.003299779,0.000000000,0.000000000,0.000000000,0.000000000,0.015388379,0.007748974,0.054090304,0.004044184,0.005785684,-0.007422624,0.000802770,0.000207857,-0.004170359,0.250389524,0.804410517,-2.312936008,0.002042880,-0.007062409,-0.020166903,0.999768937,0.000000000,0.000000000,0.000000000,0.000000000,0.000000000,0.000000000,-2.313323233,0.000000000,4.053319177
1772426634.900747538,0.015313000,0.007639000,0.054216000,0.001067820,-0.011157540,-0.026368120,0.999589460,0.002724000,-0.022251000,-0.052776000,0.000143046,-0.000103225,0.000099514,0.005051690,-0.001591930,-0.004081152,0.016160215,0.006307318,0.996537380,-0.001268117,0.003406108,0.001249460,0.000000000,0.000000000,0.000000000,0.000000000,0.015343858,0.007699337,0.054152306,0.003756043,0.005447317,-0.007279368,0.002472167,0.001820095,-0.002864140,0.249389481,0.802804771,-2.310062079,0.002034615,-0.007048172,-0.020141923,0.999769503,0.000000000,0.000000000,0.000000000,0.000000000,0.000000000,0.000000000,-2.310435380,0.000000000,4.052847293
1772426634.910747051,0.015308000,0.007640000,0.054221000,0.001050380,-0.010853760,-0.026372580,0.999592710,0.002673000,-0.021645000,-0.052783000,0.000142269,-0.000116356,0.000132712,0.005542145,0.004544975,0.000000022,0.016988676,0.006500961,0.996684795,-0.002529193,0.006053243,0.003423524,0.000000000,0.000000000,0.000000000,0.000000000,0.015379435,0.007750964,0.054082652,0.003933945,0.005607879,-0.007586581,0.003347675,0.001962604,-0.003166597,0.249041637,0.800930016,-2.307642838,0.002032059,-0.007031711,-0.020120875,0.999770047,0.000000000,0.000000000,0.000000000,0.000000000,0.000000000,0.000000000,-2.307957044,0.000000000,4.052375443
1772426634.920746803,0.015307000,0.007638000,0.054228000,0.001125560,-0.010816970,-0.026308540,0.999594710,0.002820000,-0.021568000,-0.052657000,-0.000048058,-0.000074107,0.000089744,0.004703371,0.007598873,0.000244133,0.016140807,0.006536613,0.995317500,-0.001069527,0.003659239,0.002683247,0.000000000,0.000000000,0.000000000,0.000000000,0.015346041,0.007707376,0.054134348,0.003859655,0.005468480,-0.007303468,0.002605440,0.002114345,-0.004300066,0.248044624,0.798481778,-2.305445295,0.002023925,-0.007010138,-0.020101812,0.999770636,0.000000000,0.000000000,0.000000000,0.000000000,0.000000000,0.000000000,-2.305748956,0.000000000,4.051903581
1772426634.930746794,0.015313000,0.007642000,0.054225000,0.001103460,-0.010923960,-0.026311470,0.999593500,0.002782000,-0.021783000,-0.052662000,-0.000082343,0.000059810,0.000020202,0.004950490,0.001214129,-0.000425235,0.015834472,0.005270354,0.996893814,-0.000398201,-0.003208272,0.001064545,0.000000000,0.000000000,0.000000000,0.000000000,0.015365275,0.007734974,0.054095747,0.004001068,0.005584949,-0.007540178,0.002420316,0.001555119,-0.004077348,0.246529491,0.795719923,-2.303247770,0.002011325,-0.006985737,-0.020082787,0.999771242,0.000000000,0.000000000,0.000000000,0.000000000,0.000000000,0.000000000,-2.303531786,0.000000000,4.051431709
1772426634.940747023,0.015307000,0.007646000,0.054224000,0.001181810,-0.010898750,-0.026329960,0.999593190,0.002937000,-0.021728000,-0.052701000,-0.000002176,0.000074864,-0.000136733,0.004834664,0.001764133,0.001385203,0.016577899,0.006135631,0.994874090,0.001441619,-0.000754078,0.001592901,0.000000000,0.000000000,0.000000000,0.000000000,0.015369783,0.007739042,0.054092344,0.004009979,0.005507457,-0.007482430,0.002717422,0.001732295,-0.004396600,0.245244840,0.793655667,-2.301220923,0.002000603,-0.006967466,-0.020065224,0.999771649,0.000000000,0.000000000,0.000000000,0.000000000,0.000000000,0.000000000,-2.301396437,0.000000000,4.050959825
1772426634.950746298,0.015303000,0.007637000,0.054217000,0.001172390,-0.010912760,-0.026367230,0.999592070,0.002920000,-0.021757000,-0.052776000,0.000160723,0.000010800,-0.000061072,0.003814651,0.000898466,0.001744403,0.017516889,0.007729747,0.994166952,-0.001542228,0.000520907,0.002157846,0.000000000,0.000000000,0.000000000,0.000000000,0.015361822,0.007724367,0.054111763,0.003969764,0.005358740,-0.007330920,0.003051794,0.003106518,-0.005830858,0.244665908,0.793344011,-2.299600228,0.001995705,-0.006964617,-0.020051128,0.999772075,0.000000000,0.000000000,0.000000000,0.000000000,0.000000000,0.000000000,-2.299767844,0.000000000,4.050487986
1772426634.960746050,0.015311000,0.007642000,0.054219000,0.001183110,-0.010888040,-0.026361320,0.999592480,0.002940000,-0.021707000,-0.052764000,0.000189588,0.000023465,0.000101943,0.001563804,0.005116765,0.003749897,0.017898224,0.008098976,0.995253215,-0.000176498,0.000799586,0.003804697,0.000000000,0.000000000,0.000000000,0.000000000,0.015370653,0.007734198,0.054090159,0.004157236,0.005529201,-0.007688378,0.003666361,0.003556577,-0.004177473,0.244835426,0.791797176,-2.296650752,0.001997634,-0.006951100,-0.020025416,0.999772523,0.000000000,0.000000000,0.000000000,0.000000000,0.000000000,0.000000000,-2.296874260,0.000000000,4.050016125
1772426634.970745802,0.015313000,0.007644000,0.054227000,0.001208350,-0.010874000,-0.026279100,0.999594770,0.002988000,-0.021677000,-0.052600000,0.000114647,0.000096776,0.000295940,0.001801100,0.002374255,0.005543681,0.017713445,0.008209418,0.996972010,0.000568893,0.002144563,0.003999602,0.000000000,0.000000000,0.000000000,0.000000000,0.015376288,0.007739659,0.054082006,0.004355580,0.005724253,-0.007872827,0.004677453,0.003684653,-0.002645583,0.243683257,0.790761981,-2.294764231,0.001987877,-0.006941835,-0.020009044,0.999773190,0.000000000,0.000000000,0.000000000,0.000000000,0.000000000,0.000000000,-2.295005243,0.000000000,4.049544263
1772426634.980746031,0.015317000,0.007640000,0.054222000,0.001184390,-0.010764050,-0.026223640,0.999597450,0.002933000,-0.021459000,-0.052488000,0.000079546,0.000089996,0.000143978,-0.001552417,-0.004391241,0.004694075,0.017540130,0.007711932,0.997933061,-0.001914140,0.001218672,0.004321475,0.000000000,0.000000000,0.000000000,0.000000000,0.015383885,0.007745700,0.054076585,0.004579736,0.005905752,-0.007877313,0.003698115,0.002536205,-0.001796624,0.243455037,0.789531023,-2.290672068,0.001986349,-0.006930984,-0.019973380,0.999773820,0.000000000,0.000000000,0.000000000,0.000000000,0.000000000,0.000000000,-2.291159407,0.000000000,4.049072379
1772426634.990746021,0.015313000,0.007645000,0.054234000,0.001202430,-0.010819450,-0.026256290,0.999595970,0.002973000,-0.021569000,-0.052554000,-0.000050505,-0.000014782,-0.000049223,-0.002676981,-0.007172956,0.003181112,0.017172310,0.007286197,0.997579484,-0.003081395,-0.000253990,0.004236659,0.000000000,0.000000000,0.000000000,0.000000000,0.015389442,0.007749427,0.054073351,0.004717081,0.006007447,-0.007785818,0.003662788,0.003187388,-0.002042621,0.242995104,0.787988640,-2.288872430,0.001982714,-0.006917416,-0.019957738,0.999774270,0.000000000,0.000000000,0.000000000,0.000000000,0.000000000,0.000000000,-2.289110341,0.000000000,4.048764635
1772426635.000746727,0.015312000,0.007645000,0.054227000,0.001170740,-0.011003990,-0.026233540,0.999594590,0.002919000,-0.021939000,-0.052508000,-0.000110334,-0.000221212,-0.000158042,-0.005162332,-0.009304339,0.001134561,0.016438316,0.007561215,0.996243425,-0.001345963,0.000068901,0.002749214,0.000000000,0.000000000,0.000000000,0.000000000,0.015392734,0.007753460,0.054073676,0.004844960,0.006106357,-0.007658827,0.003455245,0.003144294,-0.003358442,0.242066989,0.786217647,-2.286602829,0.001975061,-0.006901764,-0.019938027,0.999774806,0.000000000,0.000000000,0.000000000,0.000000000,0.000000000,0.000000000,-2.287191820,0.000000000,4.049263338
1772426635.010746479,0.015307000,0.007645000,0.054225000,0.001167780,-0.011022540,-0.026259600,0.999593700,0.002914000,-0.021977000,-0.052560000,0.000052894,-0.000148213,-0.000043765,-0.005525290,-0.012850826,0.000280608,0.019106067,0.007304852,0.996783811,-0.003692188,0.001799595,-0.001698992,0.000000000,0.000000000,0.000000000,0.000000000,0.015395394,0.007756060,0.054074226,0.004943351,0.006205929,-0.007634927,0.004389573,0.002737607,-0.003681232,0.241177636,0.785788305,-2.285211114,0.001967461,-0.006897839,-0.019925946,0.999775550,0.000000000,0.000000000,0.000000000,0.000000000,0.000000000,0.000000000,-2.284998589,0.000000000,4.049761994
1772426635.020746231,0.015313000,0.007634000,0.054214000,0.001065940,-0.011020410,-0.026242250,0.999594300,0.002710000,-0.021978000,-0.052524000,0.000010276,-0.000117444,0.000066978,-0.005083031,-0.009083723,0.001975734,0.018830165,0.007237886,0.996668436,-0.005447549,0.003367017,-0.001141500,0.000000000,0.000000000,0.000000000,0.000000000,0.015401246,0.007765277,0.054071667,0.005182024,0.006311725,-0.007634765,0.005158329,0.002380343,-0.003014733,0.240753298,0.786767443,-2.285608755,0.001963564,-0.006906315,-0.019929421,0.999774977,0.000000000,0.000000000,0.000000000,0.000000000,0.000000000,0.000000000,-2.285833071,0.000000000,4.050260649
1772426635.030746222,0.015314000,0.007635000,0.054225000,0.001102510,-0.011004850,-0.026198610,0.999595570,0.002781000,-0.021945000,-0.052437000,0.000043279,-0.000036577,0.000102622,-0.001740245,-0.004850666,0.003503986,0.017114266,0.005480134,0.997338811,0.000443176,0.002136764,0.002772883,0.000000000,0.000000000,0.000000000,0.000000000,0.015403192,0.007770564,0.054071983,0.005438517,0.006353023,-0.007578409,0.003644774,0.001827007,-0.002938100,0.238855721,0.784696864,-2.283618023,0.001947489,-0.006887886,-0.019912207,0.999775482,0.000000000,0.000000000,0.000000000,0.000000000,0.000000000,0.000000000,-2.283933117,0.000000000,4.050759316
1772426635.040745974,0.015315000,0.007639000,0.054233000,0.001072760,-0.011100040,-0.026200240,0.999594510,0.002727000,-0.022137000,-0.052440000,-0.000076224,0.000178827,0.000062063,0.003022850,-0.004082246,0.003619044,0.016979058,0.005401594,0.995158077,0.000593326,-0.002025545,-0.003577205,0.000000000,0.000000000,0.000000000,0.000000000,0.015404427,0.007764714,0.054077613,0.005554597,0.006270613,-0.007472594,0.002997227,0.001795765,-0.004642590,0.236645032,0.781422753,-2.280683160,0.001928946,-0.006858887,-0.019886796,0.999776266,0.000000000,0.000000000,0.000000000,0.000000000,0.000000000,0.000000000,-2.281195438,0.000000000,4.051257972
