t,px,py,pz,qx,qy,qz,qw,roll,pitch,yaw,vx,vy,vz,wx_vicon,wy_vicon,wz_vicon,imu_acc_x,imu_acc_y,imu_acc_z,imu_gyro_x,imu_gyro_y,imu_gyro_z,motor_motor_m1,motor_motor_m2,motor_motor_m3,motor_motor_m4,est_stateEstimate_x,est_stateEstimate_y,est_stateEstimate_z,est_stateEstimate_vx,est_stateEstimate_vy,est_stateEstimate_vz,est_stateEstimate_ax,est_stateEstimate_ay,est_stateEstimate_az,att_stateEstimate_roll,att_stateEstimate_pitch,att_stateEstimate_yaw,att_stateEstimate_qx,att_stateEstimate_qy,att_stateEstimate_qz,att_stateEstimate_qw,sp_ctrltarget_x,sp_ctrltarget_y,sp_ctrltarget_z,sp_ctrltarget_yaw,pid_controller_roll,pid_controller_pitch,pid_controller_yaw,pid_controller_cmd_thrust,pwr_pm_vbat
1772680669.945943594,0.016115000,0.009968000,0.073712000,-0.010971060,0.016912330,0.025020650,0.999483650,-0.021099000,0.034363000,0.049694000,0.001920639,0.004090656,-0.006613969,0.114262140,-0.131633973,0.071342603,0.012067664,-0.008036866,0.996824185,0.010153763,0.002997911,-0.007384852,0.000000000,0.000000000,0.000000000,0.000000000,0.016473302,0.010114384,0.073677760,0.036914052,0.014663986,-0.000991501,0.008465825,0.002279041,0.002746652,-0.315669333,0.166678029,2.266522231,-0.002725420,-0.001508734,0.019773731,0.999798371,0.000000000,0.000000000,0.000000000,0.000000000,0.000000000,0.000000000,2.268323764,0.000000000,4.154252052
1772680669.955945492,0.016115000,0.009977000,0.073694000,-0.010767660,0.016750490,0.025038940,0.999488130,-0.020699000,0.034030000,0.049741000,0.000133768,0.000804490,-0.001347737,0.016423863,-0.026650983,0.018046905,0.012845168,-0.006231030,0.997600654,0.005572993,0.001641139,-0.005578459,0.000000000,0.000000000,0.000000000,0.000000000,0.016475141,0.010110780,0.073685721,0.036735891,0.014630529,-0.000883031,0.009680250,0.002205147,0.000573017,-0.315498531,0.165058778,2.263405082,-0.002724249,-0.001494502,0.019746573,0.999798987,0.000000000,0.000000000,0.000000000,0.000000000,0.000000000,0.000000000,2.264961857,0.000000000,4.154252052
1772680669.965947866,0.016113000,0.009978000,0.073696000,-0.010862750,0.016857370,0.025239100,0.999480270,-0.020877000,0.034252000,0.050136000,-0.000596711,-0.000896155,0.001145959,-0.030001108,0.020635482,-0.006197523,0.013622709,-0.004425108,0.998377161,0.000992005,0.000284302,-0.003771979,0.000000000,0.000000000,0.000000000,0.000000000,0.016476981,0.010107175,0.073693683,0.036557721,0.014597070,-0.000774556,0.010894733,0.002131249,-0.001600722,-0.315327720,0.163439450,2.260287784,-0.002723078,-0.001480270,0.019719415,0.999799603,0.000000000,0.000000000,0.000000000,0.000000000,0.000000000,0.000000000,2.261599790,0.000000000,4.154252052
1772680669.975949526,0.016125000,0.009977000,0.073680000,-0.010891980,0.016642810,0.025239800,0.999483530,-0.020946000,0.033825000,0.050141000,-0.000561638,-0.001378325,0.001580239,-0.037087915,0.024343112,-0.009033810,0.014320517,-0.002841916,0.999132496,-0.002612381,-0.000410636,-0.001435053,0.000000000,0.000000000,0.000000000,0.000000000,0.016474353,0.010108301,0.073699122,0.036529572,0.014326094,-0.000834449,0.011718737,0.002418111,-0.000662725,-0.315541629,0.162725431,2.257063749,-0.002725109,-0.001474001,0.019691300,0.999800203,0.000000000,0.000000000,0.000000000,0.000000000,0.000000000,0.000000000,2.258252560,0.000000000,4.154252052
1772680669.985951185,0.016107000,0.009962000,0.073703000,-0.010979110,0.016690030,0.025134310,0.999484450,-0.021122000,0.033921000,0.049926000,-0.000051852,-0.001009065,0.000668217,-0.016907767,-0.001415725,0.001852485,0.014330653,-0.002562533,0.999900636,0.000403232,0.002270448,0.003602421,0.000000000,0.000000000,0.000000000,0.000000000,0.016473185,0.010112538,0.073692161,0.036598159,0.014235892,-0.000952446,0.010952699,0.004369008,-0.000110095,-0.315699325,0.162122411,2.255034595,-0.002726615,-0.001468718,0.019673609,0.999800631,0.000000000,0.000000000,0.000000000,0.000000000,0.000000000,0.000000000,2.256953440,0.000000000,4.154252052
1772680669.995953560,0.016110000,0.009965000,0.073706000,-0.010976380,0.016528170,0.025182130,0.999485970,-0.021123000,0.033598000,0.050025000,0.000641806,-0.000155422,-0.000876987,0.018470438,-0.042515085,0.018807677,0.013571048,-0.001097244,1.001150712,0.001784966,-0.002149215,0.001359727,0.000000000,0.000000000,0.000000000,0.000000000,0.016472030,0.010114863,0.073689060,0.036691103,0.014167677,-0.000938593,0.010553686,0.004984465,0.000611460,-0.314591278,0.163958355,2.257184436,-0.002716604,-0.001484597,0.019692338,0.999800464,0.000000000,0.000000000,0.000000000,0.000000000,0.000000000,0.000000000,2.261539384,0.000000000,4.154252052
1772680670.005955696,0.016107000,0.009961000,0.073712000,-0.011099860,0.016597230,0.025143520,0.999484430,-0.021367000,0.033742000,0.049942000,0.000976050,0.000641145,-0.001727950,0.058651671,-0.081826908,0.026544718,0.013599965,-0.002072909,0.999451487,0.000533139,0.000170663,-0.002312468,0.000000000,0.000000000,0.000000000,0.000000000,0.016477175,0.010115190,0.073680465,0.036680144,0.014311508,-0.000833936,0.010736088,0.002594107,-0.000506712,-0.313834451,0.166042303,2.260129977,-0.002709604,-0.001502719,0.019717996,0.999799884,0.000000000,0.000000000,0.000000000,0.000000000,0.000000000,0.000000000,2.263085236,0.000000000,4.154252052
1772680670.015958071,0.016157000,0.009946000,0.073648000,-0.010297610,0.015905920,0.025712990,0.999489770,-0.019778000,0.032331000,0.051121000,0.000826241,0.000913361,-0.001516714,0.075063723,-0.096951919,0.027427849,0.013051833,-0.001418090,1.000307376,-0.000751969,-0.002129581,-0.001353523,0.000000000,0.000000000,0.000000000,0.000000000,0.016470803,0.010108399,0.073687852,0.036637885,0.014305489,-0.000793699,0.010016998,0.004908628,0.000962109,-0.312895809,0.167380856,2.258517861,-0.002701205,-0.001514199,0.019703909,0.999799941,0.000000000,0.000000000,0.000000000,0.000000000,0.000000000,0.000000000,2.259521136,0.000000000,4.154252052
1772680670.025960684,0.016124000,0.009962000,0.073683000,-0.010590400,0.016097600,0.025550020,0.999487820,-0.020360000,0.032726000,0.050782000,0.000275498,0.000780195,-0.000755221,0.062922195,-0.086516919,0.015889134,0.013177727,-0.001953292,1.000215164,-0.003957812,0.000616595,0.002778875,0.000000000,0.000000000,0.000000000,0.000000000,0.016468568,0.010106133,0.073694425,0.036566873,0.014307147,-0.000702669,0.010521546,0.003393616,0.000494627,-0.313575848,0.166567818,2.256527477,-0.002707304,-0.001507175,0.019686554,0.999800339,0.000000000,0.000000000,0.000000000,0.000000000,0.000000000,0.000000000,2.257057747,0.000000000,4.154252052
1772680670.035962820,0.016165000,0.010044000,0.073579000,-0.008987530,0.013870540,0.025854410,0.999529080,-0.017257000,0.028196000,0.051478000,-0.000610189,0.000581330,0.000413596,0.034545536,-0.044834812,-0.002325294,0.013266748,-0.001268563,1.000470286,0.000267279,-0.002099119,0.003973450,0.000000000,0.000000000,0.000000000,0.000000000,0.016470548,0.010102403,0.073694801,0.036513083,0.014331471,-0.000620276,0.010027433,0.005414573,-0.000206315,-0.313926518,0.165238823,2.255919046,-0.002710600,-0.001495625,0.019681274,0.999800519,0.000000000,0.000000000,0.000000000,0.000000000,0.000000000,0.000000000,2.259169443,0.000000000,4.154252052
1772680670.045965195,0.016127000,0.009979000,0.073682000,-0.009569080,0.015004800,0.025546660,0.999515210,-0.018372000,0.030489000,0.050827000,-0.001107507,0.000038685,0.001504518,-0.008513732,0.009756721,-0.020429377,0.013076096,-0.001888045,1.000486877,0.000606761,-0.000836613,0.005441339,0.000000000,0.000000000,0.000000000,0.000000000,0.016489986,0.010095342,0.073670505,0.036561493,0.014335324,-0.000633357,0.010189456,0.004525914,0.000628894,-0.312572456,0.166668195,2.260647626,-0.002698478,-0.001507975,0.019722515,0.999799921,0.000000000,0.000000000,0.000000000,0.000000000,0.000000000,0.000000000,2.264659223,0.000000000,4.154252052
1772680670.055967569,0.016107000,0.009968000,0.073707000,-0.010046620,0.015278720,0.025380070,0.999510620,-0.019318000,0.031057000,0.050474000,-0.001189112,-0.000314164,0.001707423,-0.047563957,0.063466232,-0.030053120,0.013938282,-0.002529603,1.001409646,-0.001778236,0.002830948,0.002368021,0.000000000,0.000000000,0.000000000,0.000000000,0.016486793,0.010102019,0.073669707,0.036449438,0.014398326,-0.000609295,0.010870125,0.003274991,0.001300816,-0.312033352,0.167897652,2.266115733,-0.002693490,-0.001518738,0.019770200,0.999798976,0.000000000,0.000000000,0.000000000,0.000000000,0.000000000,0.000000000,2.269868821,0.000000000,4.154252052
1772680670.065969944,0.016098000,0.009976000,0.073704000,-0.010386670,0.015709540,0.025300280,0.999502490,-0.019980000,0.031934000,0.050296000,-0.000522894,-0.000702067,0.000955756,-0.058718701,0.087492484,-0.025402834,0.013484368,-0.002490668,0.999871773,-0.001650473,-0.000172310,-0.000009915,0.000000000,0.000000000,0.000000000,0.000000000,0.016501899,0.010141060,0.073625403,0.036484335,0.014471431,-0.000627326,0.011055249,0.002935028,-0.000280920,-0.312285846,0.170851882,2.271255920,-0.002695114,-0.001544678,0.019814973,0.999798050,0.000000000,0.000000000,0.000000000,0.000000000,0.000000000,0.000000000,2.275613740,0.000000000,4.154252052
1772680670.075971603,0.016105000,0.009989000,0.073694000,-0.010412350,0.016056810,0.025214450,0.999498870,-0.020017000,0.032628000,0.050117000,-0.000322321,-0.000421811,0.000704067,-0.062450765,0.088936837,-0.022639841,0.012875113,-0.000736424,1.001006512,0.000437665,-0.000923383,-0.000915563,0.000000000,0.000000000,0.000000000,0.000000000,0.016490803,0.010129425,0.073652701,0.036436380,0.014304269,-0.000464548,0.009289640,0.006202967,0.001377316,-0.310525103,0.174440151,2.275021812,-0.002679079,-0.001575769,0.019847768,0.999797335,0.000000000,0.000000000,0.000000000,0.000000000,0.000000000,0.000000000,2.277217310,0.000000000,4.154252052
1772680670.085973501,0.016110000,0.009966000,0.073704000,-0.010793030,0.016295000,0.025088160,0.999494160,-0.020770000,0.033121000,0.049847000,0.000362948,0.000308280,-0.000571096,-0.026409672,0.031892788,-0.009999142,0.013233526,-0.002059423,1.001661651,-0.000960621,0.001457915,-0.000332184,0.000000000,0.000000000,0.000000000,0.000000000,0.016475186,0.010119020,0.073678667,0.036303469,0.014330572,-0.000292393,0.010227615,0.003351920,0.001164844,-0.309654223,0.175338704,2.273189876,-0.002671351,-0.001583415,0.019831775,0.999797359,0.000000000,0.000000000,0.000000000,0.000000000,0.000000000,0.000000000,2.274506354,0.000000000,4.154252052
1772680670.095975637,0.016110000,0.009988000,0.073683000,-0.010804530,0.016436820,0.025106470,0.999491250,-0.020786000,0.033406000,0.049881000,0.000203118,-0.000156237,0.000022372,-0.018302560,0.021763448,-0.008552190,0.012700390,-0.001808699,1.000942955,0.001653375,0.001142295,0.001411771,0.000000000,0.000000000,0.000000000,0.000000000,0.016463732,0.010118392,0.073690072,0.036203670,0.014372370,-0.000048845,0.009315059,0.003532781,0.001136517,-0.307842969,0.173673059,2.272195056,-0.002655850,-0.001568546,0.019823160,0.999797711,0.000000000,0.000000000,0.000000000,0.000000000,0.000000000,0.000000000,2.272313679,0.000000000,4.154252052
1772680670.105977535,0.016111000,0.009968000,0.073705000,-0.010894000,0.016514030,0.024984250,0.999492070,-0.020965000,0.033562000,0.049632000,0.000083042,-0.000231219,-0.000016643,-0.011923048,0.000460107,-0.003718335,0.013971026,-0.000184943,1.002406609,-0.000217131,0.000630261,-0.000977167,0.000000000,0.000000000,0.000000000,0.000000000,0.016460987,0.010122643,0.073692710,0.036099115,0.014299602,0.000014257,0.011372915,0.006151101,0.001578704,-0.307098102,0.173255371,2.270112489,-0.002649452,-0.001564724,0.019805011,0.999798034,0.000000000,0.000000000,0.000000000,0.000000000,0.000000000,0.000000000,2.270934378,0.000000000,4.154252052
1772680670.115979910,0.016106000,0.009972000,0.073714000,-0.010969270,0.016441000,0.025077720,0.999490110,-0.021116000,0.033422000,0.049818000,0.000163733,-0.000212634,-0.000201118,-0.002328225,-0.011986572,0.003576035,0.013892502,-0.002119817,1.000347847,-0.000013463,0.003652161,0.002518348,0.000000000,0.000000000,0.000000000,0.000000000,0.016461697,0.010115543,0.073698319,0.036112357,0.014425154,0.000286712,0.010829023,0.003856427,0.001342159,-0.307391107,0.171723772,2.268912185,-0.002652289,-0.001551384,0.019794571,0.999798331,0.000000000,0.000000000,0.000000000,0.000000000,0.000000000,0.000000000,2.269198864,0.000000000,4.154252052
1772680670.125982285,0.016110000,0.009968000,0.073695000,-0.010973170,0.016338940,0.025058770,0.999492210,-0.021130000,0.033217000,0.049782000,0.000201875,-0.000213003,-0.000113027,0.006131510,-0.018004070,0.006128801,0.013549987,-0.001324780,1.000822440,0.004468445,-0.002411314,-0.000077677,0.000000000,0.000000000,0.000000000,0.000000000,0.016462489,0.010121611,0.073693225,0.036190350,0.014476254,0.000302078,0.010277220,0.004612863,0.001023636,-0.306588491,0.171568870,2.266425415,-0.002645347,-0.001549837,0.019772888,0.999798685,0.000000000,0.000000000,0.000000000,0.000000000,0.000000000,0.000000000,2.267534551,0.000000000,4.154252052
1772680670.135983944,0.016111000,0.009973000,0.073693000,-0.010889300,0.016293390,0.025054030,0.999493990,-0.020964000,0.033122000,0.049776000,0.000149867,-0.000163967,0.000044143,0.005878680,-0.014862736,0.009420252,0.012552088,-0.001170100,1.000187318,0.004638655,0.000441248,0.000735654,0.000000000,0.000000000,0.000000000,0.000000000,0.016463170,0.010115666,0.073701346,0.036199072,0.014456737,0.000443444,0.009503422,0.004538876,0.000021555,-0.304478868,0.171577670,2.263248861,-0.002626982,-0.001549477,0.019745201,0.999799271,0.000000000,0.000000000,0.000000000,0.000000000,0.000000000,0.000000000,2.264261428,0.000000000,4.154252052
1772680670.145986319,0.016120000,0.009970000,0.073683000,-0.010839470,0.016156150,0.025195030,0.999493220,-0.020867000,0.032848000,0.050062000,-0.000102190,0.000244289,0.000058028,0.006909746,-0.005785128,0.008549914,0.011287927,-0.002344368,1.000339817,0.002144343,0.003107238,0.001641767,0.000000000,0.000000000,0.000000000,0.000000000,0.016461204,0.010114796,0.073709575,0.036137004,0.014549955,0.000511404,0.008084232,0.003521833,0.000209637,-0.303107419,0.170829864,2.260901959,-0.002615177,-0.001542662,0.019724761,0.999799756,0.000000000,0.000000000,0.000000000,0.000000000,0.000000000,0.000000000,2.261659032,0.000000000,4.154252052
1772680670.155988693,0.016121000,0.009961000,0.073703000,-0.010771760,0.016203310,0.025217290,0.999492630,-0.020728000,0.032939000,0.050108000,-0.000196010,0.000055154,0.000327564,0.002940826,0.003022747,0.004518366,0.011850536,-0.002802132,1.001123646,0.000290235,0.003191304,0.000868726,0.000000000,0.000000000,0.000000000,0.000000000,0.016461349,0.010112383,0.073704606,0.035942448,0.014510839,0.000466510,0.008435410,0.002882411,0.000945789,-0.302424072,0.169984134,2.258377355,-0.002609394,-0.001535108,0.019702764,0.999800190,0.000000000,0.000000000,0.000000000,0.000000000,0.000000000,0.000000000,2.259486641,0.000000000,4.154252052
1772680670.165991306,0.016104000,0.009967000,0.073717000,-0.010872630,0.016223460,0.025156880,0.999492730,-0.020931000,0.032983000,0.049983000,-0.000304648,0.000003515,0.000546393,0.000841890,0.004543661,0.002283477,0.012570952,-0.002054031,1.001411429,0.001105341,-0.001106431,0.001579751,0.000000000,0.000000000,0.000000000,0.000000000,0.016461590,0.010113068,0.073700224,0.035750339,0.014388185,0.000524345,0.009255466,0.003245966,0.002245359,-0.301888487,0.169838181,2.256982912,-0.002604765,-0.001533711,0.019690608,0.999800537,0.000000000,0.000000000,0.000000000,0.000000000,0.000000000,0.000000000,2.257225924,0.000000000,4.154252052
1772680670.175993919,0.016104000,0.009983000,0.073704000,-0.010835170,0.016352300,0.025274290,0.999488070,-0.020846000,0.033242000,0.050217000,-0.000217101,-0.000184882,0.000302958,-0.002448879,0.007451580,-0.002324385,0.012484792,-0.000334196,0.999896070,0.000339516,0.000329324,0.001119441,0.000000000,0.000000000,0.000000000,0.000000000,0.016465143,0.010110898,0.073695647,0.035667614,0.014292991,0.000632755,0.008910516,0.005629951,0.000014660,-0.301380743,0.169469039,2.255448893,-0.002600419,-0.001530368,0.019677238,0.999800805,0.000000000,0.000000000,0.000000000,0.000000000,0.000000000,0.000000000,2.255985785,0.000000000,4.154252052
1772680670.185996294,0.016101000,0.009971000,0.073708000,-0.010871470,0.016371450,0.025113500,0.999491420,-0.020923000,0.033278000,0.049894000,-0.000227704,-0.000194437,0.000366852,-0.013617274,0.028272457,-0.011580415,0.013069097,-0.001038444,0.997594839,0.000409672,-0.000294951,0.001285950,0.000000000,0.000000000,0.000000000,0.000000000,0.016465918,0.010106276,0.073703601,0.035563410,0.014363377,0.000738777,0.009860125,0.004978811,-0.001549235,-0.300511044,0.169805761,2.253285585,-0.002592802,-0.001533108,0.019658367,0.999801174,0.000000000,0.000000000,0.000000000,0.000000000,0.000000000,0.000000000,2.254052490,0.000000000,4.154252052
1772680670.195998669,0.016114000,0.009955000,0.073705000,-0.010877160,0.016330630,0.025178110,0.999490400,-0.020934000,0.033198000,0.050024000,0.000497085,-0.000446145,-0.000485510,-0.001340491,0.010572444,-0.003047600,0.013107131,-0.002443701,0.997763447,-0.000855039,-0.000715507,-0.000577665,0.000000000,0.000000000,0.000000000,0.000000000,0.016458367,0.010108305,0.073712810,0.035485293,0.014497598,0.000593014,0.009806608,0.002902838,-0.002618089,-0.299972252,0.168555868,2.251263291,-0.002588342,-0.001522064,0.019640758,0.999801522,0.000000000,0.000000000,0.000000000,0.000000000,0.000000000,0.000000000,2.251928872,0.000000000,4.154252052
1772680670.206001043,0.016109000,0.009961000,0.073715000,-0.010817340,0.016358880,0.025130660,0.999491780,-0.020814000,0.033251000,0.049930000,0.000816415,-0.000481277,-0.000720594,0.017610594,-0.012577080,0.008706480,0.012974548,-0.002514995,0.999775725,-0.002210515,-0.002379207,-0.003180286,0.000000000,0.000000000,0.000000000,0.000000000,0.016454674,0.010115697,0.073710758,0.035477207,0.014516910,0.000361258,0.009749150,0.002774298,-0.000934324,-0.300220818,0.169141463,2.248642633,-0.002590446,-0.001527157,0.019617877,0.999801928,0.000000000,0.000000000,0.000000000,0.000000000,0.000000000,0.000000000,2.249499510,0.000000000,4.154252052
1772680670.216003656,0.016114000,0.009956000,0.073704000,-0.010976830,0.016640880,0.025097290,0.999486230,-0.021121000,0.033822000,0.049853000,0.000463021,-0.000084751,-0.000570727,0.025306410,-0.024603060,0.013919536,0.013249889,-0.001672745,1.001099310,-0.003193372,0.001390393,-0.000610119,0.000000000,0.000000000,0.000000000,0.000000000,0.016451142,0.010114247,0.073710543,0.035436065,0.014398380,0.000213585,0.010341802,0.004054329,0.000502301,-0.300561896,0.168733091,2.246322178,-0.002593522,-0.001523600,0.019597634,0.999802343,0.000000000,0.000000000,0.000000000,0.000000000,0.000000000,0.000000000,2.247010003,0.000000000,4.154252052
1772680670.226006031,0.016116000,0.009961000,0.073705000,-0.010965800,0.016766780,0.025081390,0.999484640,-0.021093000,0.034073000,0.049819000,0.000071972,0.000281868,-0.000321291,0.019960768,-0.019170411,0.012022407,0.013698238,-0.000695211,0.999188337,0.001080130,-0.004848413,-0.000976751,0.000000000,0.000000000,0.000000000,0.000000000,0.016455433,0.010104558,0.073709390,0.035440643,0.014360174,0.000273926,0.011100440,0.004549170,-0.000660716,-0.299961070,0.169594664,2.243810941,-0.002588166,-0.001530958,0.019575712,0.999802740,0.000000000,0.000000000,0.000000000,0.000000000,0.000000000,0.000000000,2.244760282,0.000000000,4.154252052
1772680670.236008644,0.016152000,0.009951000,0.073651000,-0.010080230,0.015488460,0.025591560,0.999501660,-0.019368000,0.031483000,0.050893000,-0.000234365,0.000442222,0.000042822,0.010575092,-0.004881038,0.002405896,0.013320194,-0.001294672,0.999110486,0.002320204,0.003397229,-0.000172206,0.000000000,0.000000000,0.000000000,0.000000000,0.016455473,0.010102955,0.073712914,0.035503098,0.014466025,0.000233294,0.009712939,0.004278676,-0.000210367,-0.298186353,0.170162410,2.240918581,-0.002572624,-0.001535543,0.019550487,0.999803276,0.000000000,0.000000000,0.000000000,0.000000000,0.000000000,0.000000000,2.241875313,0.000000000,4.154252052
1772680670.246011496,0.016111000,0.009971000,0.073701000,-0.010369010,0.015989420,0.025417530,0.999495260,-0.019927000,0.032496000,0.050526000,-0.000380582,0.000352908,0.000131010,-0.004626125,0.008888613,-0.003107343,0.014615972,-0.001575077,1.000216316,0.000953586,0.003827549,0.000484904,0.000000000,0.000000000,0.000000000,0.000000000,0.016458330,0.010100735,0.073709067,0.035540622,0.014502509,0.000111013,0.011694507,0.004568089,-0.000567960,-0.297686170,0.169465670,2.238083347,-0.002568416,-0.001529315,0.019525774,0.999803814,0.000000000,0.000000000,0.000000000,0.000000000,0.000000000,0.000000000,2.239075349,0.000000000,4.154252052
1772680670.256014347,0.016098000,0.009975000,0.073711000,-0.010745900,0.016443810,0.025168050,0.999490220,-0.020666000,0.033418000,0.050006000,-0.000686628,0.000366366,0.000445582,-0.019427145,0.021957177,-0.011684758,0.014685761,-0.001641975,1.001101139,0.001973871,0.001272306,0.000720481,0.000000000,0.000000000,0.000000000,0.000000000,0.016464374,0.010100984,0.073702761,0.035660428,0.014537629,0.000088818,0.011298746,0.003533187,0.000772355,-0.297641564,0.167781237,2.236405437,-0.002568337,-0.001514573,0.019511172,0.999804168,0.000000000,0.000000000,0.000000000,0.000000000,0.000000000,0.000000000,2.239503348,0.000000000,4.154252052
1772680670.266017199,0.016107000,0.009967000,0.073709000,-0.010948000,0.016668880,0.025055580,0.999487120,-0.021063000,0.033876000,0.049770000,-0.000604072,0.000269963,0.000315834,-0.029626885,0.038300816,-0.012514224,0.013972086,-0.000893289,1.001125444,0.002370135,-0.000016703,-0.000197901,0.000000000,0.000000000,0.000000000,0.000000000,0.016478453,0.010099695,0.073682339,0.035870764,0.014542661,0.000052313,0.010583018,0.005497581,0.001589477,-0.297004739,0.169166809,2.238747566,-0.002562513,-0.001526606,0.019531586,0.999803908,0.000000000,0.000000000,0.000000000,0.000000000,0.000000000,0.000000000,2.240021101,0.000000000,4.154252052
1772680670.276019573,0.016110000,0.009978000,0.073695000,-0.010811800,0.016678090,0.025147850,0.999486130,-0.020787000,0.033889000,0.049959000,-0.000173677,0.000118678,0.000029228,-0.023858544,0.034594826,-0.004509664,0.014536672,-0.002400370,0.999160182,0.001568067,-0.000204655,-0.002286752,0.000000000,0.000000000,0.000000000,0.000000000,0.016468652,0.010107166,0.073693402,0.035858628,0.014637824,0.000229404,0.011411823,0.003416571,-0.000857206,-0.296034632,0.168763999,2.235275300,-0.002554164,-0.001522849,0.019501312,0.999804253,0.000000000,0.000000000,0.000000000,0.000000000,0.000000000,0.000000000,2.236567455,0.000000000,4.154252052
1772680670.286021948,0.016102000,0.009970000,0.073688000,-0.010984110,0.016557640,0.025204440,0.999484830,-0.021136000,0.033658000,0.050068000,-0.000006253,-0.000542878,0.000259515,-0.019329197,0.027509161,0.001502901,0.013558908,-0.002667363,0.998452395,-0.000088030,-0.001109430,-0.001578682,0.000000000,0.000000000,0.000000000,0.000000000,0.016459414,0.010112360,0.073703250,0.035945215,0.014682750,0.000299281,0.010706109,0.002962471,-0.000986235,-0.295470340,0.169428077,2.232443799,-0.002549165,-0.001528484,0.019476599,0.999804779,0.000000000,0.000000000,0.000000000,0.000000000,0.000000000,0.000000000,2.233448094,0.000000000,4.154252052
1772680670.296024799,0.016097000,0.009976000,0.073706000,-0.010954420,0.016620280,0.025147030,0.999485560,-0.021075000,0.033781000,0.049953000,0.000329525,0.000231783,-0.000691561,0.007439702,-0.012248195,0.005724814,0.013305052,-0.001422816,1.000159383,0.000275291,0.000262034,0.000942754,0.000000000,0.000000000,0.000000000,0.000000000,0.016458784,0.010111664,0.073706814,0.035998534,0.014581540,0.000167318,0.010406933,0.003994726,-0.000484908,-0.294498309,0.169276107,2.230769221,-0.002540732,-0.001526956,0.019462005,0.999805148,0.000000000,0.000000000,0.000000000,0.000000000,0.000000000,0.000000000,2.231213444,0.000000000,4.154252052
1772680670.306027412,0.016111000,0.009975000,0.073692000,-0.010895390,0.016802130,0.025291610,0.999479520,-0.020943000,0.034145000,0.050241000,0.000598382,0.000836592,-0.001508849,0.039374637,-0.057411580,0.005842723,0.014338705,-0.002337864,1.001161117,-0.001276971,-0.001708667,0.000548649,0.000000000,0.000000000,0.000000000,0.000000000,0.016460188,0.010115885,0.073701820,0.036018636,0.014588701,0.000101339,0.010845659,0.003722252,0.000859362,-0.293590582,0.169123794,2.229391401,-0.002532857,-0.001525442,0.019450001,0.999805396,0.000000000,0.000000000,0.000000000,0.000000000,0.000000000,0.000000000,2.229883638,0.000000000,4.154252052
1772680670.316030264,0.016112000,0.009969000,0.073697000,-0.010912820,0.016656600,0.025204750,0.999483960,-0.020988000,0.033853000,0.050070000,0.000608014,0.000826377,-0.001433712,0.056289563,-0.083614127,0.002779016,0.013785897,-0.002403726,0.999301136,-0.000568221,-0.002961633,0.003030278,0.000000000,0.000000000,0.000000000,0.000000000,0.016457797,0.010114789,0.073696293,0.036076669,0.014553891,0.000137804,0.010575531,0.003347297,-0.000959809,-0.292665050,0.169076672,2.227649776,-0.002524813,-0.001524836,0.019434818,0.999805683,0.000000000,0.000000000,0.000000000,0.000000000,0.000000000,0.000000000,2.228430441,0.000000000,4.154252052
1772680670.326032877,0.016100000,0.009970000,0.073700000,-0.010972800,0.016627120,0.024975380,0.999489550,-0.021117000,0.033792000,0.049609000,0.000479665,0.000586865,-0.000971215,0.056917023,-0.083427635,0.005119202,0.012881658,-0.003048885,0.998233423,0.000123305,0.002064036,0.001879713,0.000000000,0.000000000,0.000000000,0.000000000,0.016453671,0.010116339,0.073700604,0.036111719,0.014495219,0.000135113,0.009523001,0.002330134,-0.001278376,-0.292146385,0.168071506,2.225455636,-0.002520487,-0.001515929,0.019415704,0.999806095,0.000000000,0.000000000,0.000000000,0.000000000,0.000000000,0.000000000,2.226327184,0.000000000,4.154252052
1772680670.336035490,0.016161000,0.010044000,0.073563000,-0.009305070,0.014337840,0.025487740,0.999529000,-0.017879000,0.029141000,0.050728000,0.000234599,0.000029228,-0.000234599,0.028827140,-0.051338799,0.002726633,0.012262978,-0.003562237,1.000195139,-0.003519093,0.000436819,0.000675783,0.000000000,0.000000000,0.000000000,0.000000000,0.016458921,0.010116300,0.073696498,0.036097748,0.014357530,-0.000063289,0.009494869,0.001541639,-0.000333649,-0.292899979,0.166978817,2.222226490,-0.002527290,-0.001506452,0.019387542,0.999806595,0.000000000,0.000000000,0.000000000,0.000000000,0.000000000,0.000000000,2.223409407,0.000000000,4.154252052
1772680670.346038342,0.016116000,0.009994000,0.073666000,-0.009755590,0.015085920,0.025278120,0.999519010,-0.018749000,0.030655000,0.050282000,-0.000232773,-0.000489957,0.000836359,-0.008019142,0.003526245,-0.005859470,0.014992576,-0.002929061,1.000414367,-0.000735127,0.000729719,0.001796612,0.000000000,0.000000000,0.000000000,0.000000000,0.016460823,0.010112135,0.073696668,0.035975077,0.014118910,-0.000054884,0.011195135,0.002834518,0.000305847,-0.292794445,0.166899151,2.220214201,-0.002526409,-0.001505695,0.019369990,0.999807018,0.000000000,0.000000000,0.000000000,0.000000000,0.000000000,0.000000000,2.220718884,0.000000000,4.154252052
1772680670.356040716,0.016106000,0.009968000,0.073705000,-0.010355920,0.015728540,0.025163930,0.999505950,-0.019922000,0.031968000,0.050024000,-0.000618831,-0.001373295,0.001990961,-0.061952702,0.090026156,-0.014116099,0.014834207,-0.003050375,1.001800732,-0.001664011,0.001276927,-0.000934895,0.000000000,0.000000000,0.000000000,0.000000000,0.016460836,0.010115661,0.073687070,0.036096745,0.013998746,-0.000097085,0.011707448,0.002355969,0.002061702,-0.292518774,0.166237256,2.217696606,-0.002524148,-0.001499818,0.019348040,0.999807422,0.000000000,0.000000000,0.000000000,0.000000000,0.000000000,0.000000000,2.218710567,0.000000000,4.154252052
1772680670.366043091,0.016120000,0.009967000,0.073694000,-0.010646880,0.016176810,0.025225290,0.999494190,-0.020479000,0.032880000,0.050129000,-0.000118076,-0.000925713,0.000836942,-0.060264403,0.084873841,-0.012770068,0.014507272,-0.003198294,1.000877139,0.000742088,-0.000737302,0.001701964,0.000000000,0.000000000,0.000000000,0.000000000,0.016484009,0.010144933,0.073631245,0.036250111,0.013962892,-0.000158928,0.011979667,0.002359159,0.000597543,-0.292883566,0.165460557,2.215661389,-0.002527489,-0.001493058,0.019330295,0.999807783,0.000000000,0.000000000,0.000000000,0.000000000,0.000000000,0.000000000,2.216257077,0.000000000,4.154252052
1772680670.376045227,0.016118000,0.009966000,0.073690000,-0.010990960,0.016587630,0.025018610,0.999488930,-0.021154000,0.033715000,0.049696000,0.000173308,0.000054630,-0.000559211,-0.020496486,0.028841747,-0.003759771,0.013983639,-0.002609041,1.000857761,0.003996654,0.000544668,0.000264651,0.000000000,0.000000000,0.000000000,0.000000000,0.016474788,0.010132681,0.073655761,0.036348656,0.013738728,0.000041450,0.010435045,0.002119259,0.002052461,-0.291219039,0.166095991,2.212831452,-0.002512896,-0.001498259,0.019305613,0.999808238,0.000000000,0.000000000,0.000000000,0.000000000,0.000000000,0.000000000,2.213783226,0.000000000,4.154252052
1772680670.386048079,0.016104000,0.009963000,0.073696000,-0.011032850,0.016678490,0.024951540,0.999488630,-0.021236000,0.033897000,0.049558000,0.000774369,0.001267764,-0.002095093,0.046448286,-0.069270617,0.013192313,0.013626712,-0.002746398,0.999641168,0.002226313,0.002014623,-0.001354672,0.000000000,0.000000000,0.000000000,0.000000000,0.016469633,0.010116615,0.073680118,0.036355077,0.013554738,0.000272911,0.011348934,0.003934242,-0.001661403,-0.290134245,0.165114735,2.210693704,-0.002503624,-0.001489468,0.019287000,0.999808653,0.000000000,0.000000000,0.000000000,0.000000000,0.000000000,0.000000000,2.211339580,0.000000000,4.154252052
1772680670.396050692,0.016120000,0.009963000,0.073684000,-0.011014950,0.016713740,0.025078340,0.999485070,-0.021194000,0.033969000,0.049812000,0.000378193,0.000832980,-0.000924897,0.062955335,-0.095195975,0.013320282,0.012709528,-0.001291384,0.999740273,0.001301172,-0.001602372,0.000653202,0.000000000,0.000000000,0.000000000,0.000000000,0.016472182,0.010107859,0.073687923,0.036419022,0.013473585,0.000277169,0.008772155,0.002633947,0.000479498,-0.289238980,0.165144445,2.208501886,-0.002495837,-0.001489529,0.019267884,0.999809042,0.000000000,0.000000000,0.000000000,0.000000000,0.000000000,0.000000000,2.209175115,0.000000000,4.154252052
1772680670.406053305,0.016164000,0.010035000,0.073571000,-0.009280370,0.014221750,0.025493920,0.999530730,-0.017835000,0.028907000,0.050743000,0.000033966,0.000334905,0.000178007,0.050255185,-0.073855518,0.011133581,0.013445857,0.000911090,0.999276291,0.001041084,-0.001953426,-0.000182820,0.000000000,0.000000000,0.000000000,0.000000000,0.016471742,0.010102778,0.073690676,0.036364383,0.013418150,0.000246674,0.010665988,0.006415523,-0.001239517,-0.289299047,0.165963832,2.207843737,-0.002496231,-0.001496674,0.019262123,0.999809226,0.000000000,0.000000000,0.000000000,0.000000000,0.000000000,0.000000000,2.208023273,0.000000000,4.154252052
1772680670.416055441,0.016114000,0.009994000,0.073677000,-0.009683730,0.014892290,0.025385130,0.999519900,-0.018612000,0.030267000,0.050502000,-0.000247358,-0.000283363,0.000988965,0.014532678,-0.014703060,0.004989599,0.013571479,-0.000400426,1.000188858,0.001582363,0.001216179,-0.004035960,0.000000000,0.000000000,0.000000000,0.000000000,0.016466550,0.010099154,0.073693493,0.036266221,0.013613067,0.000196190,0.010031465,0.005405582,0.000353827,-0.287978905,0.165302405,2.205818272,-0.002484851,-0.001490637,0.019244484,0.999809548,0.000000000,0.000000000,0.000000000,0.000000000,0.000000000,0.000000000,2.206528494,0.000000000,4.154252052
1772680670.426057816,0.016117000,0.009972000,0.073706000,-0.010161570,0.015358480,0.025164440,0.999513690,-0.019551000,0.031219000,0.050038000,-0.000528526,-0.000914837,0.001530542,-0.032828273,0.057805344,-0.009904746,0.013011339,-0.003348252,1.001659875,0.002183536,0.000744096,-0.001354616,0.000000000,0.000000000,0.000000000,0.000000000,0.016476028,0.010107739,0.073674352,0.036313311,0.013848459,0.000063620,0.010067090,0.002367455,0.001825779,-0.286574604,0.164980970,2.201979094,-0.002472702,-0.001487514,0.019211011,0.999810157,0.000000000,0.000000000,0.000000000,0.000000000,0.000000000,0.000000000,2.203198183,0.000000000,4.154252052
1772680670.436060667,0.016119000,0.009962000,0.073700000,-0.010394940,0.015798510,0.025147580,0.999504850,-0.019997000,0.032110000,0.049988000,-0.000610908,-0.001276853,0.001569305,-0.064926021,0.104276714,-0.018627744,0.013474523,-0.002199528,1.000150891,0.000796565,0.000036073,0.000095173,0.000000000,0.000000000,0.000000000,0.000000000,0.016490116,0.010134152,0.073636355,0.036256787,0.013838746,0.000025153,0.010532095,0.002269134,0.000742029,-0.285900912,0.163903816,2.200391842,-0.002467025,-0.001477969,0.019197195,0.999810515,0.000000000,0.000000000,0.000000000,0.000000000,0.000000000,0.000000000,2.200818198,0.000000000,4.154252052
1772680670.446063042,0.016111000,0.009972000,0.073696000,-0.010636510,0.016454490,0.025161940,0.999491370,-0.020447000,0.033434000,0.049997000,-0.000322087,-0.000905923,0.000847235,-0.069826911,0.105538083,-0.016960834,0.012444244,0.000340413,0.997871561,-0.001183145,-0.001858144,-0.001597063,0.000000000,0.000000000,0.000000000,0.000000000,0.016478673,0.010127935,0.073662183,0.036188861,0.013674312,0.000214851,0.009654163,0.006113457,-0.002045878,-0.286318605,0.163906960,2.199671491,-0.002470678,-0.001478051,0.019190905,0.999810665,0.000000000,0.000000000,0.000000000,0.000000000,0.000000000,0.000000000,2.199941093,0.000000000,4.154252052
1772680670.456065655,0.016109000,0.009954000,0.073704000,-0.011000410,0.016807180,0.025037250,0.999484690,-0.021162000,0.034155000,0.049728000,0.000307736,0.000225413,-0.000728129,-0.029136349,0.041886311,-0.005546617,0.011423497,0.000887568,0.998275672,-0.001199109,-0.000572066,-0.000327768,0.000000000,0.000000000,0.000000000,0.000000000,0.016474155,0.010115491,0.073684366,0.036099434,0.013724354,0.000187251,0.008185780,0.006420187,-0.002269351,-0.286233636,0.164106378,2.196608959,-0.002469943,-0.001479710,0.019164181,0.999811089,0.000000000,0.000000000,0.000000000,0.000000000,0.000000000,0.000000000,2.197799313,0.000000000,4.154252052
1772680670.466068029,0.016118000,0.009956000,0.073698000,-0.011068150,0.016807100,0.024985870,0.999485230,-0.021299000,0.034157000,0.049623000,0.000111415,0.000292801,-0.000180377,-0.017530117,0.018503485,-0.004836546,0.012431602,-0.000542888,0.999872304,-0.001506982,0.002596286,0.003274691,0.000000000,0.000000000,0.000000000,0.000000000,0.016470997,0.010107634,0.073692226,0.035901573,0.013939738,0.000002052,0.008992349,0.005445977,0.000071158,-0.285445590,0.162744052,2.196679966,-0.002463294,-0.001467694,0.019164840,0.999811232,0.000000000,0.000000000,0.000000000,0.000000000,0.000000000,0.000000000,2.196596541,0.000000000,4.154252052
1772680670.476070642,0.016119000,0.009963000,0.073697000,-0.011021430,0.016638130,0.025045130,0.999487090,-0.021212000,0.033818000,0.049747000,0.000243804,0.000217586,-0.000101744,-0.006039172,-0.001487175,0.000348499,0.012832708,-0.001882395,0.999266059,-0.000588287,0.001375647,0.002802892,0.000000000,0.000000000,0.000000000,0.000000000,0.016465519,0.010106289,0.073695078,0.035728349,0.014091229,-0.000025060,0.010102716,0.002398470,-0.000874205,-0.285776662,0.161470497,2.195122400,-0.002466416,-0.001456604,0.019151276,0.999811434,0.000000000,0.000000000,0.000000000,0.000000000,0.000000000,0.000000000,2.195628206,0.000000000,4.154252052
1772680670.486073256,0.016112000,0.009975000,0.073700000,-0.011066230,0.016693180,0.025035100,0.999485930,-0.021299000,0.033930000,0.049724000,0.000190747,0.000239648,-0.000291811,0.005514773,-0.013726113,0.007852054,0.012088181,-0.001317122,0.999574907,0.001271416,-0.000031648,0.000378909,0.000000000,0.000000000,0.000000000,0.000000000,0.016462160,0.010099256,0.073698658,0.035680755,0.014073954,-0.000048211,0.009109924,0.004134749,-0.000579122,-0.284819748,0.161231325,2.193199026,-0.002458131,-0.001454316,0.019134511,0.999811761,0.000000000,0.000000000,0.000000000,0.000000000,0.000000000,0.000000000,2.193795089,0.000000000,4.154252052
1772680670.496076107,0.016125000,0.009970000,0.073691000,-0.011013260,0.016769210,0.025069900,0.999484370,-0.021188000,0.034080000,0.049794000,0.000020644,0.000140312,-0.000408625,0.011282708,-0.013280683,0.015982437,0.012824873,-0.000879669,1.000490200,0.001248151,-0.000965727,-0.000563839,0.000000000,0.000000000,0.000000000,0.000000000,0.016464156,0.010096995,0.073697601,0.035577204,0.014011479,-0.000133696,0.009882353,0.004977606,0.001113388,-0.283748495,0.161307217,2.190663007,-0.002448804,-0.001454745,0.019112396,0.999812207,0.000000000,0.000000000,0.000000000,0.000000000,0.000000000,0.000000000,2.191455911,0.000000000,4.154252052
1772680670.506078720,0.016120000,0.009964000,0.073696000,-0.011066650,0.016658640,0.025083380,0.999485290,-0.021300000,0.033862000,0.049821000,-0.000056882,-0.000308454,-0.000200069,0.008256094,-0.008639939,0.018492708,0.012661852,-0.001915183,0.999969084,0.001728592,0.001780935,0.000050728,0.000000000,0.000000000,0.000000000,0.000000000,0.016463805,0.010100411,0.073697087,0.035500361,0.014117398,-0.000087108,0.010196084,0.003609038,0.000156960,-0.282573041,0.161961236,2.188202573,-0.002438470,-0.001460203,0.019090928,0.999812643,0.000000000,0.000000000,0.000000000,0.000000000,0.000000000,0.000000000,2.188915314,0.000000000,4.154252052
1772680670.516081095,0.016120000,0.009964000,0.073682000,-0.010858110,0.016576250,0.025370190,0.999481710,-0.020877000,0.033693000,0.050404000,-0.000076011,-0.000264331,-0.000053697,0.005607612,-0.013758918,0.013647707,0.012134129,-0.001367833,0.999541422,0.000334866,0.002064363,0.001227697,0.000000000,0.000000000,0.000000000,0.000000000,0.016466056,0.010107394,0.073696962,0.035469576,0.014126440,-0.000047100,0.009009977,0.003341190,-0.000033421,-0.281950507,0.160123540,2.186431633,-0.002433367,-0.001444027,0.019075528,0.999812995,0.000000000,0.000000000,0.000000000,0.000000000,0.000000000,0.000000000,2.186942139,0.000000000,4.154252052
1772680670.526083469,0.016113000,0.009968000,0.073686000,-0.010883590,0.016446850,0.025306690,0.999485180,-0.020937000,0.033434000,0.050279000,-0.000181814,-0.000041463,0.000374736,0.003978337,-0.023325108,0.005738204,0.012296328,-0.001181812,0.999335812,0.000257375,-0.001100876,0.000488276,0.000000000,0.000000000,0.000000000,0.000000000,0.016481614,0.010112692,0.073693839,0.035361176,0.014068000,-0.000086657,0.009367976,0.003876726,-0.000899565,-0.281923609,0.160142076,2.184981638,-0.002433148,-0.001444154,0.019062874,0.999813229,0.000000000,0.000000000,0.000000000,0.000000000,0.000000000,0.000000000,2.185447941,0.000000000,4.154252052
1772680670.536086321,0.016117000,0.009955000,0.073692000,-0.010887940,0.016420000,0.025389140,0.999483480,-0.020944000,0.033382000,0.050444000,-0.000279848,0.000157810,0.000654759,-0.000034884,-0.021491058,-0.003792752,0.013075664,-0.002008427,0.999585804,0.001716426,-0.000300134,-0.000748988,0.000000000,0.000000000,0.000000000,0.000000000,0.016472558,0.010107291,0.073693657,0.035193006,0.014064787,-0.000124400,0.010141992,0.003942853,0.000063564,-0.281821162,0.159892593,2.183287580,-0.002432317,-0.001441924,0.019048099,0.999813484,0.000000000,0.000000000,0.000000000,0.000000000,0.000000000,0.000000000,2.183882286,0.000000000,4.154252052
1772680670.546088696,0.016116000,0.009961000,0.073704000,-0.010944950,0.016398170,0.025301150,0.999485450,-0.021062000,0.033339000,0.050266000,-0.000148178,0.000386893,0.000258913,-0.003784459,-0.013274586,-0.013073404,0.015257596,-0.001975497,1.001084266,0.000041538,0.002202695,0.000888929,0.000000000,0.000000000,0.000000000,0.000000000,0.016467163,0.010104265,0.073686936,0.035079434,0.013981354,-0.000227775,0.012333224,0.003476249,0.000715383,-0.282658599,0.159343263,2.182082746,-0.002439730,-0.001437245,0.019037589,0.999813719,0.000000000,0.000000000,0.000000000,0.000000000,0.000000000,0.000000000,2.182476351,0.000000000,4.154252052
1772680670.556091070,0.016110000,0.009980000,0.073703000,-0.010936860,0.016121980,0.025125290,0.999494470,-0.021065000,0.032783000,0.049920000,-0.000121455,0.000467488,-0.000255709,-0.004988772,-0.002479634,-0.015504848,0.015354678,-0.002477984,1.001183348,0.002632190,0.000947234,-0.001516998,0.000000000,0.000000000,0.000000000,0.000000000,0.016461188,0.010103893,0.073686069,0.035183881,0.013980489,-0.000128408,0.012416367,0.002683834,0.001443167,-0.282827485,0.159522821,2.179611356,-0.002441205,-0.001438787,0.019016021,0.999814074,0.000000000,0.000000000,0.000000000,0.000000000,0.000000000,0.000000000,2.180830582,0.000000000,4.154252052
1772680670.566093922,0.016109000,0.009972000,0.073712000,-0.010909830,0.016138900,0.025116320,0.999494710,-0.021011000,0.032815000,0.049903000,-0.000008526,0.000238133,-0.000587176,0.000716148,0.003330930,-0.012433162,0.012580753,-0.001080233,1.000187558,0.002379540,-0.000825392,-0.002685574,0.000000000,0.000000000,0.000000000,0.000000000,0.016460840,0.010097762,0.073689934,0.035403666,0.013859503,0.000018865,0.009296472,0.004786664,0.000736553,-0.282486198,0.159956159,2.175546982,-0.002438206,-0.001442425,0.018980554,0.999814680,0.000000000,0.000000000,0.000000000,0.000000000,0.000000000,0.000000000,2.176964813,0.000000000,4.154252052
1772680670.576096296,0.016111000,0.009971000,0.073689000,-0.010958060,0.016343030,0.025098400,0.999491320,-0.021098000,0.033226000,0.049861000,0.000036122,-0.000186941,-0.000325991,0.002678867,0.009046905,-0.012791451,0.013001759,-0.001625111,0.999959772,0.003363640,-0.000575831,-0.001706964,0.000000000,0.000000000,0.000000000,0.000000000,0.016460408,0.010098358,0.073697480,0.035373045,0.013843452,0.000129865,0.010400577,0.004497886,0.000013761,-0.280848375,0.159137509,2.172051682,-0.002424096,-0.001434937,0.018950097,0.999815356,0.000000000,0.000000000,0.000000000,0.000000000,0.000000000,0.000000000,2.173057964,0.000000000,4.154252052
1772680670.586099148,0.016113000,0.009983000,0.073667000,-0.010965110,0.016391200,0.025010560,0.999492650,-0.021112000,0.033320000,0.049684000,-0.000114406,-0.001035885,0.000810414,-0.015004579,0.032940423,-0.015185173,0.013421802,-0.002420907,0.999522578,0.001715990,-0.002067784,-0.002487159,0.000000000,0.000000000,0.000000000,0.000000000,0.016457036,0.010106817,0.073701743,0.035289322,0.013942033,0.000172675,0.010103827,0.002973166,-0.000235340,-0.280256741,0.160307080,2.169218774,-0.002418776,-0.001444984,0.018925362,0.999815854,0.000000000,0.000000000,0.000000000,0.000000000,0.000000000,0.000000000,2.170045237,0.000000000,4.154252052
1772680670.596101284,0.016114000,0.009966000,0.073685000,-0.010869070,0.016442310,0.025040640,0.999492110,-0.020917000,0.033418000,0.049747000,0.000571154,-0.000231530,0.000101588,0.007411208,-0.005005620,-0.004953464,0.013750537,-0.002302640,0.999349878,0.000726201,-0.000544835,-0.001356658,0.000000000,0.000000000,0.000000000,0.000000000,0.016455310,0.010107422,0.073705185,0.035293215,0.013859435,0.000163759,0.010681125,0.003059455,-0.000910869,-0.279420600,0.160958404,2.165722813,-0.002411417,-0.001450455,0.018894854,0.999816422,0.000000000,0.000000000,0.000000000,0.000000000,0.000000000,0.000000000,2.166780342,0.000000000,4.154252052
1772680670.606103897,0.016118000,0.009950000,0.073712000,-0.010860840,0.016281830,0.024886170,0.999498690,-0.020913000,0.033094000,0.049441000,0.000812317,0.000697834,-0.000636368,0.040470566,-0.051998471,0.006970011,0.013562916,-0.002692940,0.999837273,-0.001995195,0.000985139,0.001080574,0.000000000,0.000000000,0.000000000,0.000000000,0.016455300,0.010107718,0.073696894,0.035296618,0.013805453,0.000037259,0.010710480,0.002567883,0.000013885,-0.278917021,0.161484045,2.163219650,-0.002406968,-0.001454905,0.018873009,0.999816860,0.000000000,0.000000000,0.000000000,0.000000000,0.000000000,0.000000000,2.163950680,0.000000000,4.154252052
1772680670.616106510,0.016117000,0.009953000,0.073720000,-0.010894100,0.016384890,0.024896910,0.999496370,-0.020975000,0.033302000,0.049459000,0.000518253,0.001122461,-0.001000831,0.063116519,-0.078292226,0.017803401,0.013071816,-0.002453983,0.999893351,-0.003015185,0.002207524,0.002120019,0.000000000,0.000000000,0.000000000,0.000000000,0.016456229,0.010111664,0.073682672,0.035340895,0.013710015,-0.000051545,0.009915012,0.002386595,-0.000094290,-0.280177096,0.160200825,2.161502733,-0.002418195,-0.001443880,0.018858041,0.999817148,0.000000000,0.000000000,0.000000000,0.000000000,0.000000000,0.000000000,2.161994971,0.000000000,4.154252052
1772680670.626108885,0.016121000,0.009966000,0.073709000,-0.010873710,0.016222400,0.024951600,0.999497880,-0.020940000,0.032977000,0.049573000,0.000053387,0.001139085,-0.001289379,0.063777870,-0.073879783,0.024587887,0.013369297,-0.001144253,1.000422897,0.000183574,0.001246650,0.000323490,0.000000000,0.000000000,0.000000000,0.000000000,0.016457634,0.010104053,0.073686001,0.035322851,0.013570016,-0.000031115,0.010880195,0.003037471,0.000706177,-0.279532131,0.158332569,2.160361454,-0.002412890,-0.001427450,0.018848132,0.999817401,0.000000000,0.000000000,0.000000000,0.000000000,0.000000000,0.000000000,2.160679941,0.000000000,4.154252052
1772680670.636111498,0.016172000,0.010048000,0.073584000,-0.009193200,0.014272480,0.025511040,0.999530370,-0.017658000,0.029005000,0.050779000,-0.000169773,0.000481315,-0.001048255,0.045007051,-0.044125944,0.021108913,0.013312780,0.000107694,0.999783480,-0.002109322,0.001472238,-0.001356574,0.000000000,0.000000000,0.000000000,0.000000000,0.016460008,0.010093250,0.073700564,0.035340723,0.013503325,0.000077628,0.010184110,0.005838360,-0.000719312,-0.280185088,0.157075142,2.158254701,-0.002418820,-0.001416541,0.018829770,0.999817701,0.000000000,0.000000000,0.000000000,0.000000000,0.000000000,0.000000000,2.158943363,0.000000000,4.154252052
1772680670.646114349,0.016115000,0.009994000,0.073661000,-0.009601490,0.015114100,0.025357250,0.999518080,-0.018437000,0.030705000,0.050445000,-0.000422336,-0.000577757,0.000233822,0.006809519,0.008136694,0.007032292,0.013336436,-0.000251738,0.999892772,-0.000704496,0.000421898,-0.001021883,0.000000000,0.000000000,0.000000000,0.000000000,0.016460975,0.010090151,0.073709736,0.035368455,0.013604026,0.000126942,0.010153373,0.005160622,-0.000021084,-0.281059657,0.155191150,2.156497020,-0.002426782,-0.001400210,0.018814464,0.999818017,0.000000000,0.000000000,0.000000000,0.000000000,0.000000000,0.000000000,2.157095598,0.000000000,4.154252052
1772680670.656116486,0.016101000,0.009977000,0.073681000,-0.009988780,0.015473700,0.025262870,0.999511170,-0.019197000,0.031442000,0.050238000,-0.000631183,-0.001390113,0.001940312,-0.050013197,0.067387847,-0.022297208,0.013550570,-0.000726962,1.000743968,0.000065253,-0.001820067,0.001770359,0.000000000,0.000000000,0.000000000,0.000000000,0.016468106,0.010102691,0.073698593,0.035397103,0.013817941,0.000002238,0.010382233,0.004959044,0.000992390,-0.281368336,0.156276611,2.154405157,-0.002429323,-0.001409687,0.018796185,0.999818329,0.000000000,0.000000000,0.000000000,0.000000000,0.000000000,0.000000000,2.157836558,0.000000000,4.154252052
1772680670.666118622,0.016114000,0.009958000,0.073693000,-0.010350990,0.015889860,0.025234240,0.999501680,-0.019901000,0.032292000,0.050162000,-0.000070069,-0.001676311,0.001859252,-0.070793725,0.077815507,-0.025526397,0.013962451,-0.001054462,1.000885782,0.001376995,0.001101922,0.005774710,0.000000000,0.000000000,0.000000000,0.000000000,0.016486332,0.010138823,0.073647367,0.035461173,0.014033588,-0.000161450,0.011591997,0.003927244,0.000366603,-0.281997350,0.157875654,2.159408820,-0.002434486,-0.001423848,0.018839798,0.999817704,0.000000000,0.000000000,0.000000000,0.000000000,0.000000000,0.000000000,2.160302985,0.000000000,4.154252052
1772680670.676120281,0.016129000,0.009938000,0.073709000,-0.010668650,0.016269720,0.025018430,0.999497650,-0.020525000,0.033063000,0.049712000,0.000475528,-0.000998073,0.000734150,-0.058478368,0.053010747,-0.013405479,0.014044501,-0.001221292,1.001349329,0.000958521,0.001121093,0.003296671,0.000000000,0.000000000,0.000000000,0.000000000,0.016471844,0.010133113,0.073656320,0.035476474,0.014057811,-0.000056369,0.010821520,0.003798589,0.002114507,-0.280492203,0.158431038,2.160548608,-0.002421248,-0.001428471,0.018849752,0.999817537,0.000000000,0.000000000,0.000000000,0.000000000,0.000000000,0.000000000,2.159909715,0.000000000,4.154252052
1772680670.686123610,0.016117000,0.009955000,0.073724000,-0.011074450,0.016575450,0.024829160,0.999492930,-0.021328000,0.033690000,0.049314000,0.000680530,0.000345683,-0.001125180,-0.012652619,-0.005749503,0.007777053,0.014059552,-0.001493568,1.001708948,0.000475533,-0.001345883,0.003051866,0.000000000,0.000000000,0.000000000,0.000000000,0.016460827,0.010123157,0.073668930,0.035501410,0.014024807,0.000077306,0.011814442,0.004471009,0.001570048,-0.280554251,0.156712198,2.158165594,-0.002422102,-0.001413434,0.018828996,0.999817794,0.000000000,0.000000000,0.000000000,0.000000000,0.000000000,0.000000000,2.158562882,0.000000000,4.154252052
1772680670.696125269,0.016125000,0.009960000,0.073706000,-0.011162660,0.016434860,0.024841550,0.999493970,-0.021511000,0.033414000,0.049339000,-0.000202322,0.000416005,-0.000874831,0.004544106,-0.004982256,0.017298666,0.012474226,-0.002318476,1.001280705,-0.001152813,-0.002443470,0.001201957,0.000000000,0.000000000,0.000000000,0.000000000,0.016461652,0.010108254,0.073682695,0.035624887,0.013979221,0.000306428,0.009402475,0.002840932,0.001857565,-0.280593187,0.156332761,2.157639027,-0.002422510,-0.001410118,0.018824410,0.999818042,0.000000000,0.000000000,0.000000000,0.000000000,0.000000000,0.000000000,2.156920621,0.000000000,4.154252052
1772680670.706127882,0.016154000,0.009956000,0.073633000,-0.010227600,0.015418140,0.025571480,0.999501760,-0.019667000,0.031349000,0.050849000,-0.000573038,0.000550802,-0.000694474,0.011097742,0.001019096,0.017270079,0.013078598,-0.002595327,0.998974708,0.000020497,0.001764329,0.003811057,0.000000000,0.000000000,0.000000000,0.000000000,0.016468496,0.010091729,0.073700834,0.035662002,0.013881147,0.000539338,0.010576924,0.002352363,-0.001656600,-0.280583356,0.156952943,2.156151544,-0.002422341,-0.001415496,0.018811416,0.999818184,0.000000000,0.000000000,0.000000000,0.000000000,0.000000000,0.000000000,2.155870748,0.000000000,4.154252052
1772680670.716129541,0.016109000,0.009971000,0.073676000,-0.010618020,0.016168060,0.025352670,0.999491420,-0.020418000,0.032864000,0.050385000,-0.000653400,0.000490793,-0.000154412,0.006876524,0.010215287,0.009288825,0.015280463,-0.001758606,0.998573551,0.000811651,0.000990622,0.000691843,0.000000000,0.000000000,0.000000000,0.000000000,0.016467490,0.010091560,0.073713373,0.035654606,0.013761536,0.000495643,0.012799343,0.003209079,-0.001659153,-0.280617750,0.156181237,2.155807481,-0.002422772,-0.001408761,0.018808430,0.999818459,0.000000000,0.000000000,0.000000000,0.000000000,0.000000000,0.000000000,2.154536790,0.000000000,4.154252052
1772680670.726131916,0.016090000,0.009963000,0.073696000,-0.010913650,0.016497860,0.025186850,0.999487040,-0.020998000,0.033535000,0.050037000,-0.000437678,0.000172783,0.000553210,-0.004918097,0.022006506,-0.007011228,0.013930185,-0.001113792,0.999413120,0.002375153,0.001793775,0.001037792,0.000000000,0.000000000,0.000000000,0.000000000,0.016474993,0.010092496,0.073701169,0.035900719,0.013728788,0.000272436,0.011591723,0.004474338,-0.001315466,-0.280341258,0.156169035,2.153782428,-0.002420387,-0.001408567,0.018790768,0.999818652,0.000000000,0.000000000,0.000000000,0.000000000,0.000000000,0.000000000,2.156666148,0.000000000,4.154252052
1772680670.736134291,0.016108000,0.009966000,0.073699000,-0.010813540,0.016744690,0.025203700,0.999483590,-0.020785000,0.034024000,0.050069000,-0.000426530,0.000203526,0.001050877,-0.020294462,0.033516198,-0.020675710,0.012682275,-0.000776680,1.000768958,0.004720507,0.001783552,0.000423875,0.000000000,0.000000000,0.000000000,0.000000000,0.016484047,0.010093748,0.073673224,0.036070992,0.013763833,0.000014571,0.008979191,0.004614937,0.001152971,-0.280399643,0.156966101,2.158385272,-0.002420708,-0.001415628,0.018830909,0.999818139,0.000000000,0.000000000,0.000000000,0.000000000,0.000000000,0.000000000,2.157672828,0.000000000,4.154252052
1772680670.746137142,0.016117000,0.009977000,0.073689000,-0.010911910,0.016526660,0.025025910,0.999490620,-0.020999000,0.033589000,0.049714000,-0.000382621,0.000357821,0.001045303,-0.034767727,0.038803784,-0.026343204,0.012868980,-0.000879182,1.000852370,0.003887638,-0.001297723,0.001932199,0.000000000,0.000000000,0.000000000,0.000000000,0.016470767,0.010099238,0.073677104,0.035991849,0.013857152,0.000074152,0.010845737,0.003360335,0.001095303,-0.279303644,0.155671041,2.157318797,-0.002411372,-0.001404126,0.018821642,0.999818220,0.000000000,0.000000000,0.000000000,0.000000000,0.000000000,0.000000000,2.156102219,0.000000000,4.154252052
1772680670.756139517,0.016104000,0.009975000,0.073702000,-0.010960980,0.016419770,0.025025460,0.999491860,-0.021102000,0.033378000,0.049714000,0.000459700,-0.000116173,-0.000443756,-0.005885660,-0.004800937,0.004381524,0.013065740,-0.001393156,1.000442308,0.001036234,-0.002770953,0.004810597,0.000000000,0.000000000,0.000000000,0.000000000,0.016457550,0.010099536,0.073687642,0.035918116,0.013907970,0.000216869,0.009738242,0.004146318,0.000258134,-0.277811942,0.154990532,2.155536643,-0.002398490,-0.001397906,0.018806126,0.999818403,0.000000000,0.000000000,0.000000000,0.000000000,0.000000000,0.000000000,2.154986320,0.000000000,4.154252052
1772680670.766141891,0.016110000,0.009966000,0.073701000,-0.011021280,0.016635520,0.025039800,0.999487270,-0.021212000,0.033812000,0.049736000,0.000325603,-0.000221762,-0.000615957,0.010980848,-0.018965309,0.021954000,0.013242798,-0.002103897,0.999206211,0.001161281,0.003459006,0.004338822,0.000000000,0.000000000,0.000000000,0.000000000,0.016459664,0.010102715,0.073693535,0.035940799,0.013927964,0.000290286,0.010470407,0.003196329,-0.000794677,-0.276834689,0.156951972,2.154776014,-0.002389651,-0.001414844,0.018799462,0.999818317,0.000000000,0.000000000,0.000000000,0.000000000,0.000000000,0.000000000,2.155269205,0.000000000,4.154252052
1772680670.776144266,0.016097000,0.009976000,0.073701000,-0.011119800,0.016858920,0.025104270,0.999480820,-0.021396000,0.034265000,0.049857000,0.000358287,-0.000424375,-0.000628910,0.025235637,-0.028034163,0.031123314,0.013631537,-0.002040586,0.999565226,0.002555077,0.003326243,0.002838550,0.000000000,0.000000000,0.000000000,0.000000000,0.016462283,0.010107802,0.073694129,0.035959835,0.013916388,0.000236297,0.011201331,0.002803849,-0.000839613,-0.276538888,0.156970753,2.155557985,-0.002387057,-0.001414975,0.018806287,0.999818565,0.000000000,0.000000000,0.000000000,0.000000000,0.000000000,0.000000000,2.154381841,0.000000000,4.154252052
1772680670.786146879,0.016103000,0.009974000,0.073696000,-0.011170210,0.016788460,0.025211730,0.999478740,-0.021496000,0.034129000,0.050072000,0.000402663,-0.000356248,-0.000417422,0.031223979,-0.023545070,0.031302035,0.013732469,-0.001676764,1.000455296,0.000583508,-0.000610852,0.003624407,0.000000000,0.000000000,0.000000000,0.000000000,0.016459222,0.010108903,0.073698895,0.036007561,0.013885565,0.000174226,0.010879996,0.003770952,0.000376107,-0.276167454,0.154620311,2.153936224,-0.002384222,-0.001394373,0.018792192,0.999818797,0.000000000,0.000000000,0.000000000,0.000000000,0.000000000,0.000000000,2.153140529,0.000000000,4.154252052
1772680670.796149254,0.016149000,0.009939000,0.073644000,-0.010199190,0.015683970,0.025872690,0.999490170,-0.019588000,0.031885000,0.051448000,-0.000142740,0.000066146,0.000168045,0.008851879,0.002475962,0.010427618,0.013630775,-0.000647375,1.000065704,-0.000404761,-0.001398389,0.002277888,0.000000000,0.000000000,0.000000000,0.000000000,0.016459296,0.010106543,0.073701142,0.036105085,0.013857224,0.000223345,0.010848576,0.003966779,0.000187417,-0.274392120,0.153914568,2.152844849,-0.002368861,-0.001387902,0.018782709,0.999819094,0.000000000,0.000000000,0.000000000,0.000000000,0.000000000,0.000000000,2.151739236,0.000000000,4.154252052
1772680670.806151628,0.016112000,0.009970000,0.073693000,-0.010405170,0.016178350,0.025583610,0.999487600,-0.019984000,0.032878000,0.050854000,-0.000078730,-0.000080847,0.000028043,0.000818363,0.012065052,0.002612593,0.014176672,0.000149452,0.999563147,0.001179202,-0.001679174,0.001960034,0.000000000,0.000000000,0.000000000,0.000000000,0.016455076,0.010109072,0.073701412,0.036153274,0.013938977,0.000229778,0.011132813,0.005289317,-0.000526159,-0.273715166,0.153984080,2.150800788,-0.002362968,-0.001388355,0.018764880,0.999819527,0.000000000,0.000000000,0.000000000,0.000000000,0.000000000,0.000000000,2.149107282,0.000000000,4.154252052
1772680670.816154003,0.016117000,0.009964000,0.073692000,-0.010634070,0.016428630,0.025431820,0.999484990,-0.020434000,0.033387000,0.050538000,0.000052513,-0.000067913,-0.000165734,0.000139781,0.008416736,-0.002940549,0.014646859,-0.000313153,0.999662147,-0.001911883,-0.001345172,0.004554020,0.000000000,0.000000000,0.000000000,0.000000000,0.016458856,0.010107652,0.073696009,0.036238423,0.014073286,0.000176592,0.012015170,0.005670299,-0.000627745,-0.272117590,0.154052628,2.148538612,-0.002349045,-0.001388645,0.018745158,0.999819830,0.000000000,0.000000000,0.000000000,0.000000000,0.000000000,0.000000000,2.150383602,0.000000000,4.154252052
1772680670.826157093,0.016097000,0.009969000,0.073702000,-0.010978900,0.016808300,0.025329770,0.999477540,-0.021109000,0.034162000,0.050315000,-0.000015575,-0.000029946,0.000060961,-0.003859560,0.005040951,-0.004706487,0.014223662,-0.001720327,0.999884626,-0.001980621,-0.000895359,0.004204849,0.000000000,0.000000000,0.000000000,0.000000000,0.016478337,0.010095251,0.073674489,0.036461942,0.014181267,0.000013711,0.011544488,0.003364408,0.000371518,-0.271128200,0.155888757,2.151747004,-0.002340073,-0.001404569,0.018773127,0.999819290,0.000000000,0.000000000,0.000000000,0.000000000,0.000000000,0.000000000,2.152421940,0.000000000,4.154252052
1772680670.836159229,0.016097000,0.009970000,0.073696000,-0.011132450,0.017032670,0.025229580,0.999474570,-0.021408000,0.034616000,0.050104000,0.000097296,0.000202497,-0.000048279,0.000147102,-0.019128427,-0.004949306,0.013895300,-0.002198320,0.999660013,-0.000673983,-0.002133858,0.000779653,0.000000000,0.000000000,0.000000000,0.000000000,0.016473779,0.010101301,0.073683984,0.036567320,0.014218255,0.000053888,0.010897434,0.002380623,-0.000789795,-0.270639745,0.156544091,2.152624588,-0.002335693,-0.001410225,0.018780777,0.999819222,0.000000000,0.000000000,0.000000000,0.000000000,0.000000000,0.000000000,2.150817863,0.000000000,4.154252052
1772680670.846161842,0.016154000,0.009942000,0.073638000,-0.010203360,0.015869090,0.025775880,0.999489700,-0.019590000,0.032254000,0.051251000,0.000367745,0.000033558,-0.000372950,0.017103807,-0.050558083,0.003257922,0.013984430,-0.000453182,1.000559889,0.001674145,-0.001250281,0.001915195,0.000000000,0.000000000,0.000000000,0.000000000,0.016471858,0.010102611,0.073689365,0.036636337,0.014125165,0.000043088,0.011104317,0.005262113,0.000515190,-0.271430453,0.157205724,2.149931983,-0.002342516,-0.001416072,0.018757259,0.999819460,0.000000000,0.000000000,0.000000000,0.000000000,0.000000000,0.000000000,2.149241084,0.000000000,4.154252052
1772680670.856163979,0.016119000,0.009971000,0.073684000,-0.010337500,0.015705750,0.025519760,0.999497480,-0.019874000,0.031929000,0.050737000,-0.000218829,0.000419248,0.000136467,0.007199855,-0.037141385,-0.008817380,0.014135209,-0.000471065,1.000263289,0.000204504,-0.000153120,0.001041503,0.000000000,0.000000000,0.000000000,0.000000000,0.016463828,0.010105203,0.073695543,0.036677678,0.014177442,0.000081284,0.011379703,0.003669093,0.000664602,-0.270760397,0.157764017,2.149083077,-0.002336589,-0.001420816,0.018749850,0.999819589,0.000000000,0.000000000,0.000000000,0.000000000,0.000000000,0.000000000,2.148522743,0.000000000,4.154252052
