t,px,py,pz,qx,qy,qz,qw,roll,pitch,yaw,vx,vy,vz,wx_vicon,wy_vicon,wz_vicon,imu_acc_x,imu_acc_y,imu_acc_z,imu_gyro_x,imu_gyro_y,imu_gyro_z,motor_motor_m1,motor_motor_m2,motor_motor_m3,motor_motor_m4,est_stateEstimate_x,est_stateEstimate_y,est_stateEstimate_z,est_stateEstimate_vx,est_stateEstimate_vy,est_stateEstimate_vz,est_stateEstimate_ax,est_stateEstimate_ay,est_stateEstimate_az,att_stateEstimate_roll,att_stateEstimate_pitch,att_stateEstimate_yaw,att_stateEstimate_qx,att_stateEstimate_qy,att_stateEstimate_qz,att_stateEstimate_qw,sp_ctrltarget_x,sp_ctrltarget_y,sp_ctrltarget_z,sp_ctrltarget_yaw,pid_controller_roll,pid_controller_pitch,pid_controller_yaw,pid_controller_cmd_thrust,pwr_pm_vbat
1772660536.302306890,0.013912000,0.008874000,0.055760000,-0.001152030,0.002452920,-0.006998670,0.999971840,-0.002338000,0.004890000,-0.014003000,-0.000931139,-0.000199573,0.000105944,-0.009461978,0.062573048,-0.005732343,0.008933944,-0.001282386,0.998200843,0.002284529,-0.003876146,0.002664626,0.000000000,0.000000000,0.000000000,0.000000000,0.014152511,0.008881882,0.055754942,0.013862584,0.000398639,-0.000264602,0.002843612,0.001152573,-0.001285158,-0.117451302,0.356439088,-0.567690201,-0.001040347,-0.003105399,-0.004957168,0.999981403,0.000000000,0.000000000,0.000000000,0.000000000,0.000000000,0.000000000,-0.567330782,0.000000000,4.168994078
1772660536.312306643,0.013900000,0.008875000,0.055759000,-0.001128170,0.002767580,-0.006976890,0.999971190,-0.002295000,0.005519000,-0.013960000,-0.000167386,-0.000243396,-0.000101865,-0.004144445,0.029548828,-0.005199899,0.009091412,-0.003143347,0.999247235,0.001891479,-0.001434978,-0.000672559,0.000000000,0.000000000,0.000000000,0.000000000,0.014172660,0.008882109,0.055751927,0.013821073,0.000492297,-0.000450965,0.002475809,-0.000584000,-0.000819229,-0.115960232,0.357621404,-0.566395135,-0.001027351,-0.003115792,-0.004945837,0.999981403,0.000000000,0.000000000,0.000000000,0.000000000,0.000000000,0.000000000,-0.566282984,0.000000000,4.168395683
1772660536.322306871,0.013911000,0.008869000,0.055757000,-0.001161340,0.002862510,-0.007051900,0.999970360,-0.002363000,0.005709000,-0.014111000,0.000219561,-0.000180692,-0.000211072,-0.002571939,0.008434832,-0.003895714,0.011078400,-0.005196116,0.999882521,-0.005137676,0.002024962,-0.002092651,0.000000000,0.000000000,0.000000000,0.000000000,0.014171295,0.008882645,0.055750684,0.013741047,0.000323634,-0.000517549,0.004631910,-0.002770754,-0.000216678,-0.115873578,0.357333355,-0.565727049,-0.001026564,-0.003113288,-0.004940002,0.999981461,0.000000000,0.000000000,0.000000000,0.000000000,0.000000000,0.000000000,-0.565534956,0.000000000,4.167797261
1772660536.332307100,0.013907000,0.008870000,0.055756000,-0.001245740,0.002770310,-0.007086910,0.999970270,-0.002531000,0.005523000,-0.014181000,0.000322708,-0.000054817,-0.000241259,-0.003546321,-0.003353868,-0.002168805,0.009331012,-0.002924829,1.000122001,-0.001823567,0.001344161,-0.001099940,0.000000000,0.000000000,0.000000000,0.000000000,0.014174800,0.008876459,0.055748561,0.013868246,-0.000031084,-0.000512052,0.003434810,-0.001200722,0.000111979,-0.116160906,0.356421652,-0.565425668,-0.001029024,-0.003105323,-0.004937372,0.999981473,0.000000000,0.000000000,0.000000000,0.000000000,0.000000000,0.000000000,-0.565473321,0.000000000,4.167198838
1772660536.342307806,0.013909000,0.008868000,0.055759000,-0.001227700,0.002662960,-0.007053100,0.999970830,-0.002493000,0.005308000,-0.014113000,0.000235062,0.000090870,-0.000212005,-0.005875121,-0.008402530,-0.000362226,0.009333655,-0.001957777,0.999859240,-0.001177410,0.000877699,-0.001916056,0.000000000,0.000000000,0.000000000,0.000000000,0.014174773,0.008872387,0.055747691,0.013800369,-0.000125762,-0.000480232,0.003222792,0.000096323,-0.000631951,-0.116570730,0.354875444,-0.565680211,-0.001032541,-0.003091810,-0.004939591,0.999981534,0.000000000,0.000000000,0.000000000,0.000000000,0.000000000,0.000000000,-0.565697965,0.000000000,4.166600386
1772660536.352308273,0.013917000,0.008870000,0.055744000,-0.001243540,0.002780520,-0.007009130,0.999970800,-0.002526000,0.005543000,-0.014025000,0.000049631,0.000213015,-0.000142891,-0.008364699,-0.009295733,0.001178070,0.010028534,-0.000729220,0.999169083,-0.002943039,-0.002517880,-0.001868292,0.000000000,0.000000000,0.000000000,0.000000000,0.014175356,0.008869147,0.055748774,0.013740344,-0.000134510,-0.000481359,0.003868800,0.001016614,-0.000566589,-0.116284520,0.354069448,-0.565552731,-0.001030005,-0.003084790,-0.004938464,0.999981568,0.000000000,0.000000000,0.000000000,0.000000000,0.000000000,0.000000000,-0.565475783,0.000000000,4.166001949
1772660536.362307549,0.013915000,0.008874000,0.055752000,-0.001276910,0.002673920,-0.007063110,0.999970670,-0.002592000,0.005330000,-0.014133000,-0.000103535,0.000191104,-0.000083081,-0.007988219,-0.013843190,0.001730013,0.010571568,-0.001831459,1.000116125,-0.002781974,0.001940669,-0.000515764,0.000000000,0.000000000,0.000000000,0.000000000,0.014179159,0.008869161,0.055741166,0.013759042,0.000002305,-0.000558077,0.004017166,0.000388898,0.000394670,-0.116390479,0.354400222,-0.565297568,-0.001030937,-0.003087674,-0.004936243,0.999981468,0.000000000,0.000000000,0.000000000,0.000000000,0.000000000,0.000000000,-0.565349402,0.000000000,4.165403584
1772660536.372307539,0.013904000,0.008880000,0.055750000,-0.001310390,0.002874150,-0.007055140,0.999970120,-0.002661000,0.005730000,-0.014118000,0.000002817,0.000018279,0.000014685,-0.006253068,-0.012753980,0.000302432,0.009567521,-0.002151422,0.998444247,-0.002625144,-0.001134658,-0.000845327,0.000000000,0.000000000,0.000000000,0.000000000,0.014180468,0.008871608,0.055741583,0.013804436,0.000032210,-0.000482507,0.003469962,-0.000126952,-0.001084891,-0.117421844,0.355523876,-0.565213884,-0.001039983,-0.003097436,-0.004935550,0.999981524,0.000000000,0.000000000,0.000000000,0.000000000,0.000000000,0.000000000,-0.565100687,0.000000000,4.164811860
1772660536.382307053,0.013907000,0.008874000,0.055756000,-0.001444200,0.002428870,-0.007024260,0.999971340,-0.002922000,0.004837000,-0.014056000,-0.000059091,-0.000015870,0.000174029,-0.001522576,-0.012479379,0.000559921,0.009960612,-0.001497332,0.999601554,-0.000860759,-0.000314597,-0.005141960,0.000000000,0.000000000,0.000000000,0.000000000,0.014179740,0.008872737,0.055741481,0.013798912,0.000038640,-0.000502458,0.003097867,-0.000057437,-0.002435798,-0.118058752,0.355066869,-0.564453448,-0.001045501,-0.003093427,-0.004928927,0.999981537,0.000000000,0.000000000,0.000000000,0.000000000,0.000000000,0.000000000,-0.564426465,0.000000000,4.165200745
1772660536.392307281,0.013914000,0.008875000,0.055748000,-0.001378510,0.002487820,-0.007023270,0.999971290,-0.002792000,0.004956000,-0.014054000,0.000048718,-0.000138131,0.000235393,0.003470971,-0.004482352,0.001325442,0.009820569,-0.001616884,0.999885166,-0.000629706,0.000638886,-0.004296556,0.000000000,0.000000000,0.000000000,0.000000000,0.014178732,0.008873664,0.055741263,0.013785952,0.000042258,-0.000536905,0.003192818,-0.000167762,-0.001709929,-0.118091401,0.355164075,-0.564235652,-0.001045784,-0.003094276,-0.004927028,0.999981550,0.000000000,0.000000000,0.000000000,0.000000000,0.000000000,0.000000000,-0.564207353,0.000000000,4.165589657
1772660536.402307510,0.013911000,0.008869000,0.055755000,-0.001332940,0.002387080,-0.007055780,0.999971370,-0.002700000,0.004755000,-0.014118000,0.000154954,-0.000114860,0.000130303,0.006678325,0.004309251,0.001321548,0.009680527,-0.001736436,1.000168779,-0.000398654,0.001592370,-0.003451151,0.000000000,0.000000000,0.000000000,0.000000000,0.014177725,0.008874592,0.055741045,0.013772992,0.000045876,-0.000571351,0.003287768,-0.000278087,-0.000984061,-0.118124050,0.355261280,-0.564017857,-0.001046068,-0.003095125,-0.004925129,0.999981564,0.000000000,0.000000000,0.000000000,0.000000000,0.000000000,0.000000000,-0.563988241,0.000000000,4.165978569
1772660536.412307501,0.013914000,0.008871000,0.055758000,-0.001267380,0.002683280,-0.007016660,0.999970980,-0.002572000,0.005349000,-0.014040000,0.000013559,-0.000006352,0.000137821,0.006207369,0.013781777,-0.001062780,0.009540487,-0.001855985,1.000452385,-0.000167607,0.002545831,-0.002605767,0.000000000,0.000000000,0.000000000,0.000000000,0.014176717,0.008875519,0.055740827,0.013760032,0.000049494,-0.000605797,0.003382717,-0.000388409,-0.000258210,-0.118156698,0.355358483,-0.563800067,-0.001046351,-0.003095974,-0.004923231,0.999981577,0.000000000,0.000000000,0.000000000,0.000000000,0.000000000,0.000000000,-0.563769134,0.000000000,4.166367473
1772660536.422307253,0.013908000,0.008877000,0.055760000,-0.001216390,0.002645890,-0.007002110,0.999971240,-0.002470000,0.005275000,-0.014011000,-0.000247067,0.000146620,-0.000010276,0.002990420,0.017623029,-0.002733957,0.009400451,-0.001975531,1.000735985,0.000063434,0.003499269,-0.001760403,0.000000000,0.000000000,0.000000000,0.000000000,0.014175710,0.008876439,0.055740615,0.013747064,0.000053124,-0.000639899,0.003477663,-0.000498729,0.000467624,-0.118189345,0.355455684,-0.563582282,-0.001046634,-0.003096822,-0.004921332,0.999981554,0.000000000,0.000000000,0.000000000,0.000000000,0.000000000,0.000000000,-0.563550032,0.000000000,4.166756366
1772660536.432307243,0.013914000,0.008870000,0.055755000,-0.001300050,0.002788740,-0.007056460,0.999970370,-0.002639000,0.005559000,-0.014120000,-0.000252856,0.000069211,-0.000189996,-0.002509163,0.003883836,-0.003675438,0.009260412,-0.002095080,1.001019591,0.000294481,0.004452730,-0.000915019,0.000000000,0.000000000,0.000000000,0.000000000,0.014174849,0.008876119,0.055741546,0.013732443,0.000058927,-0.000613664,0.003572611,-0.000609051,0.001193475,-0.118221993,0.355552887,-0.563364491,-0.001046917,-0.003097671,-0.004919433,0.999981506,0.000000000,0.000000000,0.000000000,0.000000000,0.000000000,0.000000000,-0.563330925,0.000000000,4.167145269
1772660536.442307472,0.013906000,0.008877000,0.055756000,-0.001289250,0.002646560,-0.007071400,0.999970660,-0.002616000,0.005275000,-0.014150000,-0.000021620,0.000081838,-0.000336247,-0.002191421,-0.004673112,-0.002576501,0.009321485,-0.002004589,1.000858499,0.000093599,0.004691587,-0.000626766,0.000000000,0.000000000,0.000000000,0.000000000,0.014173988,0.008875799,0.055742477,0.013717823,0.000064731,-0.000587429,0.002879882,-0.000235403,0.000589911,-0.118170621,0.355789910,-0.563942941,-0.001046495,-0.003099737,-0.004924482,0.999981474,0.000000000,0.000000000,0.000000000,0.000000000,0.000000000,0.000000000,-0.564230162,0.000000000,4.167534182
1772660536.452307940,0.013901000,0.008876000,0.055751000,-0.001321550,0.002793140,-0.007087460,0.999970110,-0.002683000,0.005567000,-0.014183000,-0.000000058,0.000030051,-0.000150369,-0.002248927,-0.009632737,0.000078979,0.010376299,-0.001435422,0.999457064,-0.001427570,0.001668116,-0.002241545,0.000000000,0.000000000,0.000000000,0.000000000,0.014176001,0.008876238,0.055740137,0.013627111,0.000059894,-0.000507972,0.004209022,0.000165306,0.000081144,-0.117983037,0.355451656,-0.565226601,-0.001044878,-0.003096781,-0.004935676,0.999981582,0.000000000,0.000000000,0.000000000,0.000000000,0.000000000,0.000000000,-0.565137081,0.000000000,4.167923103
1772660536.462307930,0.013905000,0.008876000,0.055746000,-0.001307150,0.002561880,-0.007086960,0.999970750,-0.002651000,0.005105000,-0.014181000,0.000085256,-0.000032712,-0.000033702,-0.000376401,-0.000001529,0.004348106,0.012491180,-0.002583385,1.000277992,-0.001570807,-0.003703250,-0.002640996,0.000000000,0.000000000,0.000000000,0.000000000,0.014175799,0.008873405,0.055742559,0.013709853,0.000075502,-0.000485057,0.005951586,-0.000405494,0.000186040,-0.117896019,0.353350383,-0.564643613,-0.001044012,-0.003078454,-0.004930567,0.999981580,0.000000000,0.000000000,0.000000000,0.000000000,0.000000000,0.000000000,-0.564608435,0.000000000,4.168312006
1772660536.472307682,0.013913000,0.008871000,0.055746000,-0.001300590,0.002575120,-0.007058790,0.999970920,-0.002637000,0.005132000,-0.014125000,0.000128341,-0.000004448,-0.000056138,-0.000761585,0.006943736,0.005267916,0.011020830,-0.003319822,1.000303007,-0.002345665,0.001627927,-0.000341067,0.000000000,0.000000000,0.000000000,0.000000000,0.014178178,0.008872414,0.055745631,0.013913883,0.000002444,-0.000421923,0.005365195,-0.001009580,-0.000145730,-0.118069902,0.352771020,-0.564533500,-0.001045502,-0.003073391,-0.004929606,0.999981528,0.000000000,0.000000000,0.000000000,0.000000000,0.000000000,0.000000000,-0.564592213,0.000000000,4.168700900
1772660536.482307911,0.013915000,0.008879000,0.055755000,-0.001271010,0.002674930,-0.006986260,0.999971210,-0.002579000,0.005332000,-0.013980000,0.000040443,-0.000020280,0.000073543,-0.004299924,0.017114406,0.001257532,0.010430093,-0.003021937,0.998647492,0.003720817,-0.003427490,-0.001585170,0.000000000,0.000000000,0.000000000,0.000000000,0.014178740,0.008873475,0.055748575,0.014014121,-0.000098249,-0.000389583,0.004456935,-0.000741465,-0.001223225,-0.118824035,0.354244476,-0.564788157,-0.001052153,-0.003086215,-0.004931861,0.999981523,0.000000000,0.000000000,0.000000000,0.000000000,0.000000000,0.000000000,-0.564765562,0.000000000,4.169089812
1772660536.492309093,0.013902000,0.008875000,0.055757000,-0.001358660,0.002841490,-0.006982660,0.999970660,-0.002757000,0.005664000,-0.013973000,-0.000235373,0.000051204,0.000156779,-0.003941287,0.018081993,-0.002652256,0.011114000,-0.001470550,0.996416721,-0.001271827,-0.003153767,-0.004817999,0.000000000,0.000000000,0.000000000,0.000000000,0.014181654,0.008871488,0.055748042,0.014088817,-0.000172114,-0.000503274,0.004593210,-0.000198619,-0.001969028,-0.119102728,0.354160200,-0.564691675,-0.001054579,-0.003085468,-0.004931026,0.999981523,0.000000000,0.000000000,0.000000000,0.000000000,0.000000000,0.000000000,-0.564420892,0.000000000,4.169478762
1772660536.502309084,0.013909000,0.008872000,0.055746000,-0.001339030,0.002976990,-0.007022020,0.999970020,-0.002720000,0.005935000,-0.014052000,-0.000326263,0.000112121,0.000156177,-0.003463029,0.014890574,-0.005799849,0.010513550,-0.001275716,0.998605072,0.000100607,0.002071863,-0.001149370,0.000000000,0.000000000,0.000000000,0.000000000,0.014160026,0.008873224,0.055740080,0.013911565,-0.000050759,-0.000936156,0.004334729,0.000225388,-0.001704229,-0.116879350,0.354654335,-0.563735517,-0.001035172,-0.003089884,-0.004922626,0.999981610,0.000000000,0.000000000,0.000000000,0.000000000,0.000000000,0.000000000,-0.563474655,0.000000000,4.169867665
1772660536.512309551,0.013906000,0.008879000,0.055747000,-0.001408900,0.002933170,-0.007107400,0.999969450,-0.002859000,0.005846000,-0.014223000,-0.000166453,0.000146251,0.000030614,-0.000059501,-0.000202454,-0.004943169,0.011307507,-0.000274763,0.998328358,-0.002405073,0.000896141,-0.000062302,0.000000000,0.000000000,0.000000000,0.000000000,0.014145436,0.008875456,0.055730830,0.013785413,0.000112293,-0.001314623,0.004579499,0.000760401,-0.000395941,-0.116668312,0.353537158,-0.563445696,-0.001033275,-0.003080147,-0.004920082,0.999981642,0.000000000,0.000000000,0.000000000,0.000000000,0.000000000,0.000000000,-0.563523052,0.000000000,4.169847362
1772660536.522310495,0.013895000,0.008879000,0.055763000,-0.001377930,0.002969200,-0.007140760,0.999969150,-0.002798000,0.005919000,-0.014290000,0.000094716,0.000046232,0.000020124,0.004672573,-0.006279836,-0.002024770,0.011578756,-0.000239447,0.998862514,-0.000645679,-0.001444388,-0.002595150,0.000000000,0.000000000,0.000000000,0.000000000,0.014167113,0.008877136,0.055726888,0.014010197,0.000271611,-0.001387975,0.004980269,0.002270641,-0.001973939,-0.117399688,0.352346722,-0.563564983,-0.001039609,-0.003069726,-0.004921132,0.999981642,0.000000000,0.000000000,0.000000000,0.000000000,0.000000000,0.000000000,-0.563572667,0.000000000,4.169293232
1772660536.532310724,0.013901000,0.008878000,0.055753000,-0.001294230,0.002840980,-0.007082810,0.999970040,-0.002629000,0.005663000,-0.014173000,0.000247669,0.000080964,-0.000035179,0.006617722,-0.007262256,0.004658526,0.009812120,0.000116621,1.001256760,0.000131670,0.002324906,0.000705742,0.000000000,0.000000000,0.000000000,0.000000000,0.014175392,0.008881117,0.055728155,0.014186359,0.000478453,-0.001439171,0.004996723,0.002006546,0.000770337,-0.118120819,0.351823409,-0.563447570,-0.001045876,-0.003065130,-0.004920122,0.999981679,0.000000000,0.000000000,0.000000000,0.000000000,0.000000000,0.000000000,-0.563426418,0.000000000,4.168739141
1772660536.542311668,0.013911000,0.008882000,0.055754000,-0.001308740,0.002760680,-0.007050330,0.999970480,-0.002656000,0.005503000,-0.014108000,0.000108450,0.000098077,-0.000122145,0.004398205,-0.007007060,0.009625131,0.009797163,-0.000158479,1.001158907,-0.003262326,0.002097469,-0.000377087,0.000000000,0.000000000,0.000000000,0.000000000,0.014178452,0.008883097,0.055726588,0.014217724,0.000676884,-0.001291332,0.002947969,0.002040202,0.001882538,-0.117453662,0.351203963,-0.563255038,-0.001040023,-0.003059754,-0.004918418,0.999981782,0.000000000,0.000000000,0.000000000,0.000000000,0.000000000,0.000000000,-0.563179855,0.000000000,4.168185011
1772660536.552312374,0.013912000,0.008879000,0.055748000,-0.001251040,0.002764280,-0.006977840,0.999971050,-0.002541000,0.005511000,-0.013963000,0.000297067,-0.000048388,-0.000355381,0.002372622,-0.006597702,0.011041424,0.007631775,-0.001783242,1.000275349,-0.000714168,-0.000452368,-0.000791875,0.000000000,0.000000000,0.000000000,0.000000000,0.014180277,0.008886943,0.055725064,0.014164173,0.000833942,-0.001116167,0.002954905,0.000526406,0.000414165,-0.117821599,0.349008981,-0.562249741,-0.001043113,-0.003040593,-0.004909637,0.999981821,0.000000000,0.000000000,0.000000000,0.000000000,0.000000000,0.000000000,-0.562216770,0.000000000,4.167630895
1772660536.562312841,0.013910000,0.008876000,0.055751000,-0.001249380,0.002908710,-0.006982250,0.999970610,-0.002539000,0.005800000,-0.013972000,0.000106197,-0.000029701,-0.000217327,-0.001868724,-0.009772884,0.004929283,0.006688221,-0.001746152,1.000106526,-0.001152175,0.003033988,0.000350163,0.000000000,0.000000000,0.000000000,0.000000000,0.014175613,0.008891331,0.055731007,0.013932382,0.000872045,-0.000999158,-0.000047526,-0.000218476,0.000437268,-0.118367570,0.348864506,-0.561654523,-0.001047855,-0.003039314,-0.004904455,0.999981821,0.000000000,0.000000000,0.000000000,0.000000000,0.000000000,0.000000000,-0.561884862,0.000000000,4.167076791
1772660536.572313547,0.013908000,0.008883000,0.055742000,-0.001321150,0.002755560,-0.006895350,0.999971560,-0.002680000,0.005493000,-0.013798000,-0.000051243,0.000063190,0.000092191,-0.000960633,-0.011341172,0.000139249,0.010725046,-0.002150094,0.998824394,-0.000507711,-0.003001872,0.000718946,0.000000000,0.000000000,0.000000000,0.000000000,0.014170077,0.008893191,0.055735019,0.013610160,0.000869695,-0.000923030,0.003323630,0.000513126,-0.000286820,-0.118913553,0.348720027,-0.561059290,-0.001052598,-0.003038036,-0.004899274,0.999981821,0.000000000,0.000000000,0.000000000,0.000000000,0.000000000,0.000000000,-0.561285748,0.000000000,4.166522674
1772660536.582314253,0.013906000,0.008883000,0.055748000,-0.001306830,0.002607310,-0.006922600,0.999971790,-0.002650000,0.005196000,-0.013852000,-0.000014569,-0.000022047,0.000152467,0.001276967,-0.010113995,-0.002945954,0.011913251,-0.001969872,0.998451563,0.001202304,0.002375279,-0.001040239,0.000000000,0.000000000,0.000000000,0.000000000,0.014170926,0.008895713,0.055735298,0.013603890,0.000884033,-0.000982036,0.005394780,0.000364855,-0.001523875,-0.119321903,0.348602571,-0.560477388,-0.001056141,-0.003036999,-0.004894206,0.999981874,0.000000000,0.000000000,0.000000000,0.000000000,0.000000000,0.000000000,-0.560424727,0.000000000,4.165968558
1772660536.592314482,0.013920000,0.008872000,0.055746000,-0.001288740,0.002589910,-0.006965410,0.999971560,-0.002614000,0.005162000,-0.013938000,0.000076068,-0.000050233,0.000094697,0.000815666,-0.001879882,-0.002389325,0.009664381,-0.002599427,1.000210231,-0.000379635,-0.001859263,0.000326741,0.000000000,0.000000000,0.000000000,0.000000000,0.014173800,0.008896273,0.055732558,0.013761484,0.000873900,-0.001071824,0.004544012,-0.000263893,-0.000117051,-0.118386034,0.348712908,-0.560019271,-0.001047967,-0.003038006,-0.004890184,0.999981931,0.000000000,0.000000000,0.000000000,0.000000000,0.000000000,0.000000000,-0.559938987,0.000000000,4.165414467
1772660536.602314711,0.013902000,0.008883000,0.055758000,-0.001283990,0.002567980,-0.007061990,0.999970940,-0.002604000,0.005118000,-0.014131000,0.000068065,-0.000057518,-0.000063326,0.002513779,0.007457137,-0.000252639,0.007503340,-0.001921970,1.000449143,-0.001618518,0.004931303,-0.000624306,0.000000000,0.000000000,0.000000000,0.000000000,0.014175108,0.008894476,0.055731393,0.013734915,0.000802189,-0.001000506,0.001590679,-0.000339695,0.000286850,-0.118522126,0.347416507,-0.559417470,-0.001049083,-0.003026693,-0.004884924,0.999981940,0.000000000,0.000000000,0.000000000,0.000000000,0.000000000,0.000000000,-0.559394955,0.000000000,4.164860377
1772660536.612315178,0.013916000,0.008883000,0.055751000,-0.001208120,0.002665830,-0.006950900,0.999971560,-0.002453000,0.005315000,-0.013908000,0.000008159,-0.000091142,-0.000126146,0.000144152,0.011714208,0.000648546,0.007921568,-0.001605012,0.998302738,-0.000351049,0.000494245,0.001212194,0.000000000,0.000000000,0.000000000,0.000000000,0.014173170,0.008895630,0.055727967,0.013499474,0.000776829,-0.000967760,0.001686784,0.000350608,-0.001533311,-0.119245626,0.345796787,-0.559456453,-0.001055329,-0.003012527,-0.004885269,0.999981996,0.000000000,0.000000000,0.000000000,0.000000000,0.000000000,0.000000000,-0.559386288,0.000000000,4.164809227
1772660536.622315884,0.013912000,0.008870000,0.055746000,-0.001280450,0.002838550,-0.006965930,0.999970890,-0.002600000,0.005659000,-0.013939000,-0.000050874,-0.000136364,-0.000195299,-0.003716374,0.009504613,0.001253579,0.009637349,-0.001584890,1.000490507,-0.000635178,0.001307777,-0.001926796,0.000000000,0.000000000,0.000000000,0.000000000,0.014169762,0.008896702,0.055727708,0.013352968,0.000786084,-0.001031548,0.003432473,0.000649664,-0.000477263,-0.119883814,0.344234062,-0.559422623,-0.001060830,-0.002998863,-0.004884977,0.999982048,0.000000000,0.000000000,0.000000000,0.000000000,0.000000000,0.000000000,-0.559290467,0.000000000,4.164809227
1772660536.632316351,0.013910000,0.008878000,0.055740000,-0.001319340,0.002876820,-0.006903240,0.999971160,-0.002678000,0.005735000,-0.013814000,-0.000103477,-0.000081954,0.000049786,-0.004816980,-0.001256068,-0.000390724,0.010682306,-0.002561180,1.000515188,-0.000617045,0.001636429,-0.001363868,0.000000000,0.000000000,0.000000000,0.000000000,0.014171692,0.008893861,0.055727841,0.013330948,0.000794318,-0.000971116,0.003986585,0.000306204,0.001157640,-0.119463448,0.343378886,-0.558485519,-0.001057101,-0.002991427,-0.004876781,0.999982059,0.000000000,0.000000000,0.000000000,0.000000000,0.000000000,0.000000000,-0.558508600,0.000000000,4.164809227
1772660536.642317533,0.013909000,0.008879000,0.055746000,-0.001287050,0.002719340,-0.006973980,0.999971160,-0.002612000,0.005421000,-0.013955000,-0.000106410,-0.000099786,0.000275972,-0.004501160,-0.007796880,-0.003599745,0.009681391,-0.001917371,0.999016222,-0.003164905,0.004609694,-0.001530197,0.000000000,0.000000000,0.000000000,0.000000000,0.014168739,0.008894180,0.055732504,0.013372593,0.000740824,-0.000870403,0.004051889,-0.000480447,-0.000536749,-0.120035840,0.341605580,-0.559031551,-0.001062035,-0.002975922,-0.004881544,0.999982105,0.000000000,0.000000000,0.000000000,0.000000000,0.000000000,0.000000000,-0.558914126,0.000000000,4.164809227
1772660536.652318239,0.013909000,0.008872000,0.055752000,-0.001381110,0.002618100,-0.007019010,0.999970990,-0.002799000,0.005217000,-0.014045000,-0.000225777,0.000087316,0.000452215,-0.000473071,-0.008910980,-0.006021158,0.010401392,-0.000831616,0.998402193,-0.000667402,-0.002761565,-0.005405656,0.000000000,0.000000000,0.000000000,0.000000000,0.014169739,0.008895868,0.055734810,0.013389611,0.000732574,-0.000895717,0.003772228,0.001271500,-0.000998817,-0.120433483,0.341273763,-0.557978467,-0.001065464,-0.002973020,-0.004872362,0.999982220,0.000000000,0.000000000,0.000000000,0.000000000,0.000000000,0.000000000,-0.557859410,0.000000000,4.164809227
1772660536.662317991,0.013908000,0.008871000,0.055757000,-0.001340380,0.002715650,-0.007049930,0.999970560,-0.002719000,0.005412000,-0.014107000,0.000019464,0.000152292,0.000342017,0.000700852,-0.004895765,-0.005258937,0.010352780,0.000306644,0.999528713,-0.000147184,-0.005811496,0.000245050,0.000000000,0.000000000,0.000000000,0.000000000,0.014171315,0.008891868,0.055731890,0.013431585,0.000811844,-0.000993034,0.004353926,0.001844147,-0.001112609,-0.121478622,0.339465120,-0.557181402,-0.001074487,-0.002957199,-0.004865418,0.999982186,0.000000000,0.000000000,0.000000000,0.000000000,0.000000000,0.000000000,-0.557345418,0.000000000,4.164809227
1772660536.672318697,0.013905000,0.008883000,0.055764000,-0.001319830,0.002555850,-0.007028010,0.999971170,-0.002676000,0.005093000,-0.014063000,0.000189569,0.000024534,0.000011946,-0.000955155,0.002552656,-0.004111464,0.010698856,-0.000945185,0.999161185,-0.002193261,0.001327244,0.000152071,0.000000000,0.000000000,0.000000000,0.000000000,0.014171282,0.008892797,0.055725806,0.013497093,0.001008585,-0.001069233,0.004692089,0.001825661,-0.001156246,-0.121707824,0.339061467,-0.557973338,-0.001076490,-0.002953660,-0.004872330,0.999982179,0.000000000,0.000000000,0.000000000,0.000000000,0.000000000,0.000000000,-0.557797773,0.000000000,4.164809227
1772660536.682318687,0.013905000,0.008877000,0.055757000,-0.001319730,0.002743110,-0.007052510,0.999970500,-0.002678000,0.005467000,-0.014113000,0.000110470,0.000046426,-0.000233062,-0.002651982,0.010203637,0.000578455,0.011145043,-0.002939905,0.998841572,-0.000131130,0.000971603,0.000980906,0.000000000,0.000000000,0.000000000,0.000000000,0.014170933,0.008896201,0.055724928,0.013590241,0.001109989,-0.001137122,0.004983229,-0.000222775,-0.000875285,-0.121700853,0.341596198,-0.556540174,-0.001076500,-0.002975793,-0.004859846,0.999982205,0.000000000,0.000000000,0.000000000,0.000000000,0.000000000,0.000000000,-0.556372364,0.000000000,4.164809227
1772660536.692318678,0.013914000,0.008879000,0.055751000,-0.001291600,0.002771830,-0.007040990,0.999970540,-0.002622000,0.005525000,-0.014089000,0.000121698,-0.000056605,-0.000185373,-0.001199275,0.006830033,0.003955057,0.010446824,0.000320456,1.000720734,-0.001163201,0.002206369,-0.001405571,0.000000000,0.000000000,0.000000000,0.000000000,0.014101762,0.008893268,0.055737560,0.012804312,0.001199934,-0.000827586,0.004435157,0.002071130,0.000737516,-0.121852608,0.344519361,-0.555879455,-0.001077930,-0.003001302,-0.004854112,0.999981880,0.000000000,0.000000000,0.000000000,0.000000000,0.000000000,0.000000000,-0.555477290,0.000000000,4.164809227
1772660536.702319145,0.013917000,0.008877000,0.055751000,-0.001441590,0.002725780,-0.007072510,0.999970240,-0.002922000,0.005431000,-0.014153000,0.000166434,-0.000136558,-0.000094891,-0.001537130,-0.001021045,0.006807587,0.010648608,0.000019907,0.998854841,-0.000830261,0.000204763,-0.002008288,0.000000000,0.000000000,0.000000000,0.000000000,0.014084703,0.008893420,0.055742508,0.012520368,0.001350505,-0.000608395,0.004278055,0.002197018,-0.000072387,-0.122004369,0.347442664,-0.555218705,-0.001079360,-0.003026812,-0.004848377,0.999981950,0.000000000,0.000000000,0.000000000,0.000000000,0.000000000,0.000000000,-0.555357152,0.000000000,4.164809227
1772660536.712320089,0.013914000,0.008873000,0.055747000,-0.001367120,0.002768640,-0.006989370,0.999970810,-0.002773000,0.005518000,-0.013987000,0.000038384,-0.000065288,0.000099553,0.002118168,-0.004354019,0.008333096,0.012087637,-0.001393986,0.997757631,0.001140388,-0.000067750,-0.002992302,0.000000000,0.000000000,0.000000000,0.000000000,0.014123902,0.008898162,0.055741189,0.012886433,0.001537764,-0.000660068,0.005348502,0.001091298,-0.002862684,-0.122156138,0.350366106,-0.554557923,-0.001080791,-0.003052323,-0.004842642,0.999981999,0.000000000,0.000000000,0.000000000,0.000000000,0.000000000,0.000000000,-0.554098811,0.000000000,4.164809227
1772660536.722320080,0.013903000,0.008875000,0.055758000,-0.001349560,0.002809680,-0.006911630,0.999971260,-0.002738000,0.005601000,-0.013831000,-0.000069930,0.000084421,0.000119425,0.004639190,-0.006746426,0.006815952,0.010565085,-0.004117732,0.998290479,-0.000591799,-0.004926669,0.001439857,0.000000000,0.000000000,0.000000000,0.000000000,0.014146844,0.008901759,0.055742870,0.013246516,0.001584991,-0.000869923,0.005506700,-0.000286296,-0.002011566,-0.122307893,0.353289269,-0.553897204,-0.001082221,-0.003077832,-0.004836907,0.999981958,0.000000000,0.000000000,0.000000000,0.000000000,0.000000000,0.000000000,-0.553901764,0.000000000,4.164809227
1772660536.732321262,0.013918000,0.008874000,0.055760000,-0.001276410,0.002585280,-0.006889340,0.999972110,-0.002588000,0.005153000,-0.013786000,0.000004565,0.000081138,0.000067094,0.005505959,-0.001098562,0.003862226,0.011305228,-0.002008116,0.999341578,0.000030890,0.001870286,0.000231559,0.000000000,0.000000000,0.000000000,0.000000000,0.014161636,0.008904458,0.055740380,0.013467970,0.001461849,-0.000999050,0.004102905,-0.001719195,-0.000497820,-0.122111000,0.353771826,-0.554401661,-0.001080537,-0.003082047,-0.004841308,0.999981940,0.000000000,0.000000000,0.000000000,0.000000000,0.000000000,0.000000000,-0.554469149,0.000000000,4.164809227
1772660536.742321968,0.013915000,0.008881000,0.055753000,-0.001302420,0.002606440,-0.006895460,0.999971980,-0.002641000,0.005195000,-0.013798000,0.000005536,0.000073951,-0.000076185,0.003186213,0.004656648,0.001298131,0.011113193,-0.002720236,1.000052442,0.000581585,-0.000706643,-0.000946195,0.000000000,0.000000000,0.000000000,0.000000000,0.014168207,0.008906113,0.055737418,0.013640178,0.001379995,-0.001004805,0.005165336,0.000639710,-0.000084066,-0.122469835,0.354732091,-0.553796966,-0.001083692,-0.003090417,-0.004836050,0.999981940,0.000000000,0.000000000,0.000000000,0.000000000,0.000000000,0.000000000,-0.553822093,0.000000000,4.164809227
1772660536.752323151,0.013907000,0.008880000,0.055755000,-0.001260530,0.002757560,-0.006919140,0.999971470,-0.002559000,0.005498000,-0.013845000,-0.000114025,0.000072747,-0.000139511,-0.002833894,0.006030247,-0.002249284,0.009919700,-0.001266741,0.999100428,-0.000934989,0.001915842,-0.000698585,0.000000000,0.000000000,0.000000000,0.000000000,0.014173300,0.008904782,0.055733583,0.013820317,0.001342335,-0.000991784,0.004477588,0.000430499,-0.001424852,-0.122368614,0.352887414,-0.554076422,-0.001082739,-0.003074321,-0.004838469,0.999981992,0.000000000,0.000000000,0.000000000,0.000000000,0.000000000,0.000000000,-0.554110946,0.000000000,4.164809227
1772660536.762323618,0.013914000,0.008876000,0.055746000,-0.001316400,0.002814820,-0.006966700,0.999970900,-0.002672000,0.005611000,-0.013941000,-0.000137995,0.000015890,-0.000213306,-0.005600529,0.004717958,-0.004132377,0.008446791,0.001231152,0.997992541,-0.004986276,0.006412055,0.003240423,0.000000000,0.000000000,0.000000000,0.000000000,0.014178138,0.008903599,0.055733393,0.013896521,0.001367062,-0.001055716,0.002760266,0.002281544,-0.001841048,-0.121884076,0.351606539,-0.554302505,-0.001078463,-0.003063162,-0.004840416,0.999982049,0.000000000,0.000000000,0.000000000,0.000000000,0.000000000,0.000000000,-0.554267638,0.000000000,4.164809227
1772660536.772324324,0.013914000,0.008877000,0.055756000,-0.001334300,0.002800600,-0.006916740,0.999971270,-0.002707000,0.005583000,-0.013841000,-0.000304313,-0.000007012,0.000052117,-0.005091839,0.005216662,-0.005430597,0.009546320,0.000405039,0.998161378,0.000939306,0.000811559,0.001684933,0.000000000,0.000000000,0.000000000,0.000000000,0.014174629,0.008904817,0.055731792,0.013780876,0.001608903,-0.001207532,0.003039808,0.002516548,-0.001408813,-0.122248682,0.350017679,-0.553945789,-0.001081568,-0.003049284,-0.004837299,0.999982115,0.000000000,0.000000000,0.000000000,0.000000000,0.000000000,0.000000000,-0.553860937,0.000000000,4.164809227
1772660536.782325029,0.013899000,0.008877000,0.055750000,-0.001386950,0.002807180,-0.006939670,0.999971020,-0.002813000,0.005595000,-0.013887000,-0.000121970,-0.000084344,0.000186908,-0.003658189,-0.001509950,-0.006096483,0.011780178,-0.002448490,1.000635757,-0.001014476,-0.003457594,0.001001095,0.000000000,0.000000000,0.000000000,0.000000000,0.014171978,0.008908881,0.055730608,0.013758590,0.001806981,-0.001314108,0.005126574,0.000866009,-0.000116861,-0.123404695,0.348423539,-0.553236865,-0.001091570,-0.003035331,-0.004831128,0.999982171,0.000000000,0.000000000,0.000000000,0.000000000,0.000000000,0.000000000,-0.553091566,0.000000000,4.164809227
1772660536.792325020,0.013903000,0.008881000,0.055754000,-0.001385000,0.002689090,-0.007013890,0.999970830,-0.002808000,0.005359000,-0.014035000,-0.000109849,-0.000119328,0.000228302,-0.002893507,-0.008554041,-0.007228090,0.011198666,-0.001645989,1.001423327,-0.001865229,0.001284423,0.000238019,0.000000000,0.000000000,0.000000000,0.000000000,0.014171938,0.008910100,0.055730416,0.013780122,0.001844494,-0.001324079,0.005579788,-0.000453378,0.001454945,-0.122381231,0.348096401,-0.552219957,-0.001082598,-0.003032529,-0.004822224,0.999982178,0.000000000,0.000000000,0.000000000,0.000000000,0.000000000,0.000000000,-0.552212871,0.000000000,4.164809227
1772660536.802325487,0.013911000,0.008876000,0.055754000,-0.001396180,0.002691190,-0.007069530,0.999970410,-0.002830000,0.005362000,-0.014147000,-0.000116298,-0.000135684,0.000324048,-0.000329555,-0.010251602,-0.007307884,0.010771301,-0.001494775,1.001697736,-0.001823510,0.001978260,-0.000032046,0.000000000,0.000000000,0.000000000,0.000000000,0.014172442,0.008910162,0.055730369,0.013803637,0.001835874,-0.001306413,0.005366685,-0.000359042,0.001460925,-0.122300847,0.348285498,-0.552165884,-0.001081903,-0.003034183,-0.004821752,0.999982178,0.000000000,0.000000000,0.000000000,0.000000000,0.000000000,0.000000000,-0.552158664,0.000000000,4.164809227
1772660536.812325954,0.013899000,0.008874000,0.055765000,-0.001341200,0.002807980,-0.007083010,0.999970070,-0.002722000,0.005597000,-0.014174000,0.000070649,-0.000177156,0.000093279,-0.001502940,-0.009256049,-0.004876090,0.010402749,-0.001560597,1.001818562,-0.001507707,0.001375400,-0.000148073,0.000000000,0.000000000,0.000000000,0.000000000,0.014172946,0.008910225,0.055730322,0.013827152,0.001827254,-0.001288747,0.005153582,-0.000264706,0.001466905,-0.122220463,0.348474594,-0.552111812,-0.001081208,-0.003035837,-0.004821280,0.999982178,0.000000000,0.000000000,0.000000000,0.000000000,0.000000000,0.000000000,-0.552104456,0.000000000,4.164809227
1772660536.822325706,0.013908000,0.008870000,0.055758000,-0.001422550,0.002605900,-0.007077000,0.999970550,-0.002882000,0.005192000,-0.014162000,0.000044911,-0.000089821,0.000079895,-0.002438258,-0.008900979,-0.000657942,0.010034223,-0.001626414,1.001939379,-0.001191928,0.000772583,-0.000264091,0.000000000,0.000000000,0.000000000,0.000000000,0.014173450,0.008910287,0.055730275,0.013850665,0.001818635,-0.001271082,0.004940494,-0.000170377,0.001472885,-0.122140086,0.348663677,-0.552057743,-0.001080513,-0.003037491,-0.004820807,0.999982178,0.000000000,0.000000000,0.000000000,0.000000000,0.000000000,0.000000000,-0.552050252,0.000000000,4.164809227
1772660536.832325220,0.013902000,0.008871000,0.055762000,-0.001404750,0.002484950,-0.007104110,0.999970690,-0.002845000,0.004950000,-0.014215000,-0.000075699,0.000077389,-0.000088500,-0.001219754,-0.002003712,0.003351444,0.009665706,-0.001692229,1.002060193,-0.000876156,0.000169781,-0.000380107,0.000000000,0.000000000,0.000000000,0.000000000,0.014173954,0.008910350,0.055730228,0.013874178,0.001810016,-0.001253417,0.004727411,-0.000076050,0.001478864,-0.122059710,0.348852756,-0.552003676,-0.001079818,-0.003039145,-0.004820335,0.999982178,0.000000000,0.000000000,0.000000000,0.000000000,0.000000000,0.000000000,-0.551996050,0.000000000,4.164809227
1772660536.842325449,0.013905000,0.008876000,0.055761000,-0.001397600,0.002599760,-0.007060770,0.999970720,-0.002832000,0.005180000,-0.014129000,0.000064336,0.000174689,-0.000206566,0.002084230,0.003952061,0.006034075,0.009297163,-0.001758049,1.002181015,-0.000560361,-0.000433065,-0.000496131,0.000000000,0.000000000,0.000000000,0.000000000,0.014174459,0.008910412,0.055730181,0.013897692,0.001801396,-0.001235751,0.004514313,0.000018283,0.001484844,-0.121979328,0.349041847,-0.551949605,-0.001079123,-0.003040799,-0.004819863,0.999982178,0.000000000,0.000000000,0.000000000,0.000000000,0.000000000,0.000000000,-0.551941844,0.000000000,4.164809227
1772660536.852325916,0.013908000,0.008874000,0.055749000,-0.001445330,0.002647110,-0.007016360,0.999970840,-0.002928000,0.005274000,-0.014041000,0.000244853,0.000143784,-0.000231352,0.005253747,0.013036348,0.005689319,0.008928611,-0.001823871,1.002301841,-0.000244559,-0.001035925,-0.000612158,0.000000000,0.000000000,0.000000000,0.000000000,0.014174963,0.008910475,0.055730134,0.013921207,0.001792776,-0.001218085,0.004301210,0.000112619,0.001490824,-0.121898944,0.349230944,-0.551895532,-0.001078428,-0.003042453,-0.004819391,0.999982178,0.000000000,0.000000000,0.000000000,0.000000000,0.000000000,0.000000000,-0.551887636,0.000000000,4.164809227
1772660536.862326622,0.013902000,0.008879000,0.055760000,-0.001367480,0.002663940,-0.007020790,0.999970870,-0.002772000,0.005309000,-0.014049000,0.000213539,0.000022824,-0.000124029,0.008280621,0.018969017,0.004023191,0.008560050,-0.001889694,1.002422669,0.000071251,-0.001638800,-0.000728187,0.000000000,0.000000000,0.000000000,0.000000000,0.014175467,0.008910537,0.055730087,0.013944723,0.001784156,-0.001200419,0.004088102,0.000206957,0.001496805,-0.121818559,0.349420045,-0.551841458,-0.001077733,-0.003044107,-0.004818918,0.999982178,0.000000000,0.000000000,0.000000000,0.000000000,0.000000000,0.000000000,-0.551833427,0.000000000,4.164809227
1772660536.872327089,0.013911000,0.008879000,0.055752000,-0.001272540,0.002876040,-0.006951930,0.999970890,-0.002585000,0.005734000,-0.013911000,0.000213520,-0.000023252,-0.000211927,0.006854882,0.011464512,0.003903507,0.008191498,-0.001955516,1.002543495,0.000387053,-0.002241660,-0.000844214,0.000000000,0.000000000,0.000000000,0.000000000,0.014175445,0.008910435,0.055731104,0.013968636,0.001774238,-0.001153608,0.003874998,0.000301293,0.001502785,-0.121738175,0.349609141,-0.551787386,-0.001077038,-0.003045761,-0.004818446,0.999982194,0.000000000,0.000000000,0.000000000,0.000000000,0.000000000,0.000000000,-0.551779220,0.000000000,4.164809227
1772660536.882327557,0.013916000,0.008873000,0.055750000,-0.001270660,0.002837050,-0.006952800,0.999971000,-0.002581000,0.005656000,-0.013913000,0.000037995,0.000012141,-0.000135470,0.004882318,0.001160804,0.003322247,0.007948062,-0.001979499,1.002370510,0.001016038,-0.002569097,-0.000748869,0.000000000,0.000000000,0.000000000,0.000000000,0.014173181,0.008909632,0.055736659,0.013994245,0.001758791,-0.000982597,0.002546067,0.000556338,0.001841569,-0.122263745,0.349315773,-0.551366430,-0.001081601,-0.003043183,-0.004814784,0.999982236,0.000000000,0.000000000,0.000000000,0.000000000,0.000000000,0.000000000,-0.551213822,0.000000000,4.164809227
1772660536.892328501,0.013914000,0.008875000,0.055753000,-0.001270500,0.002871500,-0.007002990,0.999970550,-0.002581000,0.005725000,-0.014014000,0.000033023,-0.000010956,0.000011869,0.001812588,-0.009024950,0.003137133,0.009150837,-0.001574037,0.998966838,0.004948950,0.000084247,0.001500090,0.000000000,0.000000000,0.000000000,0.000000000,0.014174933,0.008907189,0.055739568,0.013850326,0.001736055,-0.000736000,0.002346466,0.000416074,0.000693031,-0.123612797,0.348414377,-0.550398724,-0.001093310,-0.003035270,-0.004806366,0.999982238,0.000000000,0.000000000,0.000000000,0.000000000,0.000000000,0.000000000,-0.550316607,0.000000000,4.164809227
1772660536.902329445,0.013910000,0.008874000,0.055750000,-0.001266050,0.002766370,-0.006961580,0.999971140,-0.002571000,0.005515000,-0.013930000,-0.000019716,-0.000114472,0.000073368,-0.001026120,-0.012512767,0.001341095,0.010900781,-0.002532782,0.999094768,0.000295332,-0.001844563,-0.003582033,0.000000000,0.000000000,0.000000000,0.000000000,0.014172354,0.008905504,0.055744065,0.013755883,0.001706194,-0.000697123,0.004127331,-0.000120826,-0.000809068,-0.123447132,0.348349096,-0.549706277,-0.001091843,-0.003034714,-0.004800319,0.999982297,0.000000000,0.000000000,0.000000000,0.000000000,0.000000000,0.000000000,-0.549591445,0.000000000,4.164809227
1772660536.912329197,0.013907000,0.008881000,0.055747000,-0.001289240,0.002651480,-0.006887040,0.999971940,-0.002615000,0.005285000,-0.013781000,-0.000188190,-0.000057576,0.000245125,-0.000355619,-0.008572060,-0.001766655,0.010472958,-0.001734354,0.998145589,-0.002545479,0.000152228,-0.000096939,0.000000000,0.000000000,0.000000000,0.000000000,0.014172286,0.008906545,0.055745877,0.013837947,0.001632904,-0.000723435,0.004443907,0.000274576,-0.001190633,-0.122359958,0.347537593,-0.549112620,-0.001082307,-0.003027683,-0.004795102,0.999982297,0.000000000,0.000000000,0.000000000,0.000000000,0.000000000,0.000000000,-0.549159916,0.000000000,4.164809227
1772660536.922329426,0.013909000,0.008876000,0.055757000,-0.001283340,0.002631620,-0.006930840,0.999971700,-0.002603000,0.005245000,-0.013869000,-0.000182343,0.000014763,0.000273194,0.001030855,-0.000668864,-0.004223433,0.010121016,-0.000884576,0.999570789,0.000501759,0.000469926,-0.001350204,0.000000000,0.000000000,0.000000000,0.000000000,0.014174650,0.008906073,0.055739791,0.013910512,0.001639938,-0.000886467,0.003773947,0.000849362,-0.000549705,-0.122968548,0.347680148,-0.549584509,-0.001087636,-0.003028897,-0.004799237,0.999982297,0.000000000,0.000000000,0.000000000,0.000000000,0.000000000,0.000000000,-0.549631590,0.000000000,4.164809227
1772660536.932329416,0.013914000,0.008869000,0.055762000,-0.001264290,0.002594140,-0.006982280,0.999971460,-0.002565000,0.005171000,-0.013971000,-0.000177661,0.000046484,0.000158411,0.000262887,0.002425712,-0.005900581,0.010291641,-0.001278713,0.999608187,-0.002194865,0.003050348,-0.000474355,0.000000000,0.000000000,0.000000000,0.000000000,0.014172973,0.008908617,0.055741623,0.013907617,0.001708338,-0.000848537,0.004302401,0.000665953,-0.000475397,-0.123417912,0.347661023,-0.550003629,-0.001091568,-0.003028707,-0.004802907,0.999982301,0.000000000,0.000000000,0.000000000,0.000000000,0.000000000,0.000000000,-0.550047131,0.000000000,4.164809227
1772660536.942330360,0.013905000,0.008872000,0.055758000,-0.001245290,0.002819350,-0.007037420,0.999970490,-0.002530000,0.005621000,-0.014082000,-0.000058644,0.000055400,0.000074417,0.000269083,0.008227173,-0.006219166,0.011833985,-0.001726350,0.998144237,0.000716102,0.001583055,-0.001831255,0.000000000,0.000000000,0.000000000,0.000000000,0.014176216,0.008910459,0.055739451,0.013963827,0.001730661,-0.000867611,0.004927563,0.000516220,-0.001262157,-0.123711758,0.347064662,-0.550206209,-0.001094112,-0.003023489,-0.004804677,0.999982351,0.000000000,0.000000000,0.000000000,0.000000000,0.000000000,0.000000000,-0.550181886,0.000000000,4.165274510
1772660536.952330828,0.013901000,0.008880000,0.055758000,-0.001255510,0.002810790,-0.007051920,0.999970400,-0.002551000,0.005604000,-0.014111000,-0.000066978,0.000007887,-0.000020319,0.001260045,0.005616995,-0.002070530,0.009136282,-0.002779008,0.999134551,-0.001097097,0.001638940,-0.000727048,0.000000000,0.000000000,0.000000000,0.000000000,0.014180772,0.008909427,0.055736699,0.014077474,0.001719966,-0.000954350,0.004170003,0.000186218,-0.000897829,-0.124761942,0.345665595,-0.550041101,-0.001103214,-0.003011237,-0.004803251,0.999982357,0.000000000,0.000000000,0.000000000,0.000000000,0.000000000,0.000000000,-0.550068577,0.000000000,4.165757826
1772660536.962331533,0.013904000,0.008880000,0.055760000,-0.001276470,0.002706060,-0.007053240,0.999970650,-0.002591000,0.005394000,-0.014114000,0.000023096,0.000103885,-0.000119483,0.001662103,0.004067511,0.002986409,0.008943682,-0.001673180,0.999182215,-0.002999099,0.002074357,0.005136052,0.000000000,0.000000000,0.000000000,0.000000000,0.014183886,0.008908089,0.055735026,0.014065545,0.001640458,-0.001013274,0.002898047,-0.000629135,-0.000620527,-0.124256226,0.344670258,-0.550215888,-0.001098764,-0.003002571,-0.004804753,0.999982405,0.000000000,0.000000000,0.000000000,0.000000000,0.000000000,0.000000000,-0.550149506,0.000000000,4.166241153
1772660536.972332478,0.013906000,0.008877000,0.055752000,-0.001279320,0.002730730,-0.006995740,0.999970980,-0.002597000,0.005443000,-0.013999000,0.000178166,0.000000894,-0.000053982,0.001096990,0.000417652,0.004954690,0.010719675,-0.002858760,0.999699064,0.001631025,0.003163636,0.001259071,0.000000000,0.000000000,0.000000000,0.000000000,0.014183371,0.008906627,0.055733496,0.013997315,0.001574024,-0.001034792,0.004301618,-0.000158911,-0.000494596,-0.124224945,0.343389330,-0.549702592,-0.001098424,-0.002991399,-0.004800261,0.999982503,0.000000000,0.000000000,0.000000000,0.000000000,0.000000000,0.000000000,-0.549540472,0.000000000,4.166724492
1772660536.982333660,0.013914000,0.008872000,0.055759000,-0.001226380,0.002837160,-0.006983270,0.999970840,-0.002492000,0.005657000,-0.013974000,0.000263442,-0.000119192,-0.000002176,-0.000815114,-0.004240535,0.003162600,0.011308938,-0.002766389,1.000383240,0.000332288,-0.001624737,0.000881901,0.000000000,0.000000000,0.000000000,0.000000000,0.014181517,0.008906664,0.055731367,0.014025866,0.001493721,-0.001033942,0.004712451,-0.001198074,-0.000190983,-0.124686106,0.342104932,-0.548262288,-0.001102357,-0.002980185,-0.004787692,0.999982536,0.000000000,0.000000000,0.000000000,0.000000000,0.000000000,0.000000000,-0.548114695,0.000000000,4.167207842
1772660536.992334366,0.013905000,0.008874000,0.055759000,-0.001220400,0.002714940,-0.006956410,0.999971370,-0.002479000,0.005413000,-0.013920000,0.000086169,-0.000045843,-0.000076554,-0.003331641,-0.002465047,0.000122475,0.010389573,-0.002739770,1.000550283,0.000168689,-0.001101481,0.000769878,0.000000000,0.000000000,0.000000000,0.000000000,0.014180643,0.008906732,0.055731231,0.014101568,0.001390791,-0.000991386,0.003945472,-0.000055257,0.000257057,-0.124957658,0.341574286,-0.548208096,-0.001104703,-0.002975544,-0.004787222,0.999982559,0.000000000,0.000000000,0.000000000,0.000000000,0.000000000,0.000000000,-0.548221844,0.000000000,4.167691169
1772660537.002335548,0.013914000,0.008880000,0.055754000,-0.001264550,0.002829350,-0.006982160,0.999970820,-0.002569000,0.005641000,-0.013972000,0.000028147,0.000015462,-0.000152253,-0.005188035,-0.003932321,-0.002066295,0.010522071,-0.002518132,0.998660107,0.000332536,-0.000328267,0.000435734,0.000000000,0.000000000,0.000000000,0.000000000,0.014181880,0.008903701,0.055735471,0.014164439,0.001308517,-0.000905942,0.004696431,-0.000598429,-0.000295872,-0.125082884,0.341454891,-0.547981881,-0.001105785,-0.002974499,-0.004785250,0.999982595,0.000000000,0.000000000,0.000000000,0.000000000,0.000000000,0.000000000,-0.547935413,0.000000000,4.168174520
1772660537.012335539,0.013912000,0.008873000,0.055755000,-0.001330540,0.002662040,-0.007000630,0.999971070,-0.002698000,0.005305000,-0.014009000,0.000020765,0.000056877,-0.000103574,-0.006835989,-0.004521779,-0.003438816,0.011801092,-0.001826162,0.997625721,0.000182994,-0.001721599,0.000433229,0.000000000,0.000000000,0.000000000,0.000000000,0.014184548,0.008898609,0.055740059,0.014230144,0.001210238,-0.000903652,0.005764042,0.000239406,-0.001902550,-0.124701017,0.341510048,-0.547302378,-0.001102437,-0.002975002,-0.004779310,0.999982614,0.000000000,0.000000000,0.000000000,0.000000000,0.000000000,0.000000000,-0.547168924,0.000000000,4.168657813
1772660537.022336245,0.013909000,0.008876000,0.055753000,-0.001369660,0.002648820,-0.007046450,0.999970730,-0.002777000,0.005278000,-0.014100000,-0.000061810,-0.000018531,-0.000206760,-0.007176553,-0.001379605,-0.002012026,0.012352455,-0.001223839,0.999929845,-0.000595482,-0.003019382,0.000761035,0.000000000,0.000000000,0.000000000,0.000000000,0.014183043,0.008897806,0.055739660,0.014416822,0.001206575,-0.001063317,0.006486303,0.000502923,0.000274245,-0.124161279,0.341314222,-0.546436412,-0.001097696,-0.002973325,-0.004771738,0.999982655,0.000000000,0.000000000,0.000000000,0.000000000,0.000000000,0.000000000,-0.546315705,0.000000000,4.169141140
1772660537.032336712,0.013908000,0.008878000,0.055749000,-0.001369400,0.002717380,-0.007014180,0.999970770,-0.002777000,0.005415000,-0.014036000,-0.000013792,-0.000068376,-0.000013481,-0.005166934,-0.004821245,-0.001027704,0.011632360,-0.001423897,1.000057039,-0.001275329,-0.002857075,0.003423251,0.000000000,0.000000000,0.000000000,0.000000000,0.014182934,0.008900912,0.055738860,0.014636785,0.001256448,-0.001043286,0.005426210,0.000883435,0.001109908,-0.123750000,0.341743591,-0.545649435,-0.001094105,-0.002977096,-0.004764864,0.999982637,0.000000000,0.000000000,0.000000000,0.000000000,0.000000000,0.000000000,-0.545543468,0.000000000,4.169624456
1772660537.042336702,0.013916000,0.008872000,0.055750000,-0.001358410,0.002712920,-0.007007040,0.999970850,-0.002755000,0.005407000,-0.014022000,0.000084674,-0.000029779,-0.000018337,-0.000317432,0.003700360,0.001818418,0.010828745,-0.001978685,0.997244866,-0.000880213,-0.001022943,0.005074804,0.000000000,0.000000000,0.000000000,0.000000000,0.014185149,0.008902330,0.055740035,0.014764615,0.001301974,-0.000905558,0.004982045,0.000551886,-0.001509756,-0.123677948,0.343035369,-0.545093096,-0.001093515,-0.002988377,-0.004760019,0.999982603,0.000000000,0.000000000,0.000000000,0.000000000,0.000000000,0.000000000,-0.545049447,0.000000000,4.170070304
1772660537.052337170,0.013910000,0.008877000,0.055755000,-0.001396480,0.002760360,-0.007013310,0.999970620,-0.002832000,0.005501000,-0.014035000,0.000229468,0.000078050,-0.000063151,0.004465241,0.015181383,0.003595271,0.010840620,-0.002296321,0.996365501,-0.003102290,-0.001447613,-0.001784232,0.000000000,0.000000000,0.000000000,0.000000000,0.014187841,0.008902308,0.055737424,0.014834147,0.001295509,-0.001052443,0.004903033,0.000557180,-0.003478132,-0.124000493,0.344535352,-0.544690358,-0.001096382,-0.003001457,-0.004756528,0.999982646,0.000000000,0.000000000,0.000000000,0.000000000,0.000000000,0.000000000,-0.544354922,0.000000000,4.169645766
1772660537.062337160,0.013908000,0.008873000,0.055747000,-0.001388940,0.002724990,-0.006979940,0.999970960,-0.002816000,0.005430000,-0.013968000,0.000254604,0.000049845,-0.000073951,0.008678741,0.015540984,0.007635305,0.010031760,-0.001392742,0.997679260,-0.000043473,-0.002643923,0.002904224,0.000000000,0.000000000,0.000000000,0.000000000,0.014192977,0.008900717,0.055735673,0.014912206,0.001286200,-0.001289374,0.004582330,0.001067923,-0.002600202,-0.123989924,0.344647119,-0.542637154,-0.001096240,-0.003002453,-0.004738610,0.999982655,0.000000000,0.000000000,0.000000000,0.000000000,0.000000000,0.000000000,-0.542558105,0.000000000,4.169221248
1772660537.072337866,0.013919000,0.008878000,0.055756000,-0.001329570,0.002675000,-0.006977630,0.999971190,-0.002696000,0.005331000,-0.013963000,-0.000013209,0.000137199,-0.000006449,0.009433909,0.011838517,0.007913535,0.009226466,-0.001520410,1.000274765,-0.001092320,0.000386264,0.000036966,0.000000000,0.000000000,0.000000000,0.000000000,0.014195381,0.008899293,0.055734225,0.014918836,0.001301631,-0.001456066,0.003184415,0.000432053,-0.000418955,-0.125078707,0.344650254,-0.542299671,-0.001105733,-0.003002438,-0.004735694,0.999982736,0.000000000,0.000000000,0.000000000,0.000000000,0.000000000,0.000000000,-0.542226873,0.000000000,4.168796699
1772660537.082338333,0.013923000,0.008878000,0.055743000,-0.001206960,0.003251710,-0.006896100,0.999970210,-0.002459000,0.006487000,-0.013800000,-0.000224048,0.000130361,-0.000055653,0.006254429,0.010018541,0.005834999,0.010683379,-0.001608494,0.999971359,-0.000191725,-0.001110192,0.002888742,0.000000000,0.000000000,0.000000000,0.000000000,0.014196547,0.008900647,0.055731480,0.014863379,0.001328361,-0.001452895,0.004037665,0.000469040,0.000181798,-0.124600565,0.344679387,-0.540994070,-0.001101527,-0.003002725,-0.004724289,0.999982774,0.000000000,0.000000000,0.000000000,0.000000000,0.000000000,0.000000000,-0.540816565,0.000000000,4.168372161
1772660537.092338085,0.013912000,0.008880000,0.055749000,-0.001196700,0.003004070,-0.006874570,0.999971140,-0.002435000,0.005992000,-0.013757000,-0.000254973,0.000031177,-0.000028516,0.002732281,0.003425118,0.001974430,0.010051369,-0.001233169,0.998192080,-0.000624909,0.001201657,0.002403410,0.000000000,0.000000000,0.000000000,0.000000000,0.014198679,0.008901667,0.055729462,0.014864447,0.001339152,-0.001399916,0.004574840,0.000645906,-0.000720011,-0.124308119,0.344259314,-0.540921679,-0.001098956,-0.002999072,-0.004723645,0.999982774,0.000000000,0.000000000,0.000000000,0.000000000,0.000000000,0.000000000,-0.540943847,0.000000000,4.167947653
1772660537.102338314,0.013910000,0.008878000,0.055750000,-0.001201300,0.002874250,-0.006809570,0.999971960,-0.002442000,0.005732000,-0.013626000,-0.000293959,-0.000001282,0.000038384,-0.001299076,0.001433704,-0.003801706,0.008198397,-0.001315929,0.998669168,-0.001571797,0.000265679,0.001510011,0.000000000,0.000000000,0.000000000,0.000000000,0.014198552,0.008900898,0.055728430,0.014869021,0.001361729,-0.001458947,0.003175132,0.001044174,-0.002871307,-0.123558897,0.344422039,-0.539981033,-0.001092400,-0.003000532,-0.004715418,0.999982832,0.000000000,0.000000000,0.000000000,0.000000000,0.000000000,0.000000000,-0.539854421,0.000000000,4.167523125
1772660537.112339020,0.013897000,0.008881000,0.055754000,-0.001295050,0.002881420,-0.006950910,0.999970850,-0.002630000,0.005745000,-0.013910000,-0.000205944,-0.000056857,0.000042521,-0.004147327,-0.004621975,-0.008182030,0.009155921,-0.001503566,0.999751048,-0.002721684,-0.000639502,-0.002201736,0.000000000,0.000000000,0.000000000,0.000000000,0.014196466,0.008902059,0.055725279,0.014711953,0.001401186,-0.001590580,0.001562033,-0.000108693,-0.000353545,-0.123559992,0.343051444,-0.538985273,-0.001092327,-0.002988581,-0.004706716,0.999982893,0.000000000,0.000000000,0.000000000,0.000000000,0.000000000,0.000000000,-0.538875333,0.000000000,4.167098576
1772660537.122339010,0.013908000,0.008876000,0.055745000,-0.001321980,0.003013020,-0.006994370,0.999970130,-0.002686000,0.006007000,-0.013997000,0.000100894,-0.000063190,0.000035392,-0.005194676,-0.001986284,-0.009550194,0.011787952,-0.002634544,0.998085860,-0.002430863,0.001393094,-0.000686843,0.000000000,0.000000000,0.000000000,0.000000000,0.014195290,0.008902236,0.055721925,0.014583710,0.001395450,-0.001607030,0.005885272,0.000537794,-0.001202569,-0.124137127,0.342987787,-0.538018547,-0.001097336,-0.002988011,-0.004698295,0.999982861,0.000000000,0.000000000,0.000000000,0.000000000,0.000000000,0.000000000,-0.537903607,0.000000000,4.166674058
1772660537.132339716,0.013912000,0.008877000,0.055750000,-0.001252290,0.002944630,-0.007001610,0.999970370,-0.002546000,0.005872000,-0.014011000,0.000302817,-0.000130808,-0.000178069,-0.002778422,0.011297670,-0.008000112,0.012641458,-0.004192304,0.996266152,0.000752307,-0.000284724,0.000480066,0.000000000,0.000000000,0.000000000,0.000000000,0.014196212,0.008900967,0.055721149,0.014733708,0.001303988,-0.001716783,0.006845746,-0.002364347,-0.003701192,-0.125008592,0.343509188,-0.538630015,-0.001104978,-0.002992519,-0.004703658,0.999982867,0.000000000,0.000000000,0.000000000,0.000000000,0.000000000,0.000000000,-0.538756508,0.000000000,4.166249510
1772660537.142339945,0.013912000,0.008877000,0.055750000,-0.001271850,0.003085490,-0.007059330,0.999969510,-0.002587000,0.006153000,-0.014127000,0.000200214,-0.000106274,-0.000075855,-0.001883414,0.005730741,-0.003967966,0.011767751,-0.000561624,0.998919170,-0.001919362,-0.000218653,-0.000662680,0.000000000,0.000000000,0.000000000,0.000000000,0.014114242,0.008887310,0.055731336,0.008563198,0.000091993,-0.000638720,0.005600361,0.000152813,-0.001575058,-0.124233897,0.373966507,-0.537194528,-0.001099423,-0.003258351,-0.004691395,0.999981701,0.000000000,0.000000000,0.000000000,0.000000000,0.000000000,0.000000000,-0.536930966,0.000000000,4.165824981
1772660537.152339935,0.013912000,0.008877000,0.055749000,-0.001323020,0.002947200,-0.007047720,0.999969950,-0.002688000,0.005876000,-0.014104000,0.000072106,-0.000030964,-0.000091045,-0.002415329,0.000711907,-0.000213638,0.011375196,0.001070811,0.999559353,-0.001463667,0.001692172,0.001145400,0.000000000,0.000000000,0.000000000,0.000000000,0.013952928,0.008878319,0.055746025,0.009267418,0.000255554,-0.000738525,0.004203513,0.002272202,-0.000529570,-0.124285450,0.388202818,-0.536342178,-0.001100432,-0.003382590,-0.004684092,0.999981701,0.000000000,0.000000000,0.000000000,0.000000000,0.000000000,0.000000000,-0.536637809,0.000000000,4.165400463
1772660537.162339926,0.013915000,0.008873000,0.055742000,-0.001349260,0.003129230,-0.007032970,0.999969460,-0.002743000,0.006239000,-0.014075000,-0.000052156,0.000120668,-0.000034266,-0.002499844,0.001564664,0.000500677,0.011161821,0.000500954,0.999431274,0.000079180,0.003860546,0.000216975,0.000000000,0.000000000,0.000000000,0.000000000,0.014035439,0.008880948,0.055737665,0.009819476,0.000541003,-0.000785128,0.004295771,0.003830550,-0.000464370,-0.125131733,0.387399658,-0.536255508,-0.001107782,-0.003375548,-0.004683353,0.999981745,0.000000000,0.000000000,0.000000000,0.000000000,0.000000000,0.000000000,-0.536167951,0.000000000,4.164975945
1772660537.172339678,0.013912000,0.008873000,0.055745000,-0.001319780,0.003039050,-0.007069790,0.999969520,-0.002683000,0.006059000,-0.014148000,0.000117580,-0.000010664,-0.000069173,-0.002319910,0.001427554,-0.000086134,0.012257871,0.000281238,0.998335660,-0.001209036,0.000394136,0.000955615,0.000000000,0.000000000,0.000000000,0.000000000,0.014073059,0.008883539,0.055732759,0.010218511,0.000824014,-0.000840134,0.004919536,0.001751093,-0.002166406,-0.125198536,0.386247348,-0.535373144,-0.001108292,-0.003365498,-0.004675644,0.999981801,0.000000000,0.000000000,0.000000000,0.000000000,0.000000000,0.000000000,-0.535253697,0.000000000,4.165056155
1772660537.182339907,0.013909000,0.008879000,0.055752000,-0.001353780,0.002949830,-0.007023090,0.999970070,-0.002749000,0.005880000,-0.014054000,0.000122863,-0.000034460,0.000082323,0.000871073,-0.003712968,-0.001840338,0.012614541,0.000615816,0.997279722,0.002850199,0.000132262,0.003299010,0.000000000,0.000000000,0.000000000,0.000000000,0.014094739,0.008888725,0.055731603,0.010620366,0.001044121,-0.000964458,0.005593082,0.002297312,-0.001394119,-0.125257925,0.384334653,-0.535306533,-0.001108730,-0.003348805,-0.004675046,0.999981821,0.000000000,0.000000000,0.000000000,0.000000000,0.000000000,0.000000000,-0.535313578,0.000000000,4.165462796
1772660537.192340374,0.013915000,0.008880000,0.055742000,-0.001346340,0.003062660,-0.007064280,0.999969450,-0.002736000,0.006106000,-0.014137000,0.000039666,0.000000796,0.000182887,0.001804753,-0.006677185,-0.002538485,0.011162600,0.000588935,0.998242631,0.000797161,-0.004291511,0.002103275,0.000000000,0.000000000,0.000000000,0.000000000,0.014111013,0.008895982,0.055728803,0.011073155,0.001315372,-0.001181358,0.005212530,0.003184732,-0.002679313,-0.125919377,0.385184560,-0.534700275,-0.001114519,-0.003356201,-0.004669783,0.999981898,0.000000000,0.000000000,0.000000000,0.000000000,0.000000000,0.000000000,-0.534583526,0.000000000,4.165869447
1772660537.202340603,0.013920000,0.008877000,0.055750000,-0.001290640,0.003078760,-0.007042110,0.999969630,-0.002625000,0.006139000,-0.014092000,-0.000031158,-0.000038598,0.000203438,0.000669417,-0.012478986,-0.000732579,0.011145364,0.000671247,0.998748144,-0.000191872,-0.004726511,0.000701131,0.000000000,0.000000000,0.000000000,0.000000000,0.014119943,0.008899773,0.055725588,0.011307832,0.001488739,-0.001318658,0.004095267,0.003483624,-0.000817755,-0.125807013,0.385064220,-0.534303045,-0.001113522,-0.003355159,-0.004666312,0.999981940,0.000000000,0.000000000,0.000000000,0.000000000,0.000000000,0.000000000,-0.533137589,0.000000000,4.166276088
