t,px,py,pz,qx,qy,qz,qw,roll,pitch,yaw,vx,vy,vz,wx_vicon,wy_vicon,wz_vicon,imu_acc_x,imu_acc_y,imu_acc_z,imu_gyro_x,imu_gyro_y,imu_gyro_z,motor_motor_m1,motor_motor_m2,motor_motor_m3,motor_motor_m4,est_stateEstimate_x,est_stateEstimate_y,est_stateEstimate_z,est_stateEstimate_vx,est_stateEstimate_vy,est_stateEstimate_vz,est_stateEstimate_ax,est_stateEstimate_ay,est_stateEstimate_az,att_stateEstimate_roll,att_stateEstimate_pitch,att_stateEstimate_yaw,att_stateEstimate_qx,att_stateEstimate_qy,att_stateEstimate_qz,att_stateEstimate_qw,sp_ctrltarget_x,sp_ctrltarget_y,sp_ctrltarget_z,sp_ctrltarget_yaw,pid_controller_roll,pid_controller_pitch,pid_controller_yaw,pid_controller_cmd_thrust,pwr_pm_vbat
1772428213.158331156,0.019242000,0.007652000,0.071136000,-0.004905970,-0.006611740,-0.013521100,0.999874690,-0.009633000,-0.013355000,-0.026980000,0.001994971,-0.001897302,0.001800546,-0.017793749,0.131752879,0.010203274,0.024128295,-0.004979929,0.996381775,-0.001180008,0.000449275,-0.002776569,0.000000000,0.000000000,0.000000000,0.000000000,0.019524361,0.007728817,0.071085185,0.014285371,0.004009816,-0.003544715,0.005910334,-0.000019122,-0.003161948,-0.292259235,1.035588628,-1.099695646,-0.002636941,-0.009012183,-0.009619122,0.999908632,0.000000000,0.000000000,0.000000000,0.000000000,0.000000000,0.000000000,-1.100017985,0.000000000,4.164809227
1772428213.168330431,0.019246000,0.007654000,0.071134000,-0.004976090,-0.006054900,-0.013458510,0.999878720,-0.009789000,-0.012243000,-0.026859000,0.001081450,-0.000477021,0.000823855,-0.005387093,0.051808968,0.008192364,0.025544673,-0.003594797,0.997713673,-0.001009413,-0.002542080,0.001317040,0.000000000,0.000000000,0.000000000,0.000000000,0.019526138,0.007731302,0.071086213,0.014507412,0.003971432,-0.003644306,0.007577500,0.001203393,-0.001990021,-0.292115409,1.034252989,-1.098877775,-0.002635510,-0.009000559,-0.009611948,0.999908812,0.000000000,0.000000000,0.000000000,0.000000000,0.000000000,0.000000000,-1.098818309,0.000000000,4.164809227
1772428213.178329945,0.019259000,0.007636000,0.071157000,-0.004976060,-0.006105010,-0.013480430,0.999878120,-0.009787000,-0.012343000,-0.026902000,0.000452662,0.000276010,0.000190055,0.000218548,-0.002026334,0.005084184,0.023276186,-0.002543372,0.996467916,-0.000649346,0.000513538,-0.000332437,0.000000000,0.000000000,0.000000000,0.000000000,0.019524591,0.007732590,0.071078729,0.014767732,0.003982533,-0.003778734,0.005716973,0.002011286,-0.003081273,-0.292003644,1.033086593,-1.098649251,-0.002634419,-0.008990395,-0.009609920,0.999908957,0.000000000,0.000000000,0.000000000,0.000000000,0.000000000,0.000000000,-1.098501393,0.000000000,4.164809227
1772428213.188330412,0.019275000,0.007639000,0.071153000,-0.004966530,-0.006157560,-0.013423050,0.999878610,-0.009767000,-0.012447000,-0.026787000,0.000063151,0.000514938,-0.000160995,0.000949815,-0.033256630,0.001322639,0.021947055,-0.001951361,0.998073701,-0.002046568,0.001641918,-0.002644136,0.000000000,0.000000000,0.000000000,0.000000000,0.019528611,0.007732639,0.071067561,0.014883292,0.004166613,-0.003998982,0.004514149,0.002459081,-0.001369579,-0.291889601,1.031862052,-1.098163391,-0.002633284,-0.008979731,-0.009605645,0.999909108,0.000000000,0.000000000,0.000000000,0.000000000,0.000000000,0.000000000,-1.098297883,0.000000000,4.164809227
1772428213.198330402,0.019259000,0.007662000,0.071148000,-0.004941990,-0.006209280,-0.013401070,0.999878710,-0.009717000,-0.012550000,-0.026743000,-0.000132537,0.000392910,-0.000289433,-0.001266737,-0.045385806,-0.002647958,0.022935906,-0.002767017,0.999046912,-0.001053029,-0.002818295,0.000156348,0.000000000,0.000000000,0.000000000,0.000000000,0.019537318,0.007726620,0.071073129,0.014902212,0.004347492,-0.003936402,0.004778130,0.002323509,-0.000605560,-0.292360189,1.030918933,-1.097385477,-0.002637250,-0.008971480,-0.009598872,0.999909176,0.000000000,0.000000000,0.000000000,0.000000000,0.000000000,0.000000000,-1.097585929,0.000000000,4.164809227
1772428213.208330870,0.019258000,0.007662000,0.071137000,-0.005001020,-0.006637260,-0.013427660,0.999875310,-0.009824000,-0.013408000,-0.026791000,-0.000179856,0.000063073,-0.000255400,-0.004504910,-0.041917554,-0.006387107,0.022386815,-0.002986151,0.997903368,-0.001357197,-0.002859124,0.000902222,0.000000000,0.000000000,0.000000000,0.000000000,0.019549810,0.007725030,0.071076441,0.014965689,0.004427845,-0.003844994,0.005103441,0.001990527,-0.001477045,-0.293210197,1.030184753,-1.096310774,-0.002644522,-0.008965027,-0.009589545,0.999909309,0.000000000,0.000000000,0.000000000,0.000000000,0.000000000,0.000000000,-1.096580395,0.000000000,4.164809227
1772428213.218330622,0.019267000,0.007642000,0.071148000,-0.005029450,-0.006676490,-0.013530600,0.999873520,-0.009878000,-0.013488000,-0.026996000,-0.000077176,-0.000307809,-0.000091181,-0.004109044,-0.024588475,-0.010776652,0.021253002,-0.003871208,0.998297852,-0.001014663,-0.002206835,-0.000100794,0.000000000,0.000000000,0.000000000,0.000000000,0.019550052,0.007734374,0.071075940,0.014994654,0.004534851,-0.003856483,0.003887233,0.001346189,-0.001473718,-0.293492258,1.029325724,-1.095287442,-0.002646832,-0.008957531,-0.009580619,0.999909456,0.000000000,0.000000000,0.000000000,0.000000000,0.000000000,0.000000000,-1.095476451,0.000000000,4.164809227
1772428213.228331089,0.019250000,0.007650000,0.071139000,-0.005060860,-0.006845980,-0.013548730,0.999871970,-0.009936000,-0.013828000,-0.027031000,-0.000074009,-0.000458101,0.000044600,-0.000987171,0.006517109,-0.012674299,0.021262160,-0.004909863,0.999294649,0.000349239,-0.002404444,-0.001177118,0.000000000,0.000000000,0.000000000,0.000000000,0.019548435,0.007741352,0.071072516,0.014900702,0.004551821,-0.003827488,0.002802456,-0.000224358,-0.000029661,-0.293492258,1.029325724,-1.095287442,-0.002646832,-0.008957531,-0.009580619,0.999909595,0.000000000,0.000000000,0.000000000,0.000000000,0.000000000,0.000000000,-1.094699650,0.000000000,4.164809227
1772428213.238330841,0.019256000,0.007646000,0.071144000,-0.005078460,-0.006680130,-0.013597060,0.999872340,-0.009975000,-0.013497000,-0.027129000,-0.000091453,-0.000111791,-0.000047786,0.001641346,0.038749588,-0.007273354,0.023955035,-0.003508616,0.997151700,0.001193556,0.000603807,0.000445347,0.000000000,0.000000000,0.000000000,0.000000000,0.019548255,0.007741510,0.071071217,0.014796227,0.004533024,-0.003778517,0.005427390,0.001476885,-0.002361942,-0.292465457,1.028216421,-1.094469990,-0.002637716,-0.008947956,-0.009573382,0.999909680,0.000000000,0.000000000,0.000000000,0.000000000,0.000000000,0.000000000,-1.094320005,0.000000000,4.164809227
1772428213.248330832,0.019272000,0.007635000,0.071149000,-0.005029150,-0.006565460,-0.013638830,0.999872780,-0.009879000,-0.013267000,-0.027214000,-0.000137316,0.000120435,0.000083100,0.002835809,0.044252723,-0.002483233,0.025740503,-0.004021217,0.997842750,-0.002170402,0.003110420,0.000667824,0.000000000,0.000000000,0.000000000,0.000000000,0.019546592,0.007737263,0.071071866,0.014864906,0.004539259,-0.003806005,0.007910223,0.001136700,-0.002408569,-0.291264415,1.026206028,-1.093778666,-0.002627015,-0.008930531,-0.009567213,0.999909863,0.000000000,0.000000000,0.000000000,0.000000000,0.000000000,0.000000000,-1.093926037,0.000000000,4.164809227
1772428213.258331537,0.019259000,0.007639000,0.071148000,-0.004952880,-0.006153570,-0.013710630,0.999874800,-0.009737000,-0.012442000,-0.027362000,-0.000250719,0.000312607,-0.000135936,0.000877214,0.033267670,0.002920604,0.025415285,-0.004019269,0.999040265,0.000783936,0.001802256,0.001278879,0.000000000,0.000000000,0.000000000,0.000000000,0.019543330,0.007737062,0.071070154,0.015093627,0.004544404,-0.003846361,0.007640199,0.001050751,-0.000854551,-0.290392925,1.025128987,-1.093451117,-0.002619295,-0.008921213,-0.009564265,0.999910034,0.000000000,0.000000000,0.000000000,0.000000000,0.000000000,0.000000000,-1.093513514,0.000000000,4.164809227
1772428213.268331289,0.019241000,0.007664000,0.071129000,-0.004977390,-0.005711920,-0.013598550,0.999878830,-0.009799000,-0.011558000,-0.027142000,-0.000210043,0.000209441,-0.000296931,0.000168228,0.014297170,0.003905458,0.024219306,-0.006208353,0.997265777,0.000991342,0.003306041,-0.003276609,0.000000000,0.000000000,0.000000000,0.000000000,0.019546644,0.007734797,0.071071128,0.015305580,0.004491233,-0.003784399,0.006587700,-0.000634298,-0.002035654,-0.289799824,1.024359818,-1.093733378,-0.002614078,-0.008914544,-0.009566664,0.999910091,0.000000000,0.000000000,0.000000000,0.000000000,0.000000000,0.000000000,-1.093538340,0.000000000,4.164809227
1772428213.278331995,0.019251000,0.007657000,0.071142000,-0.005031870,-0.006007440,-0.013530290,0.999877750,-0.009901000,-0.012150000,-0.027002000,-0.000117949,0.000180944,-0.000213403,0.000021748,-0.014785179,0.004536357,0.026614674,-0.006315479,0.998130484,0.000664563,-0.000950401,0.001635805,0.000000000,0.000000000,0.000000000,0.000000000,0.019557210,0.007727232,0.071074282,0.015516615,0.004265436,-0.003819338,0.008309516,-0.001650358,-0.001783945,-0.289317450,1.023290030,-1.093586880,-0.002609769,-0.008905252,-0.009565325,0.999910165,0.000000000,0.000000000,0.000000000,0.000000000,0.000000000,0.000000000,-1.093837334,0.000000000,4.164809227
1772428213.288332224,0.019261000,0.007637000,0.071151000,-0.005043230,-0.006484490,-0.013603580,0.999873720,-0.009910000,-0.013105000,-0.027144000,0.000130789,0.000151748,-0.000009674,0.001278297,-0.024882407,0.002122121,0.024826232,-0.004135112,0.999641777,0.001153296,-0.000187979,-0.001214401,0.000000000,0.000000000,0.000000000,0.000000000,0.019556913,0.007725444,0.071073326,0.015757980,0.003974691,-0.003844442,0.007808220,-0.001017345,-0.001465063,-0.289096713,1.022743702,-1.093181729,-0.002607766,-0.008900512,-0.009561761,0.999910324,0.000000000,0.000000000,0.000000000,0.000000000,0.000000000,0.000000000,-1.093065413,0.000000000,4.164809227
1772428213.298332691,0.019245000,0.007660000,0.071124000,-0.005020260,-0.006244150,-0.013537990,0.999876260,-0.009871000,-0.012623000,-0.027015000,0.000323194,0.000001107,0.000173058,0.002907957,-0.020456062,-0.001097014,0.024136875,-0.004909034,0.998602028,-0.005369311,-0.002323918,-0.000724445,0.000000000,0.000000000,0.000000000,0.000000000,0.019552706,0.007732787,0.071066171,0.016019056,0.003928996,-0.003739668,0.006740478,-0.000142217,-0.001256897,-0.290351627,1.021943687,-1.092937135,-0.002618631,-0.008893432,-0.009559707,0.999910355,0.000000000,0.000000000,0.000000000,0.000000000,0.000000000,0.000000000,-1.092777791,0.000000000,4.164809227
1772428213.308332443,0.019260000,0.007650000,0.071135000,-0.004944410,-0.006456700,-0.013617350,0.999874210,-0.009713000,-0.013047000,-0.027173000,0.000240074,-0.000114122,0.000396776,0.004773881,0.000371343,-0.002120549,0.024534487,-0.003850631,0.998047763,-0.001307334,0.000790744,-0.002418427,0.000000000,0.000000000,0.000000000,0.000000000,0.019557472,0.007731194,0.071069826,0.016173698,0.003868637,-0.003689579,0.006492898,0.000597443,-0.001539313,-0.291362137,1.021299481,-1.092319674,-0.002632422,-0.008883623,-0.009554419,0.999910401,0.000000000,0.000000000,0.000000000,0.000000000,0.000000000,0.000000000,-1.092520357,0.000000000,4.164809227
1772428213.318332434,0.019267000,0.007652000,0.071157000,-0.004942860,-0.006469930,-0.013585070,0.999874570,-0.009710000,-0.013073000,-0.027108000,0.000226593,-0.000049126,0.000399573,0.003118047,0.012923413,-0.000750777,0.023439731,-0.003200767,0.999382849,-0.003603497,-0.000724018,0.002479256,0.000000000,0.000000000,0.000000000,0.000000000,0.019565323,0.007722381,0.071074476,0.016320871,0.003826368,-0.003642324,0.006629143,0.001156693,-0.001562775,-0.292402327,1.019656486,-1.090958606,-0.002640357,-0.008869961,-0.009542582,0.999910607,0.000000000,0.000000000,0.000000000,0.000000000,0.000000000,0.000000000,-1.091412399,0.000000000,4.164809227
1772428213.328331947,0.019256000,0.007660000,0.071145000,-0.004938000,-0.006094780,-0.013609960,0.999876610,-0.009710000,-0.012323000,-0.027162000,0.000216006,-0.000194522,0.000318920,-0.001702207,0.015028564,0.000096409,0.023860825,-0.002970851,0.998813564,-0.001470570,-0.000175456,0.002632215,0.000000000,0.000000000,0.000000000,0.000000000,0.019567826,0.007726005,0.071069253,0.016515208,0.003973242,-0.003531546,0.006810353,0.001669579,-0.001450720,-0.292946004,1.017630755,-1.090331606,-0.002640709,-0.008855642,-0.009537081,0.999910892,0.000000000,0.000000000,0.000000000,0.000000000,0.000000000,0.000000000,-1.090343057,0.000000000,4.164809227
1772428213.338332653,0.019258000,0.007647000,0.071150000,-0.004984050,-0.006126960,-0.013578750,0.999876610,-0.009801000,-0.012388000,-0.027098000,0.000033508,-0.000135004,0.000068240,-0.004950581,0.003363333,-0.000455183,0.024359567,-0.002665277,0.998176257,0.000391570,0.000892425,0.002339527,0.000000000,0.000000000,0.000000000,0.000000000,0.019573688,0.007728752,0.071072359,0.016737249,0.004087594,-0.003438969,0.006967628,0.002207817,-0.001367820,-0.292666653,1.016277361,-1.090374950,-0.002638163,-0.008843855,-0.009537408,0.999911115,0.000000000,0.000000000,0.000000000,0.000000000,0.000000000,0.000000000,-1.089415254,0.000000000,4.164809227
1772428213.348331690,0.019268000,0.007640000,0.071159000,-0.004969400,-0.006207580,-0.013551510,0.999876560,-0.009770000,-0.012549000,-0.027043000,-0.000224068,0.000195202,-0.000386578,-0.004353751,-0.006669703,0.000808819,0.024667117,-0.002423129,0.998012372,0.000162597,0.002594289,0.001945001,0.000000000,0.000000000,0.000000000,0.000000000,0.019579965,0.007732166,0.071079816,0.016936921,0.004205358,-0.003403669,0.006832264,0.002976469,-0.001619364,-0.293157012,1.015156078,-1.089055612,-0.002642247,-0.008834060,-0.009525910,0.999911264,0.000000000,0.000000000,0.000000000,0.000000000,0.000000000,0.000000000,-1.088062675,0.000000000,4.164809227
1772428213.358331919,0.019270000,0.007648000,0.071146000,-0.005018600,-0.006446000,-0.013628180,0.999873760,-0.009861000,-0.013028000,-0.027194000,-0.000139569,0.000279099,-0.000371543,0.000230877,-0.024834079,0.000983614,0.024900625,-0.004629565,0.998751992,0.001398337,0.001629631,0.001404165,0.000000000,0.000000000,0.000000000,0.000000000,0.019657359,0.007755583,0.071064167,0.016569520,0.004015986,-0.003032708,0.006876186,0.000591971,-0.000827073,-0.290465854,1.024308343,-1.093881357,-0.002619905,-0.008914038,-0.009568002,0.999910834,0.000000000,0.000000000,0.000000000,0.000000000,0.000000000,0.000000000,-1.102781232,0.000000000,4.164809227
1772428213.368331432,0.019251000,0.007657000,0.071132000,-0.005049400,-0.006201810,-0.013595040,0.999875600,-0.009930000,-0.012540000,-0.027130000,-0.000009402,0.000237821,-0.000117308,0.002459255,-0.025693791,0.001744474,0.024736477,-0.005363969,0.998707490,-0.001485145,0.004067829,0.001178171,0.000000000,0.000000000,0.000000000,0.000000000,0.019420951,0.007693248,0.071118409,0.014766498,0.003283965,-0.002264650,0.006579571,-0.000568442,-0.000847121,-0.286706169,1.036647943,-1.100759000,-0.002588665,-0.009021870,-0.009627983,0.999907720,0.000000000,0.000000000,0.000000000,0.000000000,0.000000000,0.000000000,-1.105108084,0.000000000,4.164809227
1772428213.378331184,0.019253000,0.007667000,0.071141000,-0.004988980,-0.006623590,-0.013566240,0.999873590,-0.009798000,-0.013381000,-0.027069000,0.000168260,0.000069231,0.000045319,0.003570669,-0.021675987,0.000407428,0.024281164,-0.004941419,0.998263117,-0.003046365,0.002440210,0.001705016,0.000000000,0.000000000,0.000000000,0.000000000,0.019494369,0.007705484,0.071109777,0.015302731,0.003230026,-0.002348800,0.006082370,0.000260306,-0.002131028,-0.284359110,1.043719054,-1.104885075,-0.002569096,-0.009083674,-0.009663954,0.999908069,0.000000000,0.000000000,0.000000000,0.000000000,0.000000000,0.000000000,-1.103674156,0.000000000,4.164809227
1772428213.388331890,0.019264000,0.007653000,0.071146000,-0.004936180,-0.006769620,-0.013563220,0.999872910,-0.009689000,-0.013672000,-0.027062000,0.000169717,-0.000255342,0.000106313,0.000520294,-0.018212263,-0.001424164,0.024405025,-0.004187352,0.996970629,-0.000732085,0.000877804,-0.000901306,0.000000000,0.000000000,0.000000000,0.000000000,0.019533389,0.007704230,0.071106488,0.015667263,0.003122798,-0.002369750,0.005885888,0.001079734,-0.003361235,-0.284704787,1.041107298,-1.103417358,-0.002571777,-0.009060888,-0.009651119,0.999908235,0.000000000,0.000000000,0.000000000,0.000000000,0.000000000,0.000000000,-1.101939791,0.000000000,4.164809227
1772428213.398331404,0.019266000,0.007652000,0.071147000,-0.004933160,-0.006750760,-0.013545220,0.999873300,-0.009683000,-0.013634000,-0.027026000,0.000345688,-0.000515968,0.000197553,-0.001515662,-0.018253355,-0.003261400,0.024903870,-0.003063245,0.999242532,-0.000976045,0.003649354,-0.002255100,0.000000000,0.000000000,0.000000000,0.000000000,0.019559833,0.007703579,0.071102941,0.015934075,0.003195359,-0.002619727,0.006629359,0.001455873,-0.001428896,-0.284787423,1.040300462,-1.101484516,-0.002572278,-0.009053884,-0.009634244,0.999908501,0.000000000,0.000000000,0.000000000,0.000000000,0.000000000,0.000000000,-1.100629045,0.000000000,4.164809227
1772428213.408331156,0.019272000,0.007640000,0.071149000,-0.005009100,-0.006625280,-0.013612590,0.999872850,-0.009838000,-0.013386000,-0.027161000,0.000406741,-0.000552837,0.000059518,-0.003064524,-0.019700365,-0.005264123,0.025171022,-0.002498323,0.998918252,-0.002510838,0.004257727,-0.000132387,0.000000000,0.000000000,0.000000000,0.000000000,0.019565520,0.007705975,0.071093459,0.016197076,0.003290121,-0.002675184,0.007055253,0.002138698,-0.000513288,-0.284151442,1.038305067,-1.100266336,-0.002566465,-0.009036552,-0.009623523,0.999908896,0.000000000,0.000000000,0.000000000,0.000000000,0.000000000,0.000000000,-1.099130024,0.000000000,4.164809227
1772428213.418331146,0.019275000,0.007641000,0.071149000,-0.005017450,-0.007007240,-0.013648810,0.999869710,-0.009843000,-0.014150000,-0.027230000,0.000076554,-0.000260606,-0.000144639,-0.001857505,-0.016191948,-0.003916308,0.024800062,-0.000724590,0.996097001,-0.001134186,-0.004102309,-0.000830023,0.000000000,0.000000000,0.000000000,0.000000000,0.019578379,0.007706944,0.071095142,0.016484687,0.003525574,-0.002641943,0.007218192,0.003980333,-0.003644554,-0.283915036,1.035122911,-1.098288773,-0.002563981,-0.009008851,-0.009606181,0.999909137,0.000000000,0.000000000,0.000000000,0.000000000,0.000000000,0.000000000,-1.097587355,0.000000000,4.164809227
1772428213.428330660,0.019257000,0.007645000,0.071134000,-0.005067030,-0.006905850,-0.013662700,0.999869970,-0.009945000,-0.013949000,-0.027258000,-0.000273835,0.000121154,-0.000068823,0.002046878,-0.010108899,0.000382916,0.022295963,-0.004114333,0.997770462,-0.001449079,0.000557502,0.001920706,0.000000000,0.000000000,0.000000000,0.000000000,0.019580212,0.007715036,0.071093197,0.016647579,0.003806221,-0.002855119,0.004492864,0.001174714,-0.002237382,-0.285577967,1.033026197,-1.097530508,-0.002578257,-0.008990433,-0.009599650,0.999909306,0.000000000,0.000000000,0.000000000,0.000000000,0.000000000,0.000000000,-1.096377223,0.000000000,4.164809227
1772428213.438330412,0.019275000,0.007640000,0.071147000,-0.004979310,-0.007078400,-0.013618820,0.999869810,-0.009766000,-0.014291000,-0.027170000,-0.000377448,0.000392114,-0.000112335,0.006086247,0.010844463,0.007635828,0.023837835,-0.004860926,0.997346374,0.001835509,0.000510160,0.000960623,0.000000000,0.000000000,0.000000000,0.000000000,0.019574892,0.007725369,0.071089956,0.016620971,0.003887786,-0.002981033,0.005569459,-0.000004723,-0.002311387,-0.286538688,1.033038573,-1.095684585,-0.002586496,-0.008990502,-0.009583619,0.999909456,0.000000000,0.000000000,0.000000000,0.000000000,0.000000000,0.000000000,-1.094409879,0.000000000,4.164809227
1772428213.448329926,0.019269000,0.007643000,0.071146000,-0.004932490,-0.007011110,-0.013576530,0.999871090,-0.009674000,-0.014155000,-0.027086000,-0.000516415,0.000702021,-0.000141628,0.005543736,0.033755942,0.014037830,0.024258352,-0.004560323,0.997309411,0.003062269,-0.000070405,0.002525070,0.000000000,0.000000000,0.000000000,0.000000000,0.019574972,0.007731766,0.071085087,0.016698912,0.003833093,-0.003073939,0.006728068,0.000239066,-0.002355559,-0.285790969,1.032773804,-1.094139078,-0.002579828,-0.008988289,-0.009570068,0.999909512,0.000000000,0.000000000,0.000000000,0.000000000,0.000000000,0.000000000,-1.093560051,0.000000000,4.164809227
1772428213.458329678,0.019254000,0.007657000,0.071142000,-0.004906520,-0.006838360,-0.013527410,0.999873080,-0.009628000,-0.013808000,-0.026990000,-0.000371271,0.000443959,-0.000032343,0.003498306,0.048002604,0.014276474,0.022123129,-0.005017961,0.997531850,0.003906706,0.002699867,0.002360553,0.000000000,0.000000000,0.000000000,0.000000000,0.019576454,0.007734109,0.071082198,0.016766297,0.003791930,-0.003132587,0.004316379,-0.000001580,-0.002058533,-0.285433377,1.033295506,-1.093443117,-0.002576697,-0.008992887,-0.009563979,0.999909585,0.000000000,0.000000000,0.000000000,0.000000000,0.000000000,0.000000000,-1.093088670,0.000000000,4.164809227
1772428213.468329668,0.019248000,0.007659000,0.071143000,-0.004920620,-0.006278100,-0.013423310,0.999878090,-0.009672000,-0.012687000,-0.026787000,0.000021523,0.000062044,-0.000069969,-0.000532680,0.035202127,0.008272131,0.022564216,-0.005038425,0.997430609,0.002821452,0.000764046,0.001342973,0.000000000,0.000000000,0.000000000,0.000000000,0.019576717,0.007733651,0.071082127,0.016769860,0.003777088,-0.003153497,0.004360510,-0.000144254,-0.002087866,-0.285187578,1.032900394,-1.093026258,-0.002574486,-0.008989469,-0.009560315,0.999909661,0.000000000,0.000000000,0.000000000,0.000000000,0.000000000,0.000000000,-1.092714892,0.000000000,4.164809227
1772428213.478329420,0.019258000,0.007665000,0.071134000,-0.004923930,-0.006144900,-0.013345950,0.999879930,-0.009684000,-0.012420000,-0.026633000,0.000202292,-0.000391492,0.000003225,-0.003460828,0.008116383,0.000210492,0.023005293,-0.005058888,0.997329370,0.001736224,-0.001171729,0.000325417,0.000000000,0.000000000,0.000000000,0.000000000,0.019576980,0.007733193,0.071082057,0.016773423,0.003762246,-0.003174407,0.004404639,-0.000286924,-0.002117198,-0.284961317,1.032341726,-1.092658277,-0.002572437,-0.008984621,-0.009557074,0.999909736,0.000000000,0.000000000,0.000000000,0.000000000,0.000000000,0.000000000,-1.092341123,0.000000000,4.164809227
1772428213.488329649,0.019255000,0.007657000,0.071142000,-0.004981660,-0.006307400,-0.013397850,0.999877940,-0.009794000,-0.012747000,-0.026735000,0.000675914,-0.000792114,0.000235393,-0.002712128,-0.026875185,-0.006855967,0.023446391,-0.005079352,0.997228126,0.000650943,-0.003107596,-0.000692187,0.000000000,0.000000000,0.000000000,0.000000000,0.019577243,0.007732735,0.071081987,0.016776987,0.003747404,-0.003195317,0.004448771,-0.000429601,-0.002146531,-0.284735045,1.031783032,-1.092290278,-0.002570387,-0.008979773,-0.009553834,0.999909812,0.000000000,0.000000000,0.000000000,0.000000000,0.000000000,0.000000000,-1.091967337,0.000000000,4.164809227
1772428213.498330116,0.019272000,0.007631000,0.071148000,-0.004929600,-0.006516030,-0.013499490,0.999875490,-0.009683000,-0.013164000,-0.026937000,0.000678225,-0.000699593,0.000341045,-0.002901504,-0.048918586,-0.012070043,0.023994422,-0.004697183,0.997482093,-0.000265679,-0.003210608,-0.000244475,0.000000000,0.000000000,0.000000000,0.000000000,0.019582100,0.007723791,0.071083358,0.016725833,0.003637541,-0.003235508,0.004829761,-0.000282258,-0.002039891,-0.284508768,1.031224324,-1.091922271,-0.002568338,-0.008974924,-0.009550593,0.999909865,0.000000000,0.000000000,0.000000000,0.000000000,0.000000000,0.000000000,-1.091104325,0.000000000,4.164809227
1772428213.508330345,0.019280000,0.007633000,0.071143000,-0.005014510,-0.006914290,-0.013594520,0.999871110,-0.009841000,-0.013964000,-0.027122000,0.000067288,-0.000127894,0.000193182,-0.003489812,-0.038914425,-0.011477228,0.024797342,-0.003355157,0.998582869,-0.000780143,0.001055962,0.003696551,0.000000000,0.000000000,0.000000000,0.000000000,0.019589304,0.007713891,0.071083656,0.016755087,0.003546733,-0.003290885,0.006716502,0.001161490,-0.001325445,-0.283635794,1.031884495,-1.091120047,-0.002560712,-0.008980776,-0.009543539,0.999909982,0.000000000,0.000000000,0.000000000,0.000000000,0.000000000,0.000000000,-1.089847455,0.000000000,4.164809227
1772428213.518330336,0.019269000,0.007634000,0.071157000,-0.004967830,-0.007178210,-0.013586250,0.999869600,-0.009740000,-0.014490000,-0.027104000,-0.000381333,0.000366065,0.000117250,-0.004178093,-0.010813087,-0.005953372,0.021571361,-0.003548522,0.998977149,0.001933417,0.002296460,-0.001047789,0.000000000,0.000000000,0.000000000,0.000000000,0.019594734,0.007708888,0.071083150,0.016864299,0.003544526,-0.003329736,0.004142093,0.001341313,-0.000899831,-0.283135436,1.032067448,-1.089750857,-0.002556254,-0.008982444,-0.009531556,0.999910133,0.000000000,0.000000000,0.000000000,0.000000000,0.000000000,0.000000000,-1.088289146,0.000000000,4.164809227
1772428213.528330326,0.019273000,0.007643000,0.071147000,-0.005012430,-0.007020790,-0.013603550,0.999870260,-0.009834000,-0.014177000,-0.027139000,-0.000559655,0.000598388,-0.000132926,-0.003881547,0.014265422,-0.000706876,0.022563590,-0.004337948,0.997766292,0.005049967,-0.001705305,-0.000241151,0.000000000,0.000000000,0.000000000,0.000000000,0.019593913,0.007706855,0.071088378,0.016771595,0.003587416,-0.003268213,0.004226947,0.000749938,-0.001514367,-0.282407461,1.031910558,-1.087829520,-0.002549738,-0.008981178,-0.009514730,0.999910355,0.000000000,0.000000000,0.000000000,0.000000000,0.000000000,0.000000000,-1.086316748,0.000000000,4.164809227
1772428213.538330317,0.019257000,0.007658000,0.071148000,-0.005069540,-0.006818000,-0.013610060,0.999871280,-0.009953000,-0.013773000,-0.027153000,-0.000491259,0.000495280,-0.000293920,-0.003461735,0.024694242,0.002118238,0.024340180,-0.005755062,0.997106708,0.000558839,-0.000653565,0.000193560,0.000000000,0.000000000,0.000000000,0.000000000,0.019593345,0.007710527,0.071086647,0.016667904,0.003583890,-0.003276908,0.006106592,-0.000750692,-0.002504486,-0.281260720,1.031152507,-1.085960906,-0.002539523,-0.008974701,-0.009498319,0.999910640,0.000000000,0.000000000,0.000000000,0.000000000,0.000000000,0.000000000,-1.084470754,0.000000000,4.164809227
1772428213.548330307,0.019243000,0.007660000,0.071140000,-0.005062250,-0.006441080,-0.013557700,0.999874530,-0.009950000,-0.013018000,-0.027052000,0.000043551,-0.000095299,-0.000265735,-0.003616681,0.013697865,-0.000054852,0.025257515,-0.006002927,0.996820200,0.003998318,-0.000142325,0.001979219,0.000000000,0.000000000,0.000000000,0.000000000,0.019583924,0.007716793,0.071082930,0.016804770,0.003414229,-0.003421157,0.007764389,-0.001462536,-0.002806018,-0.280739576,1.029662819,-1.084151925,-0.002534711,-0.008961785,-0.009482462,0.999910901,0.000000000,0.000000000,0.000000000,0.000000000,0.000000000,0.000000000,-1.082853095,0.000000000,4.164809227
1772428213.558330297,0.019263000,0.007647000,0.071148000,-0.005054870,-0.006701880,-0.013588000,0.999872440,-0.009927000,-0.013540000,-0.027111000,0.000401613,-0.000432596,-0.000158897,-0.003786703,-0.009058482,-0.003377932,0.024570248,-0.004750452,1.000344706,0.000157538,-0.001046361,-0.002533403,0.000000000,0.000000000,0.000000000,0.000000000,0.019577215,0.007720932,0.071079992,0.016935722,0.003252312,-0.003520496,0.006663955,-0.000354617,0.000102103,-0.280562188,1.028017141,-1.082239602,-0.002532878,-0.008947482,-0.009465728,0.999911146,0.000000000,0.000000000,0.000000000,0.000000000,0.000000000,0.000000000,-1.080916757,0.000000000,4.164809227
1772428213.568331242,0.019265000,0.007639000,0.071137000,-0.005057060,-0.006747070,-0.013629580,0.999871560,-0.009930000,-0.013631000,-0.027193000,0.000448252,-0.000644523,0.000252953,0.000052669,-0.033265120,-0.005903115,0.024418794,-0.003218920,1.001721993,0.002489480,-0.002368668,-0.001634425,0.000000000,0.000000000,0.000000000,0.000000000,0.019584183,0.007713688,0.071080173,0.017030306,0.003168454,-0.003340774,0.006377967,0.001363571,0.001876829,-0.278900989,1.027631941,-1.080244341,-0.002518196,-0.008944302,-0.009448180,0.999911308,0.000000000,0.000000000,0.000000000,0.000000000,0.000000000,0.000000000,-1.079297763,0.000000000,4.164809227
1772428213.578330517,0.019274000,0.007642000,0.071138000,-0.005084450,-0.006984570,-0.013622650,0.999869890,-0.009978000,-0.014106000,-0.027177000,0.000230303,-0.000194639,0.000149068,0.003184783,-0.025095360,-0.005758400,0.027708430,-0.004433973,1.000628351,-0.001334318,-0.002096242,-0.000581726,0.000000000,0.000000000,0.000000000,0.000000000,0.019591220,0.007707320,0.071078784,0.017213398,0.003189143,-0.003007347,0.009304609,0.000466490,0.001537925,-0.278250361,1.027672278,-1.078393798,-0.002512377,-0.008944748,-0.009431982,0.999911447,0.000000000,0.000000000,0.000000000,0.000000000,0.000000000,0.000000000,-1.077791852,0.000000000,4.164809227
1772428213.588330507,0.019275000,0.007632000,0.071150000,-0.005134580,-0.007222860,-0.013707370,0.999866780,-0.010071000,-0.014585000,-0.027343000,-0.000291958,0.000420436,-0.000098446,0.005359623,-0.000651823,-0.001035470,0.025651917,-0.001848321,0.997131255,-0.000514919,0.001844415,-0.001082872,0.000000000,0.000000000,0.000000000,0.000000000,0.019601939,0.007703075,0.071084902,0.017627057,0.003210827,-0.002780237,0.008350335,0.002194102,-0.001816116,-0.278469818,1.027463495,-1.076686657,-0.002514142,-0.008942946,-0.009417098,0.999911683,0.000000000,0.000000000,0.000000000,0.000000000,0.000000000,0.000000000,-1.076847260,0.000000000,4.164809227
1772428213.598330259,0.019261000,0.007643000,0.071150000,-0.005020120,-0.007080840,-0.013683850,0.999868700,-0.009846000,-0.014298000,-0.027299000,-0.000660801,0.000699496,-0.000250661,0.005086705,0.027758252,0.003521445,0.024253490,-0.001543741,0.997405727,0.000333501,0.002036360,0.000754500,0.000000000,0.000000000,0.000000000,0.000000000,0.019605392,0.007702569,0.071091198,0.017837881,0.003366390,-0.002822113,0.006577118,0.003224838,-0.002459536,-0.277663930,1.024788953,-1.076927417,-0.002506909,-0.008919669,-0.009419083,0.999911910,0.000000000,0.000000000,0.000000000,0.000000000,0.000000000,0.000000000,-1.076148621,0.000000000,4.164809227
1772428213.608330250,0.019257000,0.007649000,0.071149000,-0.004968770,-0.006984230,-0.013678270,0.999869710,-0.009746000,-0.014103000,-0.027290000,-0.000299864,0.000424767,-0.000057925,0.002267928,0.027209623,0.002877997,0.023674648,-0.003739218,0.996295285,0.001100497,0.000748748,-0.000342019,0.000000000,0.000000000,0.000000000,0.000000000,0.019603866,0.007709983,0.071093956,0.017960251,0.003677690,-0.002861443,0.006227422,0.001149480,-0.002594943,-0.277593640,1.023112406,-1.076027828,-0.002506089,-0.008905065,-0.009411193,0.999912081,0.000000000,0.000000000,0.000000000,0.000000000,0.000000000,0.000000000,-1.075260276,0.000000000,4.164809227
1772428213.618330002,0.019248000,0.007672000,0.071126000,-0.004956900,-0.006341790,-0.013583510,0.999875340,-0.009741000,-0.012817000,-0.027106000,0.000187879,0.000058236,-0.000029176,-0.000487405,0.018065337,0.003135536,0.023686311,-0.004717457,0.996921489,0.001062863,0.002951446,-0.000052793,0.000000000,0.000000000,0.000000000,0.000000000,0.019599797,0.007726195,0.071084277,0.018034789,0.003773036,-0.002965282,0.006102272,0.000019556,-0.002528604,-0.277654868,1.021613862,-1.074978115,-0.002506419,-0.008892007,-0.009402007,0.999912294,0.000000000,0.000000000,0.000000000,0.000000000,0.000000000,0.000000000,-1.074130532,0.000000000,4.164809227
1772428213.628329515,0.019256000,0.007657000,0.071132000,-0.005001830,-0.006462990,-0.013547650,0.999874830,-0.009828000,-0.013060000,-0.027033000,0.000591648,-0.000270125,0.000131391,-0.003495862,0.007971846,0.002301391,0.024560610,-0.003957462,0.998967878,0.001474800,0.001744986,-0.000435541,0.000000000,0.000000000,0.000000000,0.000000000,0.019600773,0.007729590,0.071078558,0.018074721,0.003735285,-0.003167900,0.006615709,0.000645199,-0.001329359,-0.277921303,1.019975399,-1.073817655,-0.002508521,-0.008877713,-0.009391868,0.999912681,0.000000000,0.000000000,0.000000000,0.000000000,0.000000000,0.000000000,-1.072566539,0.000000000,4.164809227
1772428213.638329268,0.019267000,0.007645000,0.071150000,-0.005084760,-0.006630860,-0.013649050,0.999871930,-0.009988000,-0.013399000,-0.027233000,0.000386306,-0.000238539,0.000052117,-0.004507243,0.010693254,0.001290212,0.025092952,-0.004286025,0.999757258,0.000828694,-0.002668002,-0.000161429,0.000000000,0.000000000,0.000000000,0.000000000,0.019607762,0.007724260,0.071083500,0.018183526,0.003712609,-0.003071807,0.007282700,0.000807961,0.000006213,-0.278049817,1.017319289,-1.072162859,-0.002509297,-0.008854562,-0.009377385,0.999912770,0.000000000,0.000000000,0.000000000,0.000000000,0.000000000,0.000000000,-1.071269094,0.000000000,4.164809227
1772428213.648329496,0.019283000,0.007637000,0.071155000,-0.005082980,-0.006931430,-0.013671150,0.999869600,-0.009976000,-0.014000000,-0.027274000,0.000010664,-0.000004079,0.000080361,-0.002020698,0.016382213,0.003735898,0.024841987,-0.006094777,1.000195981,-0.001030796,-0.001861074,-0.002109098,0.000000000,0.000000000,0.000000000,0.000000000,0.019619352,0.007717225,0.071090251,0.018339643,0.003641176,-0.002952541,0.007091288,-0.001038691,0.000116469,-0.276928506,1.017222139,-1.070958640,-0.002499412,-0.008853833,-0.009366788,0.999913045,0.000000000,0.000000000,0.000000000,0.000000000,0.000000000,0.000000000,-1.069714640,0.000000000,4.164809227
1772428213.658329487,0.019275000,0.007648000,0.071143000,-0.005020640,-0.006584910,-0.013545420,0.999873970,-0.009863000,-0.013305000,-0.027027000,-0.000316026,0.000239355,0.000013559,0.002220122,0.021925915,0.006499180,0.024492756,-0.004869909,0.999834317,-0.001237032,-0.001407473,0.001249358,0.000000000,0.000000000,0.000000000,0.000000000,0.019620895,0.007716520,0.071090771,0.018439224,0.003508634,-0.002826330,0.006832897,-0.000984552,0.000403928,-0.276774547,1.015792446,-1.069579335,-0.002497846,-0.008841399,-0.009354712,0.999913151,0.000000000,0.000000000,0.000000000,0.000000000,0.000000000,0.000000000,-1.069033620,0.000000000,4.164809227
1772428213.668329239,0.019257000,0.007655000,0.071139000,-0.005021550,-0.006121550,-0.013563470,0.999876660,-0.009877000,-0.012378000,-0.027067000,-0.000466920,0.000471251,-0.000297630,0.004549190,0.024491246,0.007632736,0.024418569,-0.003653214,0.998952876,-0.000372166,-0.000134976,0.001601829,0.000000000,0.000000000,0.000000000,0.000000000,0.019619509,0.007717571,0.071089608,0.018522001,0.003361671,-0.002694847,0.006780482,0.000693860,-0.000665487,-0.276396606,1.015523152,-1.068992362,-0.002494481,-0.008839093,-0.009349555,0.999913354,0.000000000,0.000000000,0.000000000,0.000000000,0.000000000,0.000000000,-1.067120482,0.000000000,4.164809227
1772428213.678328753,0.019242000,0.007673000,0.071126000,-0.005000330,-0.005911470,-0.013480940,0.999879150,-0.009841000,-0.011957000,-0.026905000,-0.000302992,0.000154565,-0.000221368,0.003456782,0.004124307,0.003200335,0.025475794,-0.004345620,0.999309156,0.000620948,-0.000351808,-0.002098805,0.000000000,0.000000000,0.000000000,0.000000000,0.019770582,0.007744979,0.071067631,0.019075719,0.003390746,-0.002695088,0.007386776,0.000467832,-0.000424106,-0.275270647,1.016221578,-1.067666462,-0.002484611,-0.008845308,-0.009337911,0.999913500,0.000000000,0.000000000,0.000000000,0.000000000,0.000000000,0.000000000,-1.066077013,0.000000000,4.164809227
1772428213.688328743,0.019262000,0.007653000,0.071151000,-0.005020840,-0.006340090,-0.013466390,0.999876620,-0.009871000,-0.012814000,-0.026871000,0.000076923,-0.000489394,0.000276807,-0.000042510,-0.025856106,-0.005616410,0.024610226,-0.004032926,0.997596402,0.001331223,0.000173858,-0.004197303,0.000000000,0.000000000,0.000000000,0.000000000,0.019568799,0.007714081,0.071099524,0.018352626,0.003220589,-0.002416607,0.007197588,0.000459288,-0.001652419,-0.273937740,1.022993141,-1.072917162,-0.002473937,-0.008904392,-0.009383763,0.999912347,0.000000000,0.000000000,0.000000000,0.000000000,0.000000000,0.000000000,-1.072127672,0.000000000,4.164809227
1772428213.698328495,0.019263000,0.007649000,0.071143000,-0.004961610,-0.006478080,-0.013530760,0.999875160,-0.009748000,-0.013089000,-0.026999000,0.000449418,-0.000704604,0.000410335,-0.002415792,-0.038719413,-0.011792015,0.021628990,-0.003059204,0.999259827,0.000284145,0.000793037,0.001509973,0.000000000,0.000000000,0.000000000,0.000000000,0.019600596,0.007711709,0.071097040,0.018605244,0.003242596,-0.002466361,0.003941843,0.002027626,-0.000531571,-0.273040440,1.023076010,-1.071742240,-0.002466023,-0.008905214,-0.009373443,0.999912576,0.000000000,0.000000000,0.000000000,0.000000000,0.000000000,0.000000000,-1.070415592,0.000000000,4.164809227
1772428213.708328009,0.019269000,0.007643000,0.071141000,-0.005017200,-0.006775820,-0.013643740,0.999871370,-0.009849000,-0.013687000,-0.027222000,0.000364472,-0.000442211,0.000218143,-0.000715240,-0.025099296,-0.011738441,0.023120136,-0.006307358,0.997364071,0.001387699,-0.000359646,-0.002281271,0.000000000,0.000000000,0.000000000,0.000000000,0.019614662,0.007706615,0.071098022,0.018530239,0.003202857,-0.002488604,0.005041195,-0.001502855,-0.002202384,-0.272791357,1.021364143,-1.069512103,-0.002463537,-0.008890345,-0.009353929,0.999912981,0.000000000,0.000000000,0.000000000,0.000000000,0.000000000,0.000000000,-1.068193869,0.000000000,4.164809227
1772428213.718327284,0.019266000,0.007636000,0.071150000,-0.005044110,-0.006820570,-0.013707610,0.999870060,-0.009901000,-0.013778000,-0.027349000,0.000129876,-0.000036985,-0.000013792,0.000032814,-0.000772420,-0.008622700,0.023159402,-0.004339086,0.997673975,0.000614680,0.000131923,-0.000195217,0.000000000,0.000000000,0.000000000,0.000000000,0.019618940,0.007699471,0.071103027,0.018460775,0.002992312,-0.002562140,0.005502901,-0.000007466,-0.001966695,-0.272835289,1.018897745,-1.067636259,-0.002463574,-0.008868860,-0.009337515,0.999913151,0.000000000,0.000000000,0.000000000,0.000000000,0.000000000,0.000000000,-1.067026473,0.000000000,4.164809227
1772428213.728327513,0.019267000,0.007632000,0.071157000,-0.005045370,-0.006760660,-0.013710600,0.999870420,-0.009905000,-0.013658000,-0.027355000,-0.000224048,0.000348660,-0.000192152,-0.000013910,0.012516525,-0.001734364,0.023332366,-0.003564234,0.999332592,-0.000822086,0.001171676,0.000856304,0.000000000,0.000000000,0.000000000,0.000000000,0.019618793,0.007704987,0.071097548,0.018418363,0.002953712,-0.002681135,0.005424919,0.001194667,-0.000880665,-0.272064088,1.018868329,-1.067094612,-0.002456801,-0.008868678,-0.009332727,0.999913585,0.000000000,0.000000000,0.000000000,0.000000000,0.000000000,0.000000000,-1.064086708,0.000000000,4.164809227
1772428213.738327026,0.019263000,0.007659000,0.071137000,-0.005013560,-0.006316910,-0.013688360,0.999873790,-0.009854000,-0.012770000,-0.027316000,-0.000430323,0.000514025,-0.000100389,0.002411665,0.016862700,0.007372585,0.024920268,-0.003270141,0.998693513,-0.000252290,0.002695485,0.000780815,0.000000000,0.000000000,0.000000000,0.000000000,0.019454512,0.007683909,0.071117994,0.016288720,0.002500839,-0.002104365,0.005940375,0.000798766,-0.000322285,-0.271452556,1.023657869,-1.068672256,-0.002451977,-0.008910487,-0.009346542,0.999913153,0.000000000,0.000000000,0.000000000,0.000000000,0.000000000,0.000000000,-1.068983295,0.000000000,4.164809227
1772428213.748327017,0.019259000,0.007656000,0.071141000,-0.004942450,-0.006432400,-0.013630690,0.999874190,-0.009709000,-0.012998000,-0.027200000,-0.000452040,0.000429565,-0.000068532,0.003017689,0.021842348,0.012644049,0.023403489,-0.004051597,0.996698141,0.001685733,0.000541413,-0.004653658,0.000000000,0.000000000,0.000000000,0.000000000,0.019481157,0.007691928,0.071115282,0.017025165,0.002677618,-0.002333589,0.006296237,0.001120866,-0.002659885,-0.270840995,1.028447638,-1.070249975,-0.002447153,-0.008952297,-0.009360357,0.999911399,0.000000000,0.000000000,0.000000000,0.000000000,0.000000000,0.000000000,-1.072788642,0.000000000,4.164809227
1772428213.758327246,0.019263000,0.007652000,0.071144000,-0.005005190,-0.006494140,-0.013566420,0.999874360,-0.009834000,-0.013123000,-0.027070000,-0.000189744,0.000204565,0.000025622,0.001911421,0.024456924,0.013856138,0.022320888,-0.005245171,0.998210619,0.002064383,-0.001365451,-0.000103156,0.000000000,0.000000000,0.000000000,0.000000000,0.019546432,0.007695601,0.071109947,0.017422100,0.002726302,-0.002542263,0.004533231,-0.000654493,-0.001885033,-0.270229419,1.033237521,-1.071827732,-0.002442329,-0.008994109,-0.009374172,0.999911541,0.000000000,0.000000000,0.000000000,0.000000000,0.000000000,0.000000000,-1.072015900,0.000000000,4.164809227
1772428213.768327475,0.019248000,0.007652000,0.071147000,-0.005009150,-0.006501040,-0.013529430,0.999874790,-0.009842000,-0.013136000,-0.026996000,0.000305770,-0.000245960,0.000354021,0.001386883,0.010579831,0.008924115,0.023506384,-0.004705502,0.997996623,0.001572052,-0.001619508,0.000353518,0.000000000,0.000000000,0.000000000,0.000000000,0.019580506,0.007698444,0.071103717,0.017506983,0.002630279,-0.002665642,0.005174954,-0.000423734,-0.001883627,-0.269559541,1.034811252,-1.071837366,-0.002436612,-0.009007897,-0.009374234,0.999911688,0.000000000,0.000000000,0.000000000,0.000000000,0.000000000,0.000000000,-1.071043945,0.000000000,4.164809227
1772428213.778327465,0.019247000,0.007662000,0.071144000,-0.004925220,-0.006097980,-0.013410870,0.999879350,-0.009687000,-0.012327000,-0.026764000,0.000473252,-0.000250680,0.000094309,-0.002379171,0.005809792,0.005082867,0.024740348,-0.004127559,0.997739285,0.001064291,-0.001838364,0.000697334,0.000000000,0.000000000,0.000000000,0.000000000,0.019598551,0.007697234,0.071098876,0.017579547,0.002683732,-0.002753663,0.006326703,0.000248294,-0.002162561,-0.269454607,1.034032138,-1.070841195,-0.002435554,-0.009001129,-0.009365518,0.999911745,0.000000000,0.000000000,0.000000000,0.000000000,0.000000000,0.000000000,-1.070579020,0.000000000,4.164809227
1772428213.788327456,0.019270000,0.007644000,0.071154000,-0.005026800,-0.006056090,-0.013457150,0.999878470,-0.009890000,-0.012246000,-0.026855000,0.000311364,-0.000085412,-0.000348854,-0.004849755,0.007425581,-0.001746696,0.025212424,-0.003241893,1.000250246,-0.000739194,-0.000051419,-0.000443129,0.000000000,0.000000000,0.000000000,0.000000000,0.019594897,0.007705776,0.071081100,0.017687958,0.002744658,-0.002925447,0.007328907,0.001412426,-0.000452898,-0.270106971,1.033538131,-1.070159041,-0.002441153,-0.008996779,-0.009359606,0.999911846,0.000000000,0.000000000,0.000000000,0.000000000,0.000000000,0.000000000,-1.069743269,0.000000000,4.164809227
1772428213.798327208,0.019276000,0.007649000,0.071147000,-0.004968650,-0.006106590,-0.013474730,0.999878220,-0.009772000,-0.012346000,-0.026891000,0.000084227,-0.000146096,-0.000330886,-0.002894600,-0.007079334,-0.007016341,0.024120115,-0.003359337,1.000628779,-0.001957533,-0.003831073,0.000584105,0.000000000,0.000000000,0.000000000,0.000000000,0.019595266,0.007700969,0.071084774,0.017890513,0.002823483,-0.002803275,0.006471277,0.001482574,0.000632864,-0.270251838,1.032599035,-1.069747477,-0.002442308,-0.008988582,-0.009356008,0.999911964,0.000000000,0.000000000,0.000000000,0.000000000,0.000000000,0.000000000,-1.069805415,0.000000000,4.164809227
1772428213.808326721,0.019279000,0.007643000,0.071146000,-0.005012740,-0.006629200,-0.013580170,0.999873240,-0.009845000,-0.013393000,-0.027096000,-0.000024573,-0.000109732,-0.000200253,-0.002108853,-0.016855163,-0.009652214,0.024115421,-0.003181187,0.999605848,0.000382406,0.000357882,0.002805489,0.000000000,0.000000000,0.000000000,0.000000000,0.019601094,0.007701716,0.071093272,0.017954187,0.002879683,-0.002583221,0.005792409,0.001734887,0.000215091,-0.270127385,1.031209274,-1.069848441,-0.002441117,-0.008976463,-0.009356853,0.999911999,0.000000000,0.000000000,0.000000000,0.000000000,0.000000000,0.000000000,-1.070122257,0.000000000,4.164809227
1772428213.818326473,0.019251000,0.007661000,0.071118000,-0.005121300,-0.006206810,-0.013518330,0.999876240,-0.010074000,-0.012551000,-0.026975000,-0.000265404,0.000009246,0.000132692,0.000708501,-0.025112178,-0.008529843,0.024207286,-0.004281447,0.998599230,0.001722795,0.003721739,0.002791306,0.000000000,0.000000000,0.000000000,0.000000000,0.019607740,0.007706150,0.071097578,0.018026025,0.003013956,-0.002457459,0.006208115,0.001203261,-0.000832729,-0.271274998,1.030375707,-1.070017775,-0.002451077,-0.008969091,-0.009358404,0.999912262,0.000000000,0.000000000,0.000000000,0.000000000,0.000000000,0.000000000,-1.069211816,0.000000000,4.164809227
1772428213.828326464,0.019253000,0.007641000,0.071143000,-0.005031670,-0.006416250,-0.013661690,0.999873430,-0.009888000,-0.012969000,-0.027261000,-0.000295921,0.000230323,0.000146290,0.002802950,-0.016043780,-0.004648311,0.022870689,-0.004773015,0.998413675,-0.000639524,0.003317494,0.001381059,0.000000000,0.000000000,0.000000000,0.000000000,0.019610111,0.007709011,0.071100805,0.018099855,0.002998722,-0.002443493,0.005740355,-0.000328973,-0.001407564,-0.270248143,1.028019652,-1.069070283,-0.002441851,-0.008948637,-0.009350008,0.999912486,0.000000000,0.000000000,0.000000000,0.000000000,0.000000000,0.000000000,-1.068065883,0.000000000,4.164809227
1772428213.838326693,0.019263000,0.007647000,0.071154000,-0.004949190,-0.006656810,-0.013625970,0.999872750,-0.009717000,-0.013447000,-0.027188000,-0.000037685,0.000075874,0.000289686,0.002144124,-0.016005310,-0.002400539,0.021821028,-0.003822237,0.998990510,-0.001805238,0.002008684,0.000108426,0.000000000,0.000000000,0.000000000,0.000000000,0.019609576,0.007710466,0.071096751,0.018050504,0.002954166,-0.002470688,0.003943258,0.000564166,-0.000893033,-0.269806958,1.026872717,-1.067997730,-0.002437825,-0.008938688,-0.009340593,0.999912548,0.000000000,0.000000000,0.000000000,0.000000000,0.000000000,0.000000000,-1.067261656,0.000000000,4.164809227
1772428213.848326683,0.019269000,0.007654000,0.071149000,-0.004989560,-0.006582420,-0.013624720,0.999873060,-0.009800000,-0.013300000,-0.027186000,0.000157440,0.000043881,0.000053769,0.002905305,-0.015757981,0.000064455,0.023918171,-0.004210343,0.999001386,0.002549244,0.000180937,-0.002115915,0.000000000,0.000000000,0.000000000,0.000000000,0.019607915,0.007709092,0.071093790,0.017926232,0.002942807,-0.002455868,0.004923883,0.000466578,-0.000209380,-0.270286790,1.026357556,-1.067111636,-0.002441900,-0.008934173,-0.009332888,0.999912723,0.000000000,0.000000000,0.000000000,0.000000000,0.000000000,0.000000000,-1.066021904,0.000000000,4.164809227
1772428213.858326435,0.019263000,0.007653000,0.071151000,-0.004992210,-0.006819950,-0.013605200,0.999871720,-0.009799000,-0.013774000,-0.027145000,0.000207595,-0.000148815,-0.000067599,0.001943049,-0.024679317,0.000885552,0.025580384,-0.003379592,0.997183620,0.002454121,0.001076002,-0.003204166,0.000000000,0.000000000,0.000000000,0.000000000,0.019606592,0.007705790,0.071094347,0.017872893,0.002948390,-0.002431802,0.007470871,0.000566592,-0.001893173,-0.270012935,1.025851977,-1.065759714,-0.002439365,-0.008929811,-0.009321060,0.999912862,0.000000000,0.000000000,0.000000000,0.000000000,0.000000000,0.000000000,-1.065097440,0.000000000,4.164809227
1772428213.868326426,0.019260000,0.007654000,0.071131000,-0.005031010,-0.006695430,-0.013630690,0.999872020,-0.009879000,-0.013527000,-0.027196000,-0.000155284,-0.000068823,-0.000367269,-0.000792468,-0.010217371,0.004334935,0.024628812,-0.002828106,0.997568955,0.002273589,0.003637140,-0.001924093,0.000000000,0.000000000,0.000000000,0.000000000,0.019606958,0.007704333,0.071092207,0.017997045,0.002946377,-0.002494524,0.007274501,0.001549420,-0.002197639,-0.269626017,1.025521005,-1.065161523,-0.002435915,-0.008926967,-0.009315804,0.999912939,0.000000000,0.000000000,0.000000000,0.000000000,0.000000000,0.000000000,-1.064884113,0.000000000,4.164809227
1772428213.878325701,0.019260000,0.007644000,0.071144000,-0.004986660,-0.006973450,-0.013602900,0.999870720,-0.009783000,-0.014081000,-0.027139000,-0.000144017,-0.000322494,-0.000079060,-0.000641964,-0.001099304,0.001738014,0.024757690,-0.003065305,0.998138206,0.001529593,0.003142108,-0.001898259,0.000000000,0.000000000,0.000000000,0.000000000,0.019607161,0.007703850,0.071093269,0.018032690,0.002965952,-0.002518337,0.007228314,0.001515893,-0.001799799,-0.269265360,1.025314579,-1.065113827,-0.002432748,-0.008925196,-0.009315355,0.999912986,0.000000000,0.000000000,0.000000000,0.000000000,0.000000000,0.000000000,-1.064636800,0.000000000,4.164809227
1772428213.888325930,0.019263000,0.007645000,0.071136000,-0.004985460,-0.006838440,-0.013583600,0.999871930,-0.009785000,-0.013811000,-0.027101000,-0.000065715,-0.000151729,0.000209985,-0.001706126,0.002884014,0.001377366,0.024937909,-0.003339995,0.998716251,0.000758756,0.002501841,-0.001932006,0.000000000,0.000000000,0.000000000,0.000000000,0.019607365,0.007703367,0.071094331,0.018068338,0.002985529,-0.002542152,0.007267318,0.001292298,-0.001314062,-0.268904668,1.025108134,-1.065066126,-0.002429580,-0.008923425,-0.009314907,0.999913034,0.000000000,0.000000000,0.000000000,0.000000000,0.000000000,0.000000000,-1.064389463,0.000000000,4.164809227
1772428213.898325920,0.019261000,0.007641000,0.071151000,-0.004975280,-0.006944980,-0.013569510,0.999871430,-0.009762000,-0.014024000,-0.027072000,-0.000029623,0.000275913,0.000124417,-0.003224043,0.015591526,0.002345347,0.025118124,-0.003614678,0.999294281,-0.000012063,0.001861589,-0.001965751,0.000000000,0.000000000,0.000000000,0.000000000,0.019607569,0.007702883,0.071095393,0.018103986,0.003005105,-0.002565966,0.007306322,0.001068708,-0.000828337,-0.268543985,1.024901693,-1.065018426,-0.002426412,-0.008921654,-0.009314458,0.999913081,0.000000000,0.000000000,0.000000000,0.000000000,0.000000000,0.000000000,-1.064142132,0.000000000,4.164809227
1772428213.908325911,0.019257000,0.007651000,0.071143000,-0.005028780,-0.006624590,-0.013546730,0.999873650,-0.009878000,-0.013384000,-0.027029000,0.000091045,0.000381508,0.000062238,-0.002492582,0.013368951,0.002370472,0.025298339,-0.003889361,0.999872312,-0.000782882,0.001221337,-0.001999497,0.000000000,0.000000000,0.000000000,0.000000000,0.019607773,0.007702400,0.071096456,0.018139634,0.003024682,-0.002589781,0.007345325,0.000845118,-0.000342612,-0.268183302,1.024695252,-1.064970726,-0.002423244,-0.008919883,-0.009314009,0.999913129,0.000000000,0.000000000,0.000000000,0.000000000,0.000000000,0.000000000,-1.063894801,0.000000000,4.164809227
1772428213.918326855,0.019265000,0.007648000,0.071147000,-0.005069960,-0.006628980,-0.013610180,0.999872550,-0.009959000,-0.013395000,-0.027155000,0.000076068,0.000404468,-0.000135393,-0.003278139,0.006800489,0.001696366,0.025478571,-0.004164071,1.000450397,-0.001553775,0.000581023,-0.002033247,0.000000000,0.000000000,0.000000000,0.000000000,0.019607963,0.007702051,0.071097439,0.018176679,0.003044173,-0.002610897,0.007384331,0.000621507,0.000143160,-0.268175023,1.023734724,-1.064449589,-0.002423054,-0.008911514,-0.009309442,0.999913220,0.000000000,0.000000000,0.000000000,0.000000000,0.000000000,0.000000000,-1.063666591,0.000000000,4.164809227
1772428213.928326607,0.019258000,0.007663000,0.071144000,-0.005088850,-0.006721680,-0.013550800,0.999872640,-0.009995000,-0.013580000,-0.027036000,0.000074087,0.000319192,-0.000174670,-0.003698761,-0.001800783,0.001619057,0.025145159,-0.004799458,1.000146354,-0.001448411,-0.000556078,-0.001242107,0.000000000,0.000000000,0.000000000,0.000000000,0.019607820,0.007705163,0.071096397,0.018249706,0.003061416,-0.002562289,0.007227201,0.000100829,0.000306727,-0.268326739,1.022431988,-1.063713593,-0.002424215,-0.008900150,-0.009303006,0.999913370,0.000000000,0.000000000,0.000000000,0.000000000,0.000000000,0.000000000,-1.063504590,0.000000000,4.164809227
1772428213.938327074,0.019263000,0.007665000,0.071133000,-0.005025590,-0.006557760,-0.013504570,0.999874680,-0.009874000,-0.013250000,-0.026945000,0.000173582,-0.000022319,-0.000132226,-0.003954272,-0.013505307,0.001933692,0.024452389,-0.005361028,0.999081150,-0.000323683,-0.001693853,0.000390152,0.000000000,0.000000000,0.000000000,0.000000000,0.019609973,0.007706793,0.071096788,0.018345525,0.003009651,-0.002487309,0.006632021,-0.001047334,-0.000303767,-0.268378230,1.020472735,-1.063498780,-0.002424490,-0.008883053,-0.009301097,0.999913515,0.000000000,0.000000000,0.000000000,0.000000000,0.000000000,0.000000000,-1.062599348,0.000000000,4.164809227
1772428213.948326826,0.019273000,0.007647000,0.071145000,-0.005047420,-0.006925800,-0.013552890,0.999871430,-0.009907000,-0.013987000,-0.027038000,0.000463132,-0.000568571,0.000224495,-0.005107519,-0.031206650,-0.001498539,0.024848685,-0.003874744,0.999488580,0.000018433,-0.000191049,0.000857935,0.000000000,0.000000000,0.000000000,0.000000000,0.019613175,0.007709121,0.071098105,0.018460672,0.002923527,-0.002397660,0.007311095,0.000586582,-0.000110646,-0.268070352,1.019637836,-1.062367546,-0.002421648,-0.008875817,-0.009291186,0.999913744,0.000000000,0.000000000,0.000000000,0.000000000,0.000000000,0.000000000,-1.061192678,0.000000000,4.164809227
1772428213.958327293,0.019261000,0.007655000,0.071144000,-0.005144450,-0.006951830,-0.013535890,0.999870980,-0.010101000,-0.014042000,-0.027003000,0.000377312,-0.000614239,0.000319911,-0.003053176,-0.029640250,-0.001243352,0.023563853,-0.003966977,0.998947625,-0.002779400,0.001737185,-0.001125323,0.000000000,0.000000000,0.000000000,0.000000000,0.019614497,0.007715345,0.071096665,0.018547838,0.002917820,-0.002343584,0.006187861,0.000501749,-0.000526884,-0.267771491,1.018203473,-1.061294705,-0.002418842,-0.008863348,-0.009281773,0.999913980,0.000000000,0.000000000,0.000000000,0.000000000,0.000000000,0.000000000,-1.060062814,0.000000000,4.164809227
1772428213.968327284,0.019270000,0.007651000,0.071141000,-0.005164890,-0.006863690,-0.013546400,0.999871350,-0.010144000,-0.013866000,-0.027024000,0.000031022,-0.000357285,0.000239569,0.000702282,-0.005302474,-0.000292282,0.023218405,-0.004793741,0.997519251,-0.001944392,0.006222768,-0.001721632,0.000000000,0.000000000,0.000000000,0.000000000,0.019619157,0.007715321,0.071094605,0.018547818,0.002900992,-0.002344201,0.005002908,-0.000095238,-0.002252426,-0.267527686,1.016318690,-1.060381030,-0.002416492,-0.008846940,-0.009273745,0.999914169,0.000000000,0.000000000,0.000000000,0.000000000,0.000000000,0.000000000,-1.059488810,0.000000000,4.164809227
1772428213.978326321,0.019279000,0.007630000,0.071156000,-0.005129630,-0.007295620,-0.013550500,0.999868410,-0.010061000,-0.014729000,-0.027029000,-0.000357110,0.000031760,0.000183547,0.006375500,0.015187319,0.002448966,0.024930739,-0.006305194,0.998556223,-0.002642088,0.001895255,0.001715798,0.000000000,0.000000000,0.000000000,0.000000000,0.019622045,0.007710516,0.071097331,0.018541617,0.002807273,-0.002385013,0.006967337,-0.001876461,-0.001285584,-0.267283904,1.014434087,-1.059467441,-0.002414142,-0.008830534,-0.009265717,0.999914375,0.000000000,0.000000000,0.000000000,0.000000000,0.000000000,0.000000000,-1.059101699,0.000000000,4.164809227
1772428213.988326311,0.019282000,0.007634000,0.071156000,-0.005106140,-0.007195590,-0.013611380,0.999868430,-0.010016000,-0.014529000,-0.027152000,-0.000556858,0.000373874,0.000169212,0.013955782,0.032341577,0.004404969,0.025630707,-0.002592368,0.998146007,0.001173593,0.005135093,0.001578295,0.000000000,0.000000000,0.000000000,0.000000000,0.019621489,0.007708988,0.071097681,0.018644254,0.002681948,-0.002407849,0.007796542,0.000832097,-0.001423937,-0.267963679,1.011984388,-1.059077152,-0.002419846,-0.008809111,-0.009262316,0.999914680,0.000000000,0.000000000,0.000000000,0.000000000,0.000000000,0.000000000,-1.058252755,0.000000000,4.164809227
1772428213.998326778,0.019249000,0.007660000,0.071147000,-0.004928110,-0.006641760,-0.013432480,0.999875580,-0.009678000,-0.013415000,-0.026802000,-0.000744562,0.000560043,0.000132343,0.014788231,0.044226229,0.006315524,0.025355099,-0.001512449,0.999162630,0.001169301,-0.003847395,0.001231133,0.000000000,0.000000000,0.000000000,0.000000000,0.019626460,0.007704127,0.071098109,0.018810442,0.002670326,-0.002423001,0.007885479,0.002941138,-0.000727810,-0.268244778,1.008850035,-1.057893306,-0.002421956,-0.008781763,-0.009251945,0.999914939,0.000000000,0.000000000,0.000000000,0.000000000,0.000000000,0.000000000,-1.056593475,0.000000000,4.164809227
1772428214.008327246,0.019243000,0.007662000,0.071144000,-0.004915160,-0.006113570,-0.013455210,0.999878700,-0.009666000,-0.012358000,-0.026852000,-0.000747281,0.000630653,-0.000052603,0.008807296,0.043576794,0.006080811,0.025262036,-0.002809662,0.998739032,-0.000069202,-0.002099789,-0.000511675,0.000000000,0.000000000,0.000000000,0.000000000,0.019635708,0.007694226,0.071104754,0.019034068,0.002915162,-0.002400607,0.007777586,0.001842707,-0.000663649,-0.268009148,1.007422826,-1.056127963,-0.002419650,-0.008769366,-0.009236495,0.999915124,0.000000000,0.000000000,0.000000000,0.000000000,0.000000000,0.000000000,-1.054728739,0.000000000,4.164809227
1772428214.018326759,0.019253000,0.007653000,0.071161000,-0.004864970,-0.006517710,-0.013478840,0.999876080,-0.009554000,-0.013165000,-0.026896000,-0.000230264,0.000227972,-0.000116783,0.003627761,0.026163587,0.002592140,0.023685458,-0.003281612,0.997665264,-0.002648461,0.002682904,0.000670952,0.000000000,0.000000000,0.000000000,0.000000000,0.019637557,0.007697632,0.071106591,0.019162641,0.003055450,-0.002365296,0.006528253,0.001293039,-0.001781106,-0.267575755,1.006718447,-1.054069979,-0.002415655,-0.008763298,-0.009218490,0.999915342,0.000000000,0.000000000,0.000000000,0.000000000,0.000000000,0.000000000,-1.052859833,0.000000000,4.164809227
1772428214.028327227,0.019248000,0.007664000,0.071158000,-0.004839280,-0.006346240,-0.013450510,0.999877690,-0.009508000,-0.012821000,-0.026842000,0.000342988,-0.000237743,0.000043357,-0.000769720,-0.005427776,-0.000027023,0.023405293,-0.003284699,0.998239076,-0.001608314,0.001961514,0.000949891,0.000000000,0.000000000,0.000000000,0.000000000,0.019627145,0.007709276,0.071103573,0.019175683,0.003173275,-0.002443070,0.006060381,0.001271891,-0.001746784,-0.267819948,1.006027363,-1.052725411,-0.002417628,-0.008757277,-0.009206762,0.999915527,0.000000000,0.000000000,0.000000000,0.000000000,0.000000000,0.000000000,-1.051841852,0.000000000,4.164809227
1772428214.038327217,0.019245000,0.007662000,0.071143000,-0.004940760,-0.006077290,-0.013406090,0.999879460,-0.009718000,-0.012286000,-0.026754000,0.000783392,-0.000472961,0.000044309,-0.003984942,-0.022814957,-0.005695633,0.024220548,-0.004328717,0.998155438,-0.000625408,-0.000498973,0.000645834,0.000000000,0.000000000,0.000000000,0.000000000,0.019620397,0.007716169,0.071100784,0.019141339,0.003246743,-0.002518623,0.006313655,0.000553685,-0.001392955,-0.268573620,1.004976303,-1.051827627,-0.002424051,-0.008748064,-0.009198965,0.999915659,0.000000000,0.000000000,0.000000000,0.000000000,0.000000000,0.000000000,-1.051102427,0.000000000,4.164809227
1772428214.048327208,0.019264000,0.007647000,0.071148000,-0.004954250,-0.006559010,-0.013512930,0.999874910,-0.009731000,-0.013251000,-0.026963000,0.000468707,-0.000347689,-0.000138267,-0.004403440,-0.024383060,-0.006460513,0.025058921,-0.004756875,0.998337554,-0.000090299,-0.000860416,-0.001352901,0.000000000,0.000000000,0.000000000,0.000000000,0.019620418,0.007716389,0.071106250,0.019143491,0.003226649,-0.002498435,0.007270610,-0.000072201,-0.001449438,-0.269290513,1.003688671,-1.051024518,-0.002430143,-0.008736787,-0.009191987,0.999915670,0.000000000,0.000000000,0.000000000,0.000000000,0.000000000,0.000000000,-1.050398291,0.000000000,4.164809227
