t,px,py,pz,qx,qy,qz,qw,roll,pitch,yaw,vx,vy,vz,wx_vicon,wy_vicon,wz_vicon,imu_acc_x,imu_acc_y,imu_acc_z,imu_gyro_x,imu_gyro_y,imu_gyro_z,motor_motor_m1,motor_motor_m2,motor_motor_m3,motor_motor_m4,est_stateEstimate_x,est_stateEstimate_y,est_stateEstimate_z,est_stateEstimate_vx,est_stateEstimate_vy,est_stateEstimate_vz,est_stateEstimate_ax,est_stateEstimate_ay,est_stateEstimate_az,att_stateEstimate_roll,att_stateEstimate_pitch,att_stateEstimate_yaw,att_stateEstimate_qx,att_stateEstimate_qy,att_stateEstimate_qz,att_stateEstimate_qw,sp_ctrltarget_x,sp_ctrltarget_y,sp_ctrltarget_z,sp_ctrltarget_yaw,pid_controller_roll,pid_controller_pitch,pid_controller_yaw,pid_controller_cmd_thrust,pwr_pm_vbat
1772688514.597151279,0.014440000,0.004307000,0.053892000,-0.002390330,0.005541270,0.012488000,0.999903810,-0.004642000,0.011141000,0.024951000,0.003015057,-0.001084325,-0.000313540,0.002383065,-0.077566954,-0.059026873,0.005844480,-0.003481494,0.999704746,-0.003614023,0.001454568,-0.001798211,0.000000000,0.000000000,0.000000000,0.000000000,0.014751385,0.004304658,0.053870757,0.014420389,-0.000745844,-0.000042851,0.005139224,0.000093542,0.000576357,-0.222813628,0.147932158,0.996139890,-0.001933113,-0.001307804,0.008690309,0.999958771,0.000000000,0.000000000,0.000000000,0.000000000,0.000000000,0.000000000,0.131384894,0.000000000,4.089872376
1772688514.607151031,0.014452000,0.004304000,0.053892000,-0.002357240,0.005388180,0.012331180,0.999906670,-0.004581000,0.010834000,0.024639000,0.000472631,-0.000384791,-0.000735218,-0.013416426,0.000401965,-0.039775792,0.004984515,-0.003923906,0.999903719,-0.000381598,0.002803674,-0.002705343,0.000000000,0.000000000,0.000000000,0.000000000,0.014637240,0.004292090,0.053879535,0.014259144,-0.000709206,0.000051508,0.001668827,0.000201232,-0.000664889,-0.223009246,0.152113692,0.997156779,-0.001934493,-0.001344325,0.008699109,0.999958396,0.000000000,0.000000000,0.000000000,0.000000000,0.000000000,0.000000000,0.131384894,0.000000000,4.090568206
1772688514.617151499,0.014444000,0.004305000,0.053880000,-0.002504010,0.005442920,0.012185120,0.999907810,-0.004875000,0.010946000,0.024345000,-0.000522359,-0.000139452,-0.000644892,-0.019524035,0.036690926,-0.025595461,0.005204039,-0.004952558,0.999438250,0.001304279,0.003632257,-0.001304090,0.000000000,0.000000000,0.000000000,0.000000000,0.014679484,0.004284321,0.053875323,0.014337799,-0.000693226,0.000001400,0.002615487,-0.000587863,-0.000104019,-0.223463911,0.152115325,0.995990284,-0.001938474,-0.001344354,0.008688925,0.999958455,0.000000000,0.000000000,0.000000000,0.000000000,0.000000000,0.000000000,0.131384894,0.000000000,4.090640993
1772688514.627151489,0.014452000,0.004297000,0.053879000,-0.002636580,0.005671560,0.011939250,0.999909160,-0.005138000,0.011405000,0.023850000,-0.000461519,-0.000175583,-0.000246057,-0.018415506,0.042324059,-0.015240912,0.005762952,-0.006090731,0.998811312,-0.001466197,0.002803329,-0.000240556,0.000000000,0.000000000,0.000000000,0.000000000,0.014710048,0.004280985,0.053876740,0.014431042,-0.000746597,-0.000010460,0.002337185,-0.001544967,-0.001114824,-0.222871787,0.151902603,0.994728959,-0.001933338,-0.001342432,0.008677929,0.999958634,0.000000000,0.000000000,0.000000000,0.000000000,0.000000000,0.000000000,0.131384894,0.000000000,4.090115778
1772688514.637151718,0.014448000,0.004288000,0.053870000,-0.002636090,0.005929510,0.011896170,0.999908180,-0.005131000,0.011921000,0.023763000,0.000163539,-0.000320455,0.000257790,-0.012552601,0.028340916,-0.007468337,0.007421562,-0.006630596,0.998968299,0.001240487,0.000606589,-0.000659421,0.000000000,0.000000000,0.000000000,0.000000000,0.014724923,0.004278348,0.053884205,0.014427092,-0.000900976,-0.000100178,0.004413272,-0.002098341,-0.000810097,-0.222178564,0.151396930,0.993531994,-0.001927341,-0.001337946,0.008667499,0.999958666,0.000000000,0.000000000,0.000000000,0.000000000,0.000000000,0.000000000,0.131384894,0.000000000,4.089590550
1772688514.647151947,0.014457000,0.004291000,0.053878000,-0.002726760,0.005916320,0.011934370,0.999907560,-0.005312000,0.011897000,0.023838000,0.000861209,-0.000401341,0.000663151,-0.004423519,0.005771686,-0.001016561,0.006983862,-0.005098466,0.998336836,0.002647468,-0.000011196,0.000902142,0.000000000,0.000000000,0.000000000,0.000000000,0.014731896,0.004277647,0.053890246,0.014577769,-0.001053626,-0.000139792,0.004667792,-0.001439853,-0.000756686,-0.221957463,0.150362945,0.992496608,-0.001925502,-0.001328890,0.008658484,0.999958866,0.000000000,0.000000000,0.000000000,0.000000000,0.000000000,0.000000000,0.131384894,0.000000000,4.089065322
1772688514.657151461,0.014460000,0.004291000,0.053894000,-0.002738370,0.005898810,0.012015210,0.999906670,-0.005335000,0.011863000,0.024000000,0.000285839,0.000134635,0.000258528,0.002318995,-0.005558989,0.007025182,0.007586460,-0.005996558,1.000429396,-0.000754492,-0.001937484,0.002442827,0.000000000,0.000000000,0.000000000,0.000000000,0.014737335,0.004278613,0.053890205,0.014685756,-0.001134817,-0.000207702,0.004184113,-0.001360889,-0.000476373,-0.221448923,0.149420846,0.991591936,-0.001921146,-0.001320615,0.008650612,0.999958873,0.000000000,0.000000000,0.000000000,0.000000000,0.000000000,0.000000000,0.131384894,0.000000000,4.088540132
1772688514.667151690,0.014457000,0.004296000,0.053900000,-0.002651690,0.005866180,0.012055330,0.999906610,-0.005162000,0.011795000,0.024081000,-0.001842679,0.001611462,-0.000588346,0.003402643,0.006181434,0.022647184,0.008029270,-0.004701553,1.000440595,-0.002312163,0.004978146,-0.003331262,0.000000000,0.000000000,0.000000000,0.000000000,0.014739128,0.004280856,0.053881103,0.014766728,-0.001230042,-0.000241950,0.004624926,-0.001017971,0.000311666,-0.221015615,0.149432963,0.991033571,-0.001917371,-0.001320678,0.008645745,0.999958930,0.000000000,0.000000000,0.000000000,0.000000000,0.000000000,0.000000000,0.131384894,0.000000000,4.088014904
1772688514.677151918,0.014459000,0.004301000,0.053891000,-0.002620220,0.005722490,0.012088300,0.999907130,-0.005102000,0.011508000,0.024148000,-0.002658258,0.002057267,-0.001119290,0.004611829,0.030014576,0.031303655,0.006676187,-0.005121073,1.000105529,-0.000659968,0.001026648,0.002120937,0.000000000,0.000000000,0.000000000,0.000000000,0.014700845,0.004305319,0.053861743,0.014724752,-0.001171043,-0.000278034,0.004742004,-0.000661557,0.000174634,-0.221428867,0.149207656,0.990526760,-0.001921000,-0.001318735,0.008641321,0.999958932,0.000000000,0.000000000,0.000000000,0.000000000,0.000000000,0.000000000,0.131384894,0.000000000,4.087489676
1772688514.687151909,0.014454000,0.004307000,0.053872000,-0.002656230,0.005884820,0.012120050,0.999905700,-0.005170000,0.011833000,0.024211000,-0.002405266,0.001514570,-0.000750506,0.000081539,0.040933981,0.028278271,0.008332923,-0.005149564,1.000015825,0.000342793,0.001866770,0.003782794,0.000000000,0.000000000,0.000000000,0.000000000,0.014656065,0.004335999,0.053850091,0.014666011,-0.001108736,-0.000315060,0.004973856,-0.001573156,-0.000039937,-0.221308978,0.147610742,0.989587709,-0.001920084,-0.001304775,0.008633156,0.999958987,0.000000000,0.000000000,0.000000000,0.000000000,0.000000000,0.000000000,0.131384894,0.000000000,4.086964461
1772688514.697151899,0.014341000,0.004373000,0.053837000,-0.002629740,0.006329370,0.012507790,0.999898280,-0.005101000,0.012724000,0.024984000,-0.000829061,0.000455401,-0.000221523,0.005089144,0.017594737,0.024950255,0.006806806,-0.005617001,1.001176412,0.001964419,0.003588793,0.000622538,0.000000000,0.000000000,0.000000000,0.000000000,0.014676029,0.004322009,0.053859570,0.014874636,-0.001253804,-0.000238063,0.004653263,-0.002262330,0.001065749,-0.220562908,0.147058499,0.990085692,-0.001913610,-0.001299908,0.008637518,0.999959000,0.000000000,0.000000000,0.000000000,0.000000000,0.000000000,0.000000000,0.131384894,0.000000000,4.086439246
1772688514.707151651,0.014324000,0.004392000,0.053850000,-0.002622860,0.006711380,0.012806660,0.999892030,-0.005074000,0.013489000,0.025580000,0.000958956,-0.000505032,0.000367463,0.015964556,-0.017274593,0.015971601,0.006890508,-0.004556609,1.002088970,0.000077292,0.004163842,0.002339985,0.000000000,0.000000000,0.000000000,0.000000000,0.014720369,0.004288984,0.053886624,0.015064250,-0.001557164,0.000068486,0.004523720,-0.000470523,0.002098254,-0.219654510,0.146352127,0.989314104,-0.001905745,-0.001293663,0.008630808,0.999959171,0.000000000,0.000000000,0.000000000,0.000000000,0.000000000,0.000000000,0.131384894,0.000000000,4.085914043
1772688514.717151165,0.014439000,0.004309000,0.053881000,-0.002541400,0.006405260,0.012563410,0.999897330,-0.004922000,0.012873000,0.025096000,0.002333005,-0.001456917,0.000728594,0.015872982,-0.043063487,-0.003966975,0.005855015,-0.003194684,1.000628486,-0.000648399,0.003691584,0.000290558,0.000000000,0.000000000,0.000000000,0.000000000,0.014752711,0.004275699,0.053878799,0.015200928,-0.001531306,0.000237658,0.003695195,0.001630619,0.000520780,-0.218809035,0.145497423,0.987820685,-0.001898448,-0.001286116,0.008617800,0.999959188,0.000000000,0.000000000,0.000000000,0.000000000,0.000000000,0.000000000,0.131384894,0.000000000,4.085630417
1772688514.727151155,0.014461000,0.004292000,0.053909000,-0.002561780,0.005701180,0.012353190,0.999904160,-0.004983000,0.011465000,0.024679000,0.003197633,-0.001912609,0.000422475,0.019845676,-0.062918433,-0.015102486,0.005428695,-0.005033611,1.000573202,-0.002713765,0.002920470,0.002425985,0.000000000,0.000000000,0.000000000,0.000000000,0.014759405,0.004276160,0.053876257,0.015147449,-0.001331707,0.000263536,0.001566492,-0.001761010,0.000437796,-0.218568419,0.145483154,0.987603109,-0.001896352,-0.001285970,0.008615904,0.999959230,0.000000000,0.000000000,0.000000000,0.000000000,0.000000000,0.000000000,0.131384894,0.000000000,4.085630417
1772688514.737151146,0.014488000,0.004293000,0.053869000,-0.002064880,0.005114360,0.012535720,0.999906210,-0.004001000,0.010280000,0.025052000,0.002685453,-0.001574069,-0.000090754,0.019120547,-0.059774947,-0.021237051,0.006471962,-0.005928294,1.000430875,-0.004103206,0.003051815,0.004445910,0.000000000,0.000000000,0.000000000,0.000000000,0.014759521,0.004274654,0.053875915,0.015111870,-0.001347655,0.000267253,0.002189107,-0.001590050,0.000253150,-0.218530373,0.145435653,0.987512311,-0.001896025,-0.001285551,0.008615113,0.999959242,0.000000000,0.000000000,0.000000000,0.000000000,0.000000000,0.000000000,0.131384894,0.000000000,4.085630417
1772688514.747151613,0.014472000,0.004305000,0.053869000,-0.002173490,0.005294710,0.012312950,0.999907810,-0.004216000,0.010642000,0.024604000,0.000419464,-0.000293454,-0.000637433,0.015054472,-0.029779574,-0.015277257,0.007012469,-0.005796772,0.999960639,-0.003817998,0.002550483,0.004411646,0.000000000,0.000000000,0.000000000,0.000000000,0.014759638,0.004273148,0.053875574,0.015076288,-0.001363603,0.000270970,0.002811752,-0.001419081,0.000068495,-0.218434777,0.145290404,0.987346100,-0.001895203,-0.001284274,0.008613666,0.999959260,0.000000000,0.000000000,0.000000000,0.000000000,0.000000000,0.000000000,0.131384894,0.000000000,4.085630417
1772688514.757152319,0.014470000,0.004284000,0.053867000,-0.002437200,0.005488200,0.012141990,0.999908250,-0.004741000,0.011035000,0.024259000,-0.001020747,0.000455925,-0.000413656,0.005349451,0.000453187,-0.008704779,0.007552989,-0.005665246,0.999490392,-0.003532784,0.002049139,0.004377382,0.000000000,0.000000000,0.000000000,0.000000000,0.014759754,0.004271642,0.053875232,0.015040706,-0.001379552,0.000274687,0.003434412,-0.001248108,-0.000116164,-0.218339178,0.145145152,0.987179886,-0.001894382,-0.001282996,0.008612220,0.999959279,0.000000000,0.000000000,0.000000000,0.000000000,0.000000000,0.000000000,0.131384894,0.000000000,4.085630417
1772688514.767152071,0.014481000,0.004293000,0.053858000,-0.002014930,0.005234450,0.012389120,0.999907520,-0.003900000,0.010518000,0.024759000,-0.000714628,0.000160490,0.000147980,-0.005301122,0.011822839,-0.012097107,0.008093457,-0.005533733,0.999020190,-0.003247596,0.001547842,0.004343121,0.000000000,0.000000000,0.000000000,0.000000000,0.014759871,0.004270136,0.053874891,0.015005127,-0.001395500,0.000278403,0.004057012,-0.001077151,-0.000300806,-0.218243589,0.144999914,0.987013687,-0.001893561,-0.001281719,0.008610773,0.999959297,0.000000000,0.000000000,0.000000000,0.000000000,0.000000000,0.000000000,0.131384894,0.000000000,4.085630417
1772688514.777153015,0.014462000,0.004296000,0.053878000,-0.002188590,0.005324640,0.012139730,0.999909740,-0.004248000,0.010702000,0.024258000,-0.000047824,-0.000116317,0.000605614,-0.014447452,0.004144873,-0.018534773,0.008633990,-0.005402204,0.998549931,-0.002962375,0.001046486,0.004308856,0.000000000,0.000000000,0.000000000,0.000000000,0.014759987,0.004268630,0.053874550,0.014969544,-0.001411449,0.000282120,0.004679687,-0.000906174,-0.000485470,-0.218147989,0.144854659,0.986847468,-0.001892739,-0.001280441,0.008609326,0.999959316,0.000000000,0.000000000,0.000000000,0.000000000,0.000000000,0.000000000,0.131384894,0.000000000,4.085630417
1772688514.787153006,0.014453000,0.004297000,0.053879000,-0.002283370,0.005453820,0.012092340,0.999909400,-0.004435000,0.010962000,0.024161000,-0.000703381,0.000723233,0.000095396,-0.015134102,0.001688599,-0.008190760,0.009174471,-0.005270688,0.998079718,-0.002677181,0.000545178,0.004274594,0.000000000,0.000000000,0.000000000,0.000000000,0.014760104,0.004267125,0.053874208,0.014933965,-0.001427397,0.000285837,0.005302302,-0.000735213,-0.000670116,-0.218052397,0.144709417,0.986681265,-0.001891918,-0.001279164,0.008607880,0.999959334,0.000000000,0.000000000,0.000000000,0.000000000,0.000000000,0.000000000,0.131384894,0.000000000,4.085630417
1772688514.797152758,0.014452000,0.004300000,0.053882000,-0.002437930,0.005308750,0.012040120,0.999910450,-0.004748000,0.010675000,0.024056000,-0.001255557,0.000955615,-0.000077914,-0.024469737,0.021495199,-0.001339057,0.009780309,-0.005716983,0.998231784,-0.001554426,0.000185065,0.002509334,0.000000000,0.000000000,0.000000000,0.000000000,0.014764648,0.004266346,0.053868846,0.015033428,-0.001471015,0.000200612,0.006659558,-0.001686844,-0.001263048,-0.218489199,0.144410738,0.986414777,-0.001895755,-0.001276586,0.008605554,0.999959350,0.000000000,0.000000000,0.000000000,0.000000000,0.000000000,0.000000000,0.131384894,0.000000000,4.085630417
1772688514.807153225,0.014463000,0.004307000,0.053873000,-0.002533090,0.005448630,0.011991890,0.999910040,-0.004935000,0.010957000,0.023958000,-0.000865483,0.000493182,-0.000213423,-0.030790679,0.039337114,0.006249479,0.010575502,-0.006034640,1.000554036,-0.000372010,0.001851622,-0.001342349,0.000000000,0.000000000,0.000000000,0.000000000,0.014760683,0.004266054,0.053874365,0.015334204,-0.001633539,0.000052119,0.008379887,-0.002532075,-0.000183284,-0.219877311,0.143082157,0.986441186,-0.001907967,-0.001265097,0.008605791,0.999959379,0.000000000,0.000000000,0.000000000,0.000000000,0.000000000,0.000000000,0.131384894,0.000000000,4.085630417
1772688514.817153931,0.014460000,0.004307000,0.053871000,-0.002640970,0.005601300,0.011995860,0.999908870,-0.005147000,0.011265000,0.023964000,-0.000239608,0.000165948,-0.000132945,-0.018332925,0.036301923,0.015035859,0.009805306,-0.004115017,1.002314066,-0.002019481,0.004808926,-0.001457916,0.000000000,0.000000000,0.000000000,0.000000000,0.014756979,0.004265523,0.053878923,0.015804550,-0.001784321,0.000182365,0.007370662,0.000121090,0.003004967,-0.220072336,0.142209160,0.985604059,-0.001909744,-0.001257480,0.008598498,0.999959469,0.000000000,0.000000000,0.000000000,0.000000000,0.000000000,0.000000000,0.131384894,0.000000000,4.085630417
1772688514.827153921,0.014368000,0.004360000,0.053860000,-0.002777860,0.006029830,0.012375470,0.999901380,-0.005406000,0.012128000,0.024719000,0.000033489,-0.000100466,0.000245921,-0.010113714,0.026836728,0.008702419,0.009274079,-0.004189325,0.999888804,0.001590349,-0.001092535,0.000200864,0.000000000,0.000000000,0.000000000,0.000000000,0.014762320,0.004268297,0.053882049,0.016151132,-0.001712997,0.000430256,0.006504704,-0.000275930,0.000538893,-0.220805050,0.140118523,0.983869074,-0.001916314,-0.001239262,0.008583385,0.999959652,0.000000000,0.000000000,0.000000000,0.000000000,0.000000000,0.000000000,0.131384894,0.000000000,4.085630417
1772688514.837153673,0.014449000,0.004291000,0.053880000,-0.002829340,0.006251210,0.012269500,0.999901180,-0.005505000,0.012571000,0.024506000,0.000440735,-0.000468571,0.000244639,-0.003794456,0.021741320,-0.002944321,0.006035961,-0.004650720,0.998694805,-0.000961928,-0.000139152,0.001736908,0.000000000,0.000000000,0.000000000,0.000000000,0.014770186,0.004272774,0.053880442,0.016333019,-0.001631638,0.000383198,0.004223637,-0.000320115,-0.000968628,-0.222040879,0.139118537,0.981954307,-0.001927194,-0.001230596,0.008566681,0.999959707,0.000000000,0.000000000,0.000000000,0.000000000,0.000000000,0.000000000,0.131384894,0.000000000,4.085630417
1772688514.847154379,0.014473000,0.004295000,0.053881000,-0.002793470,0.006093120,0.012181610,0.999903330,-0.005438000,0.012253000,0.024331000,0.000736403,-0.000486811,0.000109149,0.002404990,0.009453278,-0.012880550,0.006748025,-0.005241915,0.999999627,-0.000285879,0.003374451,0.004015618,0.000000000,0.000000000,0.000000000,0.000000000,0.014724443,0.004303481,0.053872383,0.016048300,-0.001509218,0.000213877,0.004139057,-0.001267656,0.000532146,-0.220558806,0.138877282,0.981993118,-0.001914278,-0.001228381,0.008567039,0.999959707,0.000000000,0.000000000,0.000000000,0.000000000,0.000000000,0.000000000,0.131384894,0.000000000,4.085630417
1772688514.857154608,0.014453000,0.004305000,0.053887000,-0.002686710,0.005882750,0.012057810,0.999906390,-0.005231000,0.011829000,0.024086000,0.000814026,-0.000432149,0.000006546,0.006145524,-0.006546751,-0.018697305,0.007301859,-0.005752307,0.999632240,0.000463827,0.001119566,-0.000819294,0.000000000,0.000000000,0.000000000,0.000000000,0.014746178,0.004279924,0.053879311,0.016116258,-0.001685454,0.000277904,0.005401857,-0.002252396,-0.000933455,-0.220201864,0.137233084,0.982429757,-0.001911282,-0.001214014,0.008570880,0.999959756,0.000000000,0.000000000,0.000000000,0.000000000,0.000000000,0.000000000,0.131384894,0.000000000,4.085630417
1772688514.867155552,0.014450000,0.004307000,0.053877000,-0.002702480,0.005969780,0.011939670,0.999907250,-0.005262000,0.012003000,0.023849000,0.000570125,-0.000287277,0.000019852,0.005692991,-0.009726571,-0.016575613,0.006594100,-0.004794263,0.999055501,-0.000626032,0.000040299,-0.001117395,0.000000000,0.000000000,0.000000000,0.000000000,0.014765331,0.004271008,0.053883924,0.016231617,-0.001845254,0.000184056,0.004491323,-0.001297294,-0.000863667,-0.219624090,0.136255778,0.981585983,-0.001906322,-0.001205428,0.008563540,0.999959826,0.000000000,0.000000000,0.000000000,0.000000000,0.000000000,0.000000000,0.131384894,0.000000000,4.085630417
1772688514.877155542,0.014461000,0.004296000,0.053865000,-0.002771250,0.006276310,0.011864130,0.999906080,-0.005394000,0.012618000,0.023695000,-0.000324554,0.000072047,0.000066725,0.001574121,-0.007805225,-0.003353037,0.006455495,-0.004429702,0.999193723,0.000151644,-0.002661936,0.001039726,0.000000000,0.000000000,0.000000000,0.000000000,0.014765114,0.004270981,0.053884806,0.016172032,-0.001855520,0.000097272,0.003229476,-0.000659059,-0.001004782,-0.219819834,0.134551852,0.979876857,-0.001908175,-0.001190546,0.008548653,0.999960045,0.000000000,0.000000000,0.000000000,0.000000000,0.000000000,0.000000000,0.131384894,0.000000000,4.085630417
1772688514.887156010,0.014455000,0.004306000,0.053875000,-0.002652500,0.006000030,0.011995690,0.999906530,-0.005161000,0.012063000,0.023961000,0.000288928,-0.000460024,0.000220222,-0.000348594,-0.004304506,0.002733227,0.006758847,-0.004858771,0.997790998,0.001364449,0.001629182,0.002084531,0.000000000,0.000000000,0.000000000,0.000000000,0.014766431,0.004268422,0.053877120,0.016064491,-0.001867719,-0.000069360,0.003992608,-0.001487056,-0.001433155,-0.220226227,0.134004331,0.977410886,-0.001911788,-0.001185757,0.008527138,0.999960124,0.000000000,0.000000000,0.000000000,0.000000000,0.000000000,0.000000000,0.131384894,0.000000000,4.085630417
1772688514.897156715,0.014461000,0.004288000,0.053890000,-0.002708580,0.005771470,0.011979250,0.999907920,-0.005279000,0.011607000,0.023929000,0.000479255,-0.000223718,-0.000058664,0.000628507,-0.005117979,0.005892359,0.006695515,-0.004422376,0.999897426,-0.002087931,0.003754985,0.000552826,0.000000000,0.000000000,0.000000000,0.000000000,0.014767132,0.004267677,0.053871884,0.016063069,-0.001861512,-0.000218816,0.004583785,-0.000279861,-0.000318135,-0.220998892,0.133699530,0.976948713,-0.001918558,-0.001183147,0.008523103,0.999960181,0.000000000,0.000000000,0.000000000,0.000000000,0.000000000,0.000000000,0.131384894,0.000000000,4.085630417
1772688514.907156706,0.014476000,0.004287000,0.053888000,-0.002714440,0.006042550,0.011989420,0.999906180,-0.005284000,0.012149000,0.023948000,0.000791454,-0.000407887,0.000026884,0.003780822,-0.005379943,0.000063578,0.006452290,-0.005290313,0.999630530,0.001364647,-0.002362519,-0.003475306,0.000000000,0.000000000,0.000000000,0.000000000,0.014768766,0.004261032,0.053878667,0.016007698,-0.001840577,-0.000222170,0.003692908,-0.001356446,-0.000149251,-0.221613832,0.132479908,0.976083902,-0.001924024,-0.001172535,0.008515570,0.999960206,0.000000000,0.000000000,0.000000000,0.000000000,0.000000000,0.000000000,0.131384894,0.000000000,4.085630417
1772688514.917156696,0.014467000,0.004289000,0.053881000,-0.002701610,0.005827730,0.012022710,0.999907090,-0.005263000,0.011720000,0.024016000,-0.000047611,0.000124029,-0.000332032,0.003803938,0.003257895,-0.001792167,0.006927527,-0.005174409,1.000216935,-0.000444563,0.001175976,-0.001164753,0.000000000,0.000000000,0.000000000,0.000000000,0.014777093,0.004255670,0.053881509,0.015950025,-0.001946110,-0.000214141,0.003860997,-0.001690351,-0.000072065,-0.220291317,0.131444419,0.975183806,-0.001912569,-0.001163386,0.008507746,0.999960303,0.000000000,0.000000000,0.000000000,0.000000000,0.000000000,0.000000000,0.131384894,0.000000000,4.085630417
1772688514.927157164,0.014465000,0.004302000,0.053865000,-0.002641080,0.006037230,0.012003010,0.999906250,-0.005137000,0.012137000,0.023976000,-0.002079664,0.001554022,-0.000778478,0.000245003,0.023939740,0.008963834,0.008065637,-0.003393934,1.000487766,-0.000429633,0.001955154,0.001343771,0.000000000,0.000000000,0.000000000,0.000000000,0.014775896,0.004255590,0.053876662,0.015945464,-0.001972957,-0.000200551,0.005887375,-0.000183327,0.001033172,-0.219394351,0.130634062,0.973044748,-0.001904824,-0.001156212,0.008489103,0.999960489,0.000000000,0.000000000,0.000000000,0.000000000,0.000000000,0.000000000,0.131384894,0.000000000,4.085630417
1772688514.937157631,0.014460000,0.004307000,0.053859000,-0.002640570,0.006091800,0.011993580,0.999906030,-0.005135000,0.012246000,0.023957000,-0.003008977,0.002187667,-0.000626729,-0.001893048,0.025340955,0.022192140,0.007719927,-0.003668705,0.999980758,0.000801500,-0.000259271,0.001782202,0.000000000,0.000000000,0.000000000,0.000000000,0.014774323,0.004261675,0.053867823,0.016058873,-0.001848954,-0.000160393,0.005998982,0.000838217,0.000782713,-0.219579381,0.128931387,0.971460803,-0.001906580,-0.001141342,0.008475308,0.999960661,0.000000000,0.000000000,0.000000000,0.000000000,0.000000000,0.000000000,0.131384894,0.000000000,4.085630417
1772688514.947157621,0.014455000,0.004296000,0.053882000,-0.002645820,0.006144500,0.011984290,0.999905810,-0.005144000,0.012352000,0.023938000,-0.002270496,0.001517892,-0.000131760,-0.003335353,0.017064581,0.024960528,0.007442731,-0.004955299,1.000347439,0.003267943,-0.003385773,0.001802130,0.000000000,0.000000000,0.000000000,0.000000000,0.014772286,0.004266424,0.053863537,0.016139578,-0.001724995,-0.000137667,0.005505805,-0.000689401,-0.000272066,-0.220094527,0.127488451,0.970745850,-0.001911189,-0.001128776,0.008469089,0.999960684,0.000000000,0.000000000,0.000000000,0.000000000,0.000000000,0.000000000,0.131384894,0.000000000,4.085630417
1772688514.957157135,0.014343000,0.004378000,0.053851000,-0.002703350,0.006302310,0.012381500,0.999899830,-0.005251000,0.012671000,0.024731000,-0.000863443,0.000359441,0.000530304,-0.004273156,0.012191372,0.016212033,0.006940372,-0.004779807,1.000152745,0.003284427,-0.000038674,0.001017573,0.000000000,0.000000000,0.000000000,0.000000000,0.014752879,0.004276909,0.053868012,0.016127903,-0.001713951,-0.000106569,0.005194019,-0.001600824,0.000748084,-0.219314303,0.129340853,0.970426720,-0.001904247,-0.001144878,0.008466281,0.999960721,0.000000000,0.000000000,0.000000000,0.000000000,0.000000000,0.000000000,0.131384894,0.000000000,4.085630417
1772688514.967156649,0.014330000,0.004395000,0.053858000,-0.002759770,0.006500280,0.012620320,0.999895420,-0.005355000,0.013069000,0.025207000,0.001102857,-0.000748486,0.000533819,0.006107463,-0.024090670,0.007238890,0.004452978,-0.003306338,0.998326697,-0.003281177,0.006644404,-0.000253344,0.000000000,0.000000000,0.000000000,0.000000000,0.014693924,0.004319672,0.053858459,0.015882002,-0.001566483,-0.000148156,0.002438316,0.000245683,-0.001481824,-0.217324477,0.130239056,0.970813964,-0.001886813,-0.001152575,0.008469665,0.999960721,0.000000000,0.000000000,0.000000000,0.000000000,0.000000000,0.000000000,0.131384894,0.000000000,4.085630417
1772688514.977155924,0.014444000,0.004309000,0.053881000,-0.002692830,0.006083280,0.012388780,0.999901130,-0.005235000,0.012232000,0.024747000,0.002730791,-0.001599147,0.000407362,0.016194655,-0.058129849,-0.002019602,0.006841192,-0.003399798,0.998540961,0.000629552,-0.001058754,0.002597364,0.000000000,0.000000000,0.000000000,0.000000000,0.014693462,0.004321324,0.053862509,0.015655012,-0.001446331,-0.000294670,0.002950078,0.000556954,-0.001480249,-0.216955799,0.128497023,0.970187173,-0.001883731,-0.001137336,0.008464227,0.999960721,0.000000000,0.000000000,0.000000000,0.000000000,0.000000000,0.000000000,0.131384894,0.000000000,4.085630417
1772688514.987155914,0.014478000,0.004286000,0.053887000,-0.002548160,0.005841740,0.012199780,0.999905270,-0.004954000,0.011745000,0.024372000,0.003039591,-0.001813599,0.000288734,0.021453461,-0.075650169,-0.009508964,0.008869111,-0.003355937,0.999703813,0.001102330,-0.002490624,-0.001477164,0.000000000,0.000000000,0.000000000,0.000000000,0.014741267,0.004287426,0.053872543,0.015845134,-0.001418783,-0.000359654,0.006519205,0.000407099,-0.000187796,-0.216193054,0.126794439,0.969045999,-0.001877212,-0.001122404,0.008454305,0.999960899,0.000000000,0.000000000,0.000000000,0.000000000,0.000000000,0.000000000,0.131384894,0.000000000,4.085630417
1772688514.997155905,0.014470000,0.004288000,0.053892000,-0.002500470,0.005545700,0.012113050,0.999908130,-0.004866000,0.011151000,0.024200000,0.002185394,-0.001495864,0.000134771,0.016142618,-0.063613772,-0.013053264,0.007959048,-0.004529012,1.001705603,0.000116538,0.001020246,-0.002042538,0.000000000,0.000000000,0.000000000,0.000000000,0.014807573,0.004268425,0.053879622,0.016279666,-0.001366809,-0.000294363,0.005446334,-0.000610388,0.002594435,-0.215650476,0.128442291,0.968391847,-0.001872362,-0.001136733,0.008448575,0.999960957,0.000000000,0.000000000,0.000000000,0.000000000,0.000000000,0.000000000,0.131384894,0.000000000,4.085630417
1772688515.007154703,0.014500000,0.004297000,0.053860000,-0.002181810,0.004711100,0.012326710,0.999910540,-0.004247000,0.009475000,0.024634000,-0.000166531,-0.000010587,-0.000477506,0.002771729,-0.024299510,-0.006145083,0.008850180,-0.004773848,1.000207719,0.000503704,0.000593064,-0.000387703,0.000000000,0.000000000,0.000000000,0.000000000,0.015578734,0.004206210,0.053872620,0.018906280,-0.001339492,-0.000399336,0.006544433,-0.000571846,0.001252238,-0.217022589,0.139854848,0.975942485,-0.001883402,-0.001236549,0.008514259,0.999960748,0.000000000,0.000000000,0.000000000,0.000000000,0.000000000,0.000000000,0.131384894,0.000000000,4.085630417
1772688515.017154455,0.014468000,0.004294000,0.053881000,-0.002383050,0.004894410,0.012296970,0.999909570,-0.004646000,0.009847000,0.024572000,-0.001323059,0.000817619,-0.000286752,-0.009616718,0.022288517,-0.000827085,0.010011620,-0.003934001,0.998941942,0.002977685,0.001063739,-0.000412541,0.000000000,0.000000000,0.000000000,0.000000000,0.014712057,0.004281369,0.053884702,0.013331831,-0.000941596,-0.000278641,0.007749261,-0.000283807,-0.000824729,-0.219367683,0.155932281,0.987799003,-0.001902536,-0.001377216,0.008617429,0.999959033,0.000000000,0.000000000,0.000000000,0.000000000,0.000000000,0.000000000,0.131384894,0.000000000,4.085630417
1772688515.027153492,0.014443000,0.004307000,0.053875000,-0.002467020,0.005373860,0.012210840,0.999907960,-0.004803000,0.010807000,0.024397000,-0.000811500,0.000412743,0.000368240,-0.012185017,0.043152459,-0.005043328,0.006711732,-0.004774714,0.998507452,0.000914664,0.000476843,-0.001126569,0.000000000,0.000000000,0.000000000,0.000000000,0.014734709,0.004269928,0.053876035,0.013878930,-0.000943452,-0.000421510,0.004913407,-0.000891086,-0.001488875,-0.217733505,0.158364974,0.988269328,-0.001888089,-0.001398329,0.008621512,0.999959156,0.000000000,0.000000000,0.000000000,0.000000000,0.000000000,0.000000000,0.131384894,0.000000000,4.085630417
1772688515.037152767,0.014459000,0.004295000,0.053870000,-0.002653460,0.005779420,0.012111380,0.999906430,-0.005167000,0.011622000,0.024194000,-0.000395008,0.000114569,0.000616939,-0.010582394,0.046983881,-0.008367819,0.006897683,-0.005617510,0.999296708,-0.000236421,-0.001922472,0.000405300,0.000000000,0.000000000,0.000000000,0.000000000,0.014742248,0.004266049,0.053873747,0.014018597,-0.001066060,-0.000573725,0.003675792,-0.001600339,-0.001047717,-0.217696935,0.157487270,0.986740583,-0.001887855,-0.001390642,0.008608187,0.999959190,0.000000000,0.000000000,0.000000000,0.000000000,0.000000000,0.000000000,0.131384894,0.000000000,4.085630417
1772688515.047152042,0.014456000,0.004301000,0.053881000,-0.002641730,0.005969220,0.012078620,0.999905740,-0.005139000,0.012001000,0.024128000,0.000024728,-0.000215598,0.000535257,-0.004904380,0.037908292,-0.010949845,0.006862264,-0.004934110,0.999425048,0.000246457,-0.003991915,-0.001264616,0.000000000,0.000000000,0.000000000,0.000000000,0.014738009,0.004270548,0.053874294,0.014045693,-0.001145828,-0.000618135,0.003920089,-0.001591595,-0.000210243,-0.217310887,0.157182392,0.985670633,-0.001884522,-0.001387935,0.008598860,0.999959350,0.000000000,0.000000000,0.000000000,0.000000000,0.000000000,0.000000000,0.131384894,0.000000000,4.085630417
1772688515.057152033,0.014461000,0.004304000,0.053905000,-0.002526960,0.005898860,0.012082470,0.999906410,-0.004911000,0.011858000,0.024137000,0.000632635,-0.000454954,0.000057615,0.003979678,0.011359777,-0.008640656,0.007018155,-0.004198412,0.999432354,0.000101219,-0.003087168,-0.000443861,0.000000000,0.000000000,0.000000000,0.000000000,0.014730484,0.004279492,0.053878499,0.014056030,-0.001196921,-0.000597673,0.003328061,-0.001002627,-0.000280060,-0.216418571,0.157512383,0.984313345,-0.001876727,-0.001390725,0.008587021,0.999959408,0.000000000,0.000000000,0.000000000,0.000000000,0.000000000,0.000000000,0.131384894,0.000000000,4.085630417
1772688515.067151546,0.014460000,0.004298000,0.053898000,-0.002452170,0.005689550,0.012059650,0.999908090,-0.004767000,0.011437000,0.024093000,0.000501185,-0.000603109,-0.000064880,0.003270210,0.007327082,-0.010100128,0.006996091,-0.004008991,1.000683769,0.000973584,-0.001511225,-0.000627078,0.000000000,0.000000000,0.000000000,0.000000000,0.014725524,0.004283300,0.053873864,0.014015596,-0.001188974,-0.000630074,0.003991245,-0.000023431,0.001362115,-0.215603093,0.158242887,0.982775732,-0.001869575,-0.001397014,0.008573601,0.999959588,0.000000000,0.000000000,0.000000000,0.000000000,0.000000000,0.000000000,0.131384894,0.000000000,4.085630417
1772688515.077151537,0.014467000,0.004286000,0.053876000,-0.002590760,0.005854760,0.012034340,0.999907090,-0.005040000,0.011771000,0.024040000,0.000130323,-0.000300214,-0.000164608,0.000172804,0.008474225,-0.007472494,0.006195726,-0.004534554,1.001856316,0.001146605,0.003775155,-0.004339988,0.000000000,0.000000000,0.000000000,0.000000000,0.014725862,0.004282073,0.053867119,0.014051704,-0.001148276,-0.000510143,0.004371452,-0.000276532,0.002019609,-0.215190231,0.158441327,0.981079692,-0.001865978,-0.001398687,0.008558802,0.999959588,0.000000000,0.000000000,0.000000000,0.000000000,0.000000000,0.000000000,0.131384894,0.000000000,4.085630417
1772688515.087151051,0.014473000,0.004277000,0.053879000,-0.002568890,0.006133340,0.011882270,0.999907290,-0.004992000,0.012327000,0.023735000,-0.000100427,0.000043376,-0.000190560,-0.008634897,0.000303868,-0.002568099,0.008276544,-0.003315029,0.999186441,-0.003546965,0.002628325,-0.002565653,0.000000000,0.000000000,0.000000000,0.000000000,0.014731073,0.004275632,0.053869589,0.014117875,-0.001154742,-0.000313803,0.005041036,-0.000221574,-0.000333498,-0.215058737,0.158147343,0.979768682,-0.001864869,-0.001396090,0.008547369,0.999959767,0.000000000,0.000000000,0.000000000,0.000000000,0.000000000,0.000000000,0.131384894,0.000000000,4.085630417
1772688515.097149849,0.014468000,0.004285000,0.053883000,-0.002632780,0.006045000,0.011875210,0.999907750,-0.005122000,0.012152000,0.023720000,-0.000424476,0.000508975,-0.000181313,-0.013387414,-0.009302751,0.002040813,0.008441940,-0.002800600,0.998127881,-0.000958230,-0.001609718,0.001184765,0.000000000,0.000000000,0.000000000,0.000000000,0.014748034,0.004265236,0.053874018,0.014376358,-0.001083412,-0.000409591,0.006789164,0.001431953,-0.002411020,-0.214917298,0.157013944,0.979215549,-0.001863726,-0.001386180,0.008542563,0.999959849,0.000000000,0.000000000,0.000000000,0.000000000,0.000000000,0.000000000,0.131384894,0.000000000,4.085630417
1772688515.107149839,0.014462000,0.004295000,0.053886000,-0.002640310,0.006059040,0.011928610,0.999907010,-0.005136000,0.012180000,0.023827000,-0.000577215,0.000721193,0.000020027,-0.011922813,-0.028437259,0.003933367,0.006679507,-0.004114296,0.999231877,-0.002540939,0.003832514,0.000029017,0.000000000,0.000000000,0.000000000,0.000000000,0.014755613,0.004271455,0.053854978,0.014648272,-0.000883914,-0.000703697,0.004090678,0.000563711,-0.001280300,-0.215400230,0.154630584,0.977168502,-0.001868142,-0.001365385,0.008524733,0.999960005,0.000000000,0.000000000,0.000000000,0.000000000,0.000000000,0.000000000,0.131384894,0.000000000,4.085630417
1772688515.117148638,0.014451000,0.004310000,0.053894000,-0.002725070,0.005638650,0.012094530,0.999907250,-0.005314000,0.011342000,0.024160000,-0.000459849,0.000470979,0.000161577,-0.013016158,-0.029914317,-0.000939213,0.005868815,-0.007431616,0.999337695,-0.001796633,-0.002620834,0.000412595,0.000000000,0.000000000,0.000000000,0.000000000,0.014719775,0.004308254,0.053844934,0.014511686,-0.000792650,-0.000796794,0.003510048,-0.002243307,0.000259140,-0.215418776,0.153227560,0.975914594,-0.001868423,-0.001353123,0.008513813,0.999960133,0.000000000,0.000000000,0.000000000,0.000000000,0.000000000,0.000000000,0.131384894,0.000000000,4.085630417
1772688515.127147675,0.014448000,0.004310000,0.053880000,-0.002829590,0.005352550,0.012048840,0.999909080,-0.005530000,0.010773000,0.024069000,0.000816162,-0.000651885,-0.000038423,-0.010389864,-0.027009610,-0.007595233,0.008470269,-0.006168141,1.000197779,-0.001166405,-0.000318389,0.001885781,0.000000000,0.000000000,0.000000000,0.000000000,0.014723351,0.004300424,0.053851476,0.014509872,-0.001126974,-0.000743911,0.004944967,-0.002569853,0.000059998,-0.213437005,0.152267407,0.975269347,-0.001851208,-0.001344586,0.008508223,0.999960184,0.000000000,0.000000000,0.000000000,0.000000000,0.000000000,0.000000000,0.131384894,0.000000000,4.085630417
1772688515.137146711,0.014455000,0.004301000,0.053869000,-0.002803320,0.005504160,0.011942710,0.999909600,-0.005475000,0.011075000,0.023856000,0.000606625,-0.000418629,-0.000656527,0.011330654,-0.016050901,0.004348499,0.007012477,-0.003951429,1.000494139,0.000643717,-0.001357772,0.001841604,0.000000000,0.000000000,0.000000000,0.000000000,0.014728485,0.004285193,0.053855732,0.014688801,-0.001345711,-0.000664643,0.003875658,-0.000174625,0.000758340,-0.213791853,0.152526118,0.974843591,-0.001854291,-0.001346863,0.008504500,0.999960244,0.000000000,0.000000000,0.000000000,0.000000000,0.000000000,0.000000000,0.131384894,0.000000000,4.085630417
1772688515.147146225,0.014464000,0.004290000,0.053882000,-0.002739520,0.005360430,0.011885000,0.999911250,-0.005351000,0.010785000,0.023742000,0.000116978,0.000156779,-0.000686053,0.032293005,-0.013866852,0.020160808,0.006927778,-0.003637951,1.000529479,0.000573068,-0.000173703,0.001001493,0.000000000,0.000000000,0.000000000,0.000000000,0.014730727,0.004281737,0.053857458,0.014713453,-0.001356082,-0.000633454,0.002960056,0.000610470,0.000844822,-0.213918731,0.152386232,0.974832021,-0.001855408,-0.001345652,0.008504399,0.999960244,0.000000000,0.000000000,0.000000000,0.000000000,0.000000000,0.000000000,0.131384894,0.000000000,4.085630417
1772688515.157145500,0.014484000,0.004279000,0.053886000,-0.002721940,0.005695540,0.011894420,0.999909330,-0.005308000,0.011455000,0.023759000,-0.000401049,0.000691318,-0.000603206,0.042403298,-0.007986414,0.029859851,0.006843081,-0.003324481,1.000564819,0.000502421,0.001010338,0.000161402,0.000000000,0.000000000,0.000000000,0.000000000,0.014732564,0.004279982,0.053858595,0.014711342,-0.001346626,-0.000612471,0.003305730,0.000818449,0.000681962,-0.214045606,0.152246349,0.974820451,-0.001856526,-0.001344440,0.008504299,0.999960244,0.000000000,0.000000000,0.000000000,0.000000000,0.000000000,0.000000000,0.131384894,0.000000000,4.085630417
1772688515.167145252,0.014504000,0.004275000,0.053856000,-0.002269910,0.005139140,0.012226450,0.999909470,-0.004414000,0.010333000,0.024431000,-0.000924107,0.000966532,-0.000344309,0.039546013,-0.005844033,0.029330899,0.006758381,-0.003010996,1.000600161,0.000431770,0.002194436,-0.000678729,0.000000000,0.000000000,0.000000000,0.000000000,0.014734400,0.004278227,0.053859731,0.014709231,-0.001337168,-0.000591487,0.003651420,0.001026438,0.000519095,-0.214172487,0.152106459,0.974808881,-0.001857644,-0.001343229,0.008504199,0.999960244,0.000000000,0.000000000,0.000000000,0.000000000,0.000000000,0.000000000,0.131384894,0.000000000,4.085630417
1772688515.177144766,0.014393000,0.004368000,0.053834000,-0.001832480,0.005286490,0.012823050,0.999902130,-0.003529000,0.010619000,0.025628000,-0.000881722,0.000589569,-0.000137762,0.023213201,0.006849929,0.014303820,0.006673682,-0.002697519,1.000635502,0.000361121,0.003378505,-0.001518840,0.000000000,0.000000000,0.000000000,0.000000000,0.014736236,0.004276472,0.053860868,0.014707120,-0.001327711,-0.000570504,0.003997101,0.001234422,0.000356231,-0.214299365,0.151966573,0.974797311,-0.001858762,-0.001342017,0.008504098,0.999960244,0.000000000,0.000000000,0.000000000,0.000000000,0.000000000,0.000000000,0.131384894,0.000000000,4.085630417
1772688515.187144279,0.014441000,0.004323000,0.053879000,-0.002024220,0.005226260,0.012470580,0.999906530,-0.003918000,0.010502000,0.024922000,-0.000471213,0.000010567,0.000218920,-0.000535999,0.028230344,-0.005445104,0.006588983,-0.002384041,1.000670843,0.000290472,0.004562575,-0.002358951,0.000000000,0.000000000,0.000000000,0.000000000,0.014738072,0.004274716,0.053862004,0.014705009,-0.001318254,-0.000549520,0.004342783,0.001442406,0.000193368,-0.214426242,0.151826686,0.974785740,-0.001859879,-0.001340806,0.008503998,0.999960244,0.000000000,0.000000000,0.000000000,0.000000000,0.000000000,0.000000000,0.131384894,0.000000000,4.085630417
1772688515.197144032,0.014447000,0.004308000,0.053864000,-0.002221370,0.005587400,0.012230370,0.999907130,-0.004306000,0.011228000,0.024438000,0.000294950,-0.000689181,0.000764647,-0.022917631,0.041645026,-0.021795834,0.006504282,-0.002070556,1.000706185,0.000219821,0.005746672,-0.003199082,0.000000000,0.000000000,0.000000000,0.000000000,0.014739908,0.004272961,0.053863141,0.014702898,-0.001308797,-0.000528536,0.004688472,0.001650395,0.000030500,-0.214553123,0.151686797,0.974774170,-0.001860997,-0.001339594,0.008503897,0.999960244,0.000000000,0.000000000,0.000000000,0.000000000,0.000000000,0.000000000,0.131384894,0.000000000,4.085630417
1772688515.207144260,0.014450000,0.004295000,0.053874000,-0.002287990,0.005836500,0.012079700,0.999907390,-0.004435000,0.011727000,0.024134000,0.001032072,-0.001111792,0.000976322,-0.035735286,0.043528469,-0.030396245,0.007308652,-0.003000763,1.000281670,-0.002001523,0.004285779,-0.001965555,0.000000000,0.000000000,0.000000000,0.000000000,0.014741745,0.004271206,0.053864277,0.014700787,-0.001299340,-0.000507551,0.005034179,0.001858394,-0.000132375,-0.214390041,0.151732404,0.974573635,-0.001859573,-0.001339977,0.008502149,0.999960283,0.000000000,0.000000000,0.000000000,0.000000000,0.000000000,0.000000000,0.131384894,0.000000000,4.085630417
1772688515.217144251,0.014469000,0.004285000,0.053882000,-0.002497190,0.006086150,0.012032890,0.999905960,-0.004848000,0.012232000,0.024037000,0.001272010,-0.000978789,0.000580731,-0.029529667,0.013153414,-0.023058995,0.008123297,-0.004354780,0.999481126,-0.004341028,0.000414508,0.000275662,0.000000000,0.000000000,0.000000000,0.000000000,0.014745773,0.004273282,0.053871395,0.014803235,-0.001101359,-0.000455986,0.004992214,-0.000365698,-0.000276919,-0.214593309,0.151388816,0.973523425,-0.001861384,-0.001336977,0.008492988,0.999960423,0.000000000,0.000000000,0.000000000,0.000000000,0.000000000,0.000000000,0.131384894,0.000000000,4.085630417
1772688515.227144003,0.014464000,0.004298000,0.053888000,-0.002637610,0.006056310,0.012071070,0.999905320,-0.005129000,0.012175000,0.024112000,0.000148971,0.000131624,0.000081216,-0.016968536,-0.008878223,-0.009522411,0.007102434,-0.003658560,0.998947551,-0.001209579,-0.001877845,-0.000497398,0.000000000,0.000000000,0.000000000,0.000000000,0.014752159,0.004272605,0.053876449,0.014903720,-0.001114190,-0.000451634,0.005313878,-0.000683870,-0.000928111,-0.215559272,0.150438221,0.971712822,-0.001869905,-0.001328724,0.008477193,0.999960429,0.000000000,0.000000000,0.000000000,0.000000000,0.000000000,0.000000000,0.131384894,0.000000000,4.085630417
1772688515.237143993,0.014472000,0.004292000,0.053890000,-0.002640280,0.005924530,0.012011600,0.999906820,-0.005138000,0.011912000,0.023994000,0.000226107,0.000042055,-0.000010975,-0.012945971,-0.025618096,-0.008589021,0.010459859,-0.004956184,0.998816867,-0.001548213,0.000801820,-0.000591580,0.000000000,0.000000000,0.000000000,0.000000000,0.014754988,0.004273234,0.053877384,0.015048400,-0.001077928,-0.000518977,0.007470494,-0.001068082,-0.001315964,-0.216346459,0.149847805,0.970720048,-0.001876830,-0.001323614,0.008468531,0.999960601,0.000000000,0.000000000,0.000000000,0.000000000,0.000000000,0.000000000,0.131384894,0.000000000,4.085630417
1772688515.247143984,0.014467000,0.004295000,0.053887000,-0.002666000,0.005609550,0.011880650,0.999910130,-0.005199000,0.011282000,0.023733000,-0.000098213,0.000094192,-0.000245144,-0.007388000,-0.023380115,-0.006505222,0.010302570,-0.004955181,0.998733933,0.000719277,-0.001100311,-0.000502986,0.000000000,0.000000000,0.000000000,0.000000000,0.014760881,0.004271085,0.053873712,0.015471729,-0.001152303,-0.000630521,0.007838690,-0.001472210,-0.001665257,-0.216252054,0.149574959,0.969283805,-0.001876042,-0.001321202,0.008456003,0.999960624,0.000000000,0.000000000,0.000000000,0.000000000,0.000000000,0.000000000,0.131384894,0.000000000,4.085630417
1772688515.257144213,0.014471000,0.004290000,0.053881000,-0.002717060,0.005480420,0.011850260,0.999911070,-0.005304000,0.011024000,0.023672000,-0.000389861,0.000025699,-0.000204449,-0.003496507,-0.004225370,-0.003329318,0.008591181,-0.004473893,1.000065470,-0.001154705,0.002908357,-0.002831315,0.000000000,0.000000000,0.000000000,0.000000000,0.014763575,0.004270775,0.053867452,0.015769562,-0.001215492,-0.000772104,0.006487836,-0.000921188,-0.000232930,-0.216073787,0.149945122,0.967935010,-0.001874475,-0.001324397,0.008444228,0.999960721,0.000000000,0.000000000,0.000000000,0.000000000,0.000000000,0.000000000,0.131384894,0.000000000,4.085630417
1772688515.267144680,0.014464000,0.004293000,0.053874000,-0.002763190,0.005697990,0.011817310,0.999910120,-0.005392000,0.011461000,0.023605000,0.000208217,-0.000311500,-0.000034810,-0.002085930,0.008260588,-0.001856352,0.009016948,-0.004364895,1.001769331,-0.000749244,-0.003024258,-0.004850206,0.000000000,0.000000000,0.000000000,0.000000000,0.014767402,0.004269621,0.053863845,0.015950340,-0.001231539,-0.000718727,0.006466843,-0.000126171,0.001236449,-0.216476113,0.150603187,0.967056541,-0.001877948,-0.001330155,0.008436546,0.999960744,0.000000000,0.000000000,0.000000000,0.000000000,0.000000000,0.000000000,0.131384894,0.000000000,4.085630417
1772688515.277144670,0.014464000,0.004291000,0.053875000,-0.002759160,0.005800500,0.011960160,0.999907840,-0.005379000,0.011666000,0.023890000,-0.000849515,0.000690793,-0.000320805,0.000020670,0.028444039,0.008150075,0.009013984,-0.005027079,1.001300557,0.001204938,-0.002948063,-0.000016830,0.000000000,0.000000000,0.000000000,0.000000000,0.014764344,0.004273583,0.053870841,0.016136093,-0.001188255,-0.000493778,0.006815895,-0.000456068,0.001501833,-0.216511881,0.151575177,0.965836431,-0.001878202,-0.001338619,0.008425883,0.999960899,0.000000000,0.000000000,0.000000000,0.000000000,0.000000000,0.000000000,0.131384894,0.000000000,4.085630417
1772688515.287143469,0.014450000,0.004301000,0.053889000,-0.002701980,0.005946180,0.011970870,0.999907020,-0.005261000,0.011956000,0.023911000,-0.001369912,0.001035160,-0.000594503,0.004503014,0.039308255,0.014191826,0.009524304,-0.003592862,0.999789350,-0.000463994,0.002980718,-0.001540811,0.000000000,0.000000000,0.000000000,0.000000000,0.014766612,0.004274805,0.053869690,0.016365643,-0.001202943,-0.000319405,0.006775649,-0.000039760,-0.000814470,-0.216315052,0.152710052,0.964477740,-0.001876417,-0.001348486,0.008414011,0.999960918,0.000000000,0.000000000,0.000000000,0.000000000,0.000000000,0.000000000,0.131384894,0.000000000,4.085630417
1772688515.297142267,0.014454000,0.004298000,0.053876000,-0.002764820,0.006164210,0.011959270,0.999905660,-0.005382000,0.012394000,0.023886000,-0.000994037,0.000762821,-0.000562180,0.005269512,0.032758333,0.011127780,0.008174432,-0.003535298,0.996961922,-0.001485762,0.002037705,-0.000087036,0.000000000,0.000000000,0.000000000,0.000000000,0.014771132,0.004277839,0.053866140,0.016509639,-0.001136258,-0.000419100,0.005723587,0.000369237,-0.001991648,-0.215828777,0.153023488,0.963742365,-0.001872159,-0.001351173,0.008407593,0.999960998,0.000000000,0.000000000,0.000000000,0.000000000,0.000000000,0.000000000,0.131384894,0.000000000,4.085630417
1772688515.307141066,0.014461000,0.004305000,0.053867000,-0.002662390,0.005963840,0.011964120,0.999907100,-0.005182000,0.011991000,0.023898000,-0.000229487,0.000011053,-0.000249767,0.003835211,0.017982021,0.006668990,0.007064710,-0.003429160,0.999255830,-0.001803439,-0.002840854,0.000110389,0.000000000,0.000000000,0.000000000,0.000000000,0.014765423,0.004285580,0.053861029,0.016558132,-0.001062964,-0.000515734,0.004696668,0.000479359,-0.002129049,-0.215807459,0.153042307,0.963285123,-0.001871977,-0.001351328,0.008403605,0.999961019,0.000000000,0.000000000,0.000000000,0.000000000,0.000000000,0.000000000,0.131384894,0.000000000,4.085630417
1772688515.317141056,0.014363000,0.004367000,0.053840000,-0.002655950,0.006594650,0.012255180,0.999899630,-0.005150000,0.013253000,0.024477000,0.000481896,-0.000510276,0.000229041,0.002390663,-0.006941709,0.001933757,0.006886812,-0.003802997,0.999541634,-0.001582627,-0.002176694,-0.001362098,0.000000000,0.000000000,0.000000000,0.000000000,0.014748602,0.004298421,0.053854231,0.016503324,-0.000982834,-0.000607964,0.004876175,0.000356211,-0.001469067,-0.216138964,0.152974538,0.963209015,-0.001874876,-0.001350760,0.008402938,0.999961019,0.000000000,0.000000000,0.000000000,0.000000000,0.000000000,0.000000000,0.131384894,0.000000000,4.085630417
1772688515.327139854,0.014450000,0.004292000,0.053865000,-0.002642890,0.006290450,0.012099620,0.999903520,-0.005133000,0.012644000,0.024168000,0.000853109,-0.000772340,0.000685354,0.001897106,-0.036096575,0.002468490,0.006914240,-0.004287793,0.999212603,-0.001260488,-0.000127488,-0.003177038,0.000000000,0.000000000,0.000000000,0.000000000,0.014731783,0.004311261,0.053847434,0.016448522,-0.000902715,-0.000700183,0.005055661,0.000233077,-0.000809164,-0.216480678,0.152904262,0.963143987,-0.001877864,-0.001350171,0.008402368,0.999961019,0.000000000,0.000000000,0.000000000,0.000000000,0.000000000,0.000000000,0.131384894,0.000000000,4.085630417
1772688515.337140322,0.014484000,0.004275000,0.053887000,-0.002699030,0.005992070,0.011983390,0.999906600,-0.005254000,0.012048000,0.023936000,0.000857654,-0.000798680,0.000627623,0.003197236,-0.049769349,-0.003248766,0.006941673,-0.004772671,0.998883517,-0.000938295,0.001922060,-0.004992280,0.000000000,0.000000000,0.000000000,0.000000000,0.014737331,0.004305019,0.053846688,0.016478755,-0.000888380,-0.000728647,0.005056187,-0.000053409,-0.000611791,-0.216813766,0.152842758,0.963078996,-0.001880776,-0.001349658,0.008401798,0.999961019,0.000000000,0.000000000,0.000000000,0.000000000,0.000000000,0.000000000,0.131384894,0.000000000,4.085630417
1772688515.347140074,0.014467000,0.004279000,0.053893000,-0.002647240,0.005692100,0.012055620,0.999907620,-0.005157000,0.011447000,0.024083000,0.000598097,-0.000606255,0.000224087,0.002193631,-0.044419560,-0.006638294,0.007608643,-0.004419095,0.998699570,-0.000494807,0.000243564,-0.002400875,0.000000000,0.000000000,0.000000000,0.000000000,0.014753852,0.004290961,0.053850586,0.016546654,-0.000915978,-0.000734494,0.004683287,-0.000680635,-0.001379643,-0.216872344,0.153058965,0.963015508,-0.001881272,-0.001351548,0.008401239,0.999961019,0.000000000,0.000000000,0.000000000,0.000000000,0.000000000,0.000000000,0.131384894,0.000000000,4.085630417
1772688515.357140064,0.014459000,0.004299000,0.053888000,-0.002604290,0.005268120,0.012066760,0.999909920,-0.005081000,0.010598000,0.024108000,0.000122689,-0.000105109,-0.000438889,0.003032624,-0.027013515,-0.006364523,0.008391941,-0.003913028,0.998542011,-0.000029244,-0.002112959,0.000992000,0.000000000,0.000000000,0.000000000,0.000000000,0.014769831,0.004280505,0.053857739,0.016604270,-0.000961578,-0.000759491,0.004896695,-0.000834303,-0.000976708,-0.216870380,0.153123187,0.962632659,-0.001881255,-0.001352102,0.008397897,0.999961019,0.000000000,0.000000000,0.000000000,0.000000000,0.000000000,0.000000000,0.131384894,0.000000000,4.085630417
1772688515.367139816,0.014446000,0.004298000,0.053871000,-0.002598290,0.005351910,0.012080080,0.999909330,-0.005067000,0.010766000,0.024134000,-0.001026322,0.000455478,-0.000468202,-0.007151576,0.019133101,-0.002470494,0.008101112,-0.004671535,1.000801868,-0.003333874,0.001776214,-0.000675064,0.000000000,0.000000000,0.000000000,0.000000000,0.014780743,0.004271290,0.053866073,0.016672603,-0.001002213,-0.000738379,0.005476682,-0.000824440,0.000235208,-0.216691863,0.152744178,0.961318512,-0.001879740,-0.001348760,0.008386436,0.999961151,0.000000000,0.000000000,0.000000000,0.000000000,0.000000000,0.000000000,0.131384894,0.000000000,4.085630417
1772688515.377139807,0.014452000,0.004288000,0.053851000,-0.002591540,0.005673150,0.011924130,0.999909450,-0.005048000,0.011407000,0.023820000,0.000226962,-0.000318046,-0.000188831,-0.004064539,0.022914409,0.005664928,0.008176483,-0.005243040,1.000058479,0.000941328,0.000105189,0.002656484,0.000000000,0.000000000,0.000000000,0.000000000,0.014783326,0.004270534,0.053872415,0.016738748,-0.001042651,-0.000630732,0.005990134,-0.001267532,0.000777307,-0.216194241,0.153195319,0.960596605,-0.001875373,-0.001352648,0.008380135,0.999961197,0.000000000,0.000000000,0.000000000,0.000000000,0.000000000,0.000000000,0.131384894,0.000000000,4.085630417
1772688515.387139559,0.014452000,0.004289000,0.053872000,-0.002659970,0.005832540,0.012051580,0.999906830,-0.005179000,0.011728000,0.024074000,0.001032344,-0.000507906,0.000255362,0.004062688,0.012155765,0.012616223,0.008949413,-0.004652064,1.001641918,0.000464425,-0.001027067,0.006087759,0.000000000,0.000000000,0.000000000,0.000000000,0.014780025,0.004274656,0.053870703,0.016809347,-0.001098704,-0.000552767,0.006460532,-0.001288358,0.000108096,-0.216644770,0.152864642,0.960633145,-0.001879328,-0.001349796,0.008380455,0.999961288,0.000000000,0.000000000,0.000000000,0.000000000,0.000000000,0.000000000,0.131384894,0.000000000,4.085630417
1772688515.397139549,0.014469000,0.004280000,0.053873000,-0.002710870,0.005923570,0.012067900,0.999905960,-0.005279000,0.011912000,0.024105000,0.000831566,-0.000120532,0.000351515,0.011953374,-0.000653901,0.019334694,0.008883709,-0.004254955,1.001500192,0.000723510,-0.000275754,0.004859083,0.000000000,0.000000000,0.000000000,0.000000000,0.014776578,0.004275255,0.053865230,0.016879323,-0.001140996,-0.000537151,0.006391507,-0.000484211,0.000971798,-0.215734638,0.153367462,0.960343653,-0.001871353,-0.001354113,0.008377931,0.999961317,0.000000000,0.000000000,0.000000000,0.000000000,0.000000000,0.000000000,0.131384894,0.000000000,4.085630417
1772688515.407139540,0.014473000,0.004273000,0.053905000,-0.002803240,0.005939600,0.012161510,0.999904480,-0.005462000,0.011947000,0.024292000,0.000215909,0.000512549,-0.000066065,0.014953061,-0.016379195,0.019433991,0.008682871,-0.003905391,1.001051023,0.001200129,0.000725852,0.002953536,0.000000000,0.000000000,0.000000000,0.000000000,0.014777023,0.004273752,0.053861034,0.016919211,-0.001141143,-0.000514565,0.005884640,-0.000314688,0.000644727,-0.214824506,0.153870281,0.960054161,-0.001863377,-0.001358429,0.008375408,0.999961317,0.000000000,0.000000000,0.000000000,0.000000000,0.000000000,0.000000000,0.131384894,0.000000000,4.085630417
1772688515.417139530,0.014503000,0.004285000,0.053863000,-0.002208340,0.005130940,0.012531130,0.999905880,-0.004288000,0.010316000,0.025041000,-0.000466046,0.000723524,-0.000440268,0.013045652,-0.017424581,0.008353581,0.008482032,-0.003555826,1.000601853,0.001676748,0.001727458,0.001047990,0.000000000,0.000000000,0.000000000,0.000000000,0.014777468,0.004272250,0.053856837,0.016959099,-0.001141290,-0.000491978,0.005377772,-0.000145166,0.000317656,-0.213914375,0.154373101,0.959764669,-0.001855402,-0.001362746,0.008372884,0.999961317,0.000000000,0.000000000,0.000000000,0.000000000,0.000000000,0.000000000,0.131384894,0.000000000,4.085630417
1772688515.427139521,0.014463000,0.004305000,0.053871000,-0.002308820,0.005495660,0.012315090,0.999906400,-0.004482000,0.011047000,0.024606000,-0.000796543,0.000646776,-0.000688715,0.006110480,-0.005689790,-0.007338607,0.007814982,-0.004036331,1.000440193,0.000563627,0.000954826,0.000787045,0.000000000,0.000000000,0.000000000,0.000000000,0.014777991,0.004270769,0.053853938,0.016992653,-0.001135502,-0.000463081,0.004870905,0.000024356,-0.000009415,-0.214448575,0.154147764,0.960334769,-0.001860073,-0.001360828,0.008377857,0.999961317,0.000000000,0.000000000,0.000000000,0.000000000,0.000000000,0.000000000,0.131384894,0.000000000,4.085630417
1772688515.437139511,0.014443000,0.004313000,0.053856000,-0.002468890,0.005738790,0.012261980,0.999905300,-0.004797000,0.011537000,0.024497000,-0.000677001,0.000360859,-0.000054371,-0.003755048,0.004460549,-0.016552497,0.007809814,-0.004562031,1.000156144,-0.000077964,0.000103571,0.001550292,0.000000000,0.000000000,0.000000000,0.000000000,0.014778974,0.004269416,0.053858606,0.016989231,-0.001095069,-0.000397343,0.005038147,-0.000503378,0.000091391,-0.214133907,0.153663668,0.960038317,-0.001857366,-0.001356575,0.008375282,0.999961317,0.000000000,0.000000000,0.000000000,0.000000000,0.000000000,0.000000000,0.131384894,0.000000000,4.085630417
1772688515.447139263,0.014445000,0.004305000,0.053854000,-0.002536090,0.005644030,0.012137060,0.999907200,-0.004935000,0.011349000,0.024247000,-0.000134499,-0.000190909,0.000420241,-0.012587482,0.016828351,-0.020815506,0.009276323,-0.004504061,0.999440190,0.001327135,0.000529806,0.002712724,0.000000000,0.000000000,0.000000000,0.000000000,0.014785976,0.004265646,0.053861542,0.017039203,-0.001112670,-0.000361158,0.005407882,-0.001294487,-0.000212615,-0.213596600,0.153458772,0.959170841,-0.001852703,-0.001354734,0.008367721,0.999961317,0.000000000,0.000000000,0.000000000,0.000000000,0.000000000,0.000000000,0.131384894,0.000000000,4.085630417
1772688515.457139254,0.014457000,0.004294000,0.053880000,-0.002551090,0.005708830,0.011957010,0.999908960,-0.004966000,0.011478000,0.023887000,0.000248038,-0.000536286,0.000832946,-0.014261682,0.032677923,-0.015596324,0.007400210,-0.004639192,1.000314211,-0.000866784,0.002302337,-0.003028797,0.000000000,0.000000000,0.000000000,0.000000000,0.014793300,0.004260127,0.053874325,0.017116779,-0.001185027,-0.000308563,0.005340220,-0.001165395,-0.000438788,-0.213837042,0.153726342,0.958645170,-0.001854788,-0.001357078,0.008363126,0.999961417,0.000000000,0.000000000,0.000000000,0.000000000,0.000000000,0.000000000,0.131384894,0.000000000,4.085630417
1772688515.467139244,0.014465000,0.004295000,0.053881000,-0.002587040,0.005784020,0.012026580,0.999907600,-0.005035000,0.011629000,0.024025000,0.000550758,-0.000339996,0.000412413,-0.002098946,0.022933756,-0.002507472,0.007532538,-0.004394245,0.998758044,-0.000239060,0.007424074,0.002533629,0.000000000,0.000000000,0.000000000,0.000000000,0.014901737,0.004249910,0.053880293,0.017438226,-0.001246674,-0.000301261,0.004966175,-0.000441040,-0.000555222,-0.213744653,0.153548820,0.958114140,-0.001854001,-0.001355514,0.008358497,0.999961436,0.000000000,0.000000000,0.000000000,0.000000000,0.000000000,0.000000000,0.131384894,0.000000000,4.085630417
1772688515.477138758,0.014474000,0.004289000,0.053898000,-0.002572660,0.005832100,0.012027770,0.999907350,-0.005005000,0.011725000,0.024027000,0.000163054,-0.000061364,0.000263792,-0.001924490,0.024165526,0.002482066,0.009236561,-0.005773741,0.998671136,-0.001423422,-0.000681744,0.002666376,0.000000000,0.000000000,0.000000000,0.000000000,0.015070768,0.004237605,0.053877042,0.017921150,-0.001325567,-0.000376371,0.005814746,-0.001754079,-0.001291156,-0.213833726,0.152135658,0.956641211,-0.001854898,-0.001343165,0.008345666,0.999961531,0.000000000,0.000000000,0.000000000,0.000000000,0.000000000,0.000000000,0.131384894,0.000000000,4.085630417
1772688515.487138510,0.014464000,0.004290000,0.053875000,-0.002605050,0.006207100,0.012053870,0.999904690,-0.005060000,0.012476000,0.024077000,-0.000325719,0.000231527,-0.000177894,-0.005438167,0.020531265,0.005935717,0.009016864,-0.006624765,0.999016078,-0.001153434,0.000183526,0.003551019,0.000000000,0.000000000,0.000000000,0.000000000,0.015230065,0.004225229,0.053873265,0.018445219,-0.001492007,-0.000484319,0.006327232,-0.002695367,-0.001604561,-0.214255653,0.150950994,0.956531316,-0.001858668,-0.001332856,0.008344721,0.999961555,0.000000000,0.000000000,0.000000000,0.000000000,0.000000000,0.000000000,0.131384894,0.000000000,4.085630417
1772688515.497138739,0.014449000,0.004301000,0.053874000,-0.002602780,0.006456930,0.012068510,0.999902940,-0.005050000,0.012976000,0.024105000,-0.000530692,0.000165268,-0.000334208,-0.007352400,0.007827253,0.004646105,0.006443811,-0.005049108,0.999271736,-0.000125522,-0.000050207,-0.002298981,0.000000000,0.000000000,0.000000000,0.000000000,0.015393592,0.004211275,0.053868615,0.018955585,-0.001707861,-0.000585015,0.004209961,-0.002248763,-0.000896081,-0.214416458,0.150006359,0.957329595,-0.001860131,-0.001324637,0.008351699,0.999961488,0.000000000,0.000000000,0.000000000,0.000000000,0.000000000,0.000000000,0.131384894,0.000000000,4.085630417
