t,px,py,pz,qx,qy,qz,qw,roll,pitch,yaw,vx,vy,vz,wx_vicon,wy_vicon,wz_vicon,imu_acc_x,imu_acc_y,imu_acc_z,imu_gyro_x,imu_gyro_y,imu_gyro_z,motor_motor_m1,motor_motor_m2,motor_motor_m3,motor_motor_m4,est_stateEstimate_x,est_stateEstimate_y,est_stateEstimate_z,est_stateEstimate_vx,est_stateEstimate_vy,est_stateEstimate_vz,est_stateEstimate_ax,est_stateEstimate_ay,est_stateEstimate_az,att_stateEstimate_roll,att_stateEstimate_pitch,att_stateEstimate_yaw,att_stateEstimate_qx,att_stateEstimate_qy,att_stateEstimate_qz,att_stateEstimate_qw,sp_ctrltarget_x,sp_ctrltarget_y,sp_ctrltarget_z,sp_ctrltarget_yaw,pid_controller_roll,pid_controller_pitch,pid_controller_yaw,pid_controller_cmd_thrust,pwr_pm_vbat
1772689462.615195513,0.016381000,0.005882000,0.053993000,-0.007885450,0.014214820,-0.013862770,0.999771770,-0.016169000,0.028208000,-0.027958000,-0.000926982,-0.003558628,0.009743774,-0.173158660,0.210135991,-0.001551918,0.010044905,-0.002362964,0.999612983,-0.002253286,0.000888096,-0.000114596,0.000000000,0.000000000,0.000000000,0.000000000,0.017120820,0.006075697,0.054027726,0.038667066,0.011396372,-0.000744320,0.012455206,0.003881501,-0.000523810,-0.388202103,-0.123413932,-1.173359629,-0.003376486,0.001111616,-0.010235592,0.999940274,0.000000000,0.000000000,0.000000000,0.000000000,0.000000000,0.000000000,0.049575076,0.000000000,3.874486923
1772689462.625195503,0.016368000,0.005848000,0.054088000,-0.008705220,0.015333450,-0.013854760,0.999748540,-0.017840000,0.030423000,-0.027986000,-0.001537356,-0.002214804,0.005515332,-0.164250729,0.223106599,-0.025360847,0.010075327,-0.004047903,1.000109570,-0.000808280,0.001891370,0.004566520,0.000000000,0.000000000,0.000000000,0.000000000,0.017105780,0.006071289,0.054048194,0.038662733,0.011404713,-0.000646666,0.012194394,0.003238641,-0.000050806,-0.387830485,-0.123637488,-1.171348989,-0.003373242,0.001113474,-0.010218044,0.999940449,0.000000000,0.000000000,0.000000000,0.000000000,0.000000000,0.000000000,0.049575076,0.000000000,3.874486923
1772689462.635195971,0.016341000,0.005827000,0.054128000,-0.009521040,0.016511960,-0.014109800,0.999718770,-0.019514000,0.032752000,-0.028545000,-0.001543183,-0.001099651,0.002448079,-0.138901735,0.199335999,-0.033963636,0.009748367,-0.003886282,0.999331120,-0.001267887,0.000237315,-0.000691196,0.000000000,0.000000000,0.000000000,0.000000000,0.017098698,0.006066211,0.054065486,0.038673990,0.011348013,-0.000569646,0.012142654,0.002137733,-0.000714067,-0.387124851,-0.124047813,-1.168756684,-0.003367074,0.001116916,-0.010195419,0.999940734,0.000000000,0.000000000,0.000000000,0.000000000,0.000000000,0.000000000,0.049575076,0.000000000,3.874486923
1772689462.645195961,0.016347000,0.005829000,0.054122000,-0.010120210,0.017416820,-0.014262350,0.999695360,-0.020745000,0.034541000,-0.028890000,-0.001111598,-0.000217366,0.000359499,-0.101504260,0.148873449,-0.030984877,0.010561259,-0.002814952,0.999159198,-0.000011684,-0.000858214,-0.001003133,0.000000000,0.000000000,0.000000000,0.000000000,0.017097473,0.006061680,0.054072266,0.038713390,0.011317592,-0.000588792,0.013080883,0.004120145,-0.001541987,-0.387473622,-0.123728092,-1.168142853,-0.003370151,0.001114139,-0.010190067,0.999940753,0.000000000,0.000000000,0.000000000,0.000000000,0.000000000,0.000000000,0.049575076,0.000000000,3.874486923
1772689462.655196667,0.016325000,0.005836000,0.054115000,-0.010464740,0.017830360,-0.014370970,0.999682970,-0.021450000,0.035356000,-0.029128000,-0.000409732,0.000427856,-0.000932926,-0.056527878,0.081715837,-0.020027799,0.011320752,-0.002350524,0.999142179,0.002029786,-0.003572741,-0.001313194,0.000000000,0.000000000,0.000000000,0.000000000,0.017088667,0.006055773,0.054085516,0.038807231,0.011397116,-0.000605436,0.013275295,0.004069120,-0.000874121,-0.387134443,-0.122937126,-1.166876989,-0.003367274,0.001107169,-0.010179049,0.999940874,0.000000000,0.000000000,0.000000000,0.000000000,0.000000000,0.000000000,0.049575076,0.000000000,3.874486923
1772689462.665197134,0.016337000,0.005840000,0.054095000,-0.010563110,0.017962040,-0.014379050,0.999679460,-0.021651000,0.035616000,-0.029151000,0.000395280,0.000831819,-0.001611715,-0.008398730,0.007886577,-0.004711985,0.011433022,-0.002940590,0.999252995,0.001446696,-0.003962690,-0.001643824,0.000000000,0.000000000,0.000000000,0.000000000,0.017100415,0.006053380,0.054080025,0.039027045,0.011471177,-0.000689929,0.012938138,0.004301961,-0.001279272,-0.385256914,-0.120685420,-1.167419492,-0.003351086,0.001087369,-0.010183868,0.999940963,0.000000000,0.000000000,0.000000000,0.000000000,0.000000000,0.000000000,0.049575076,0.000000000,3.874486923
1772689462.675197124,0.016343000,0.005853000,0.054087000,-0.010301280,0.017646760,-0.014319640,0.999688660,-0.021116000,0.034995000,-0.029016000,0.001286365,0.000882169,-0.002020709,0.049525109,-0.072118760,0.012336207,0.011272154,-0.003897206,0.999729499,-0.000715067,0.000836802,0.000613201,0.000000000,0.000000000,0.000000000,0.000000000,0.017114762,0.006052963,0.054065491,0.039199393,0.011540779,-0.000832483,0.013756911,0.003170135,-0.000452501,-0.384819197,-0.120251094,-1.166418284,-0.003347315,0.001083511,-0.010175147,0.999941014,0.000000000,0.000000000,0.000000000,0.000000000,0.000000000,0.000000000,0.049575076,0.000000000,3.874486923
1772689462.685197115,0.016338000,0.005833000,0.054119000,-0.010478920,0.017997000,-0.014404060,0.999679360,-0.021485000,0.035688000,-0.029199000,0.001432150,0.000690424,-0.002132869,0.089929529,-0.124311027,0.023354700,0.010428436,-0.004904198,1.000371511,0.003553522,-0.000720457,-0.001616021,0.000000000,0.000000000,0.000000000,0.000000000,0.017120512,0.006053635,0.054060330,0.039374488,0.011447851,-0.000832225,0.012259899,0.001163444,0.000319853,-0.385048656,-0.121119787,-1.164868802,-0.003349254,0.001091067,-0.010161598,0.999941136,0.000000000,0.000000000,0.000000000,0.000000000,0.000000000,0.000000000,0.049575076,0.000000000,3.874486923
1772689462.695197582,0.016359000,0.005848000,0.054085000,-0.010171340,0.017333380,-0.014263550,0.999696280,-0.020845000,0.034373000,-0.028892000,0.001005867,0.000408800,-0.001483432,0.090819857,-0.116827028,0.024396341,0.009302478,-0.004318182,1.001002861,0.003809846,-0.000872829,-0.002145992,0.000000000,0.000000000,0.000000000,0.000000000,0.017111886,0.006052835,0.054074568,0.039307692,0.011239513,-0.000646962,0.011746124,0.002053988,0.001024579,-0.384076022,-0.121408195,-1.164779687,-0.003340742,0.001093495,-0.010160822,0.999941197,0.000000000,0.000000000,0.000000000,0.000000000,0.000000000,0.000000000,0.049575076,0.000000000,3.874486923
1772689462.705197811,0.016406000,0.005897000,0.053971000,-0.008672500,0.015178300,-0.013890220,0.999750700,-0.017771000,0.030113000,-0.028053000,0.000322669,0.000103108,-0.000695785,0.067553427,-0.082683157,0.018823890,0.009255664,-0.003488210,0.999202503,-0.001383322,-0.001637429,-0.001059663,0.000000000,0.000000000,0.000000000,0.000000000,0.017134766,0.006083036,0.054018776,0.039333502,0.011299275,-0.000836711,0.011120678,0.002580409,-0.001361218,-0.383250303,-0.121339178,-1.165026273,-0.003333541,0.001092826,-0.010162984,0.999941230,0.000000000,0.000000000,0.000000000,0.000000000,0.000000000,0.000000000,0.049575076,0.000000000,3.874486923
1772689462.715198040,0.016385000,0.005848000,0.054046000,-0.008728870,0.015628570,-0.013958820,0.999742320,-0.017899000,0.031010000,-0.028201000,-0.000543085,-0.000345610,0.000522145,0.021447793,-0.018503848,0.003670412,0.008469486,-0.003530113,0.998510234,0.002573788,-0.001681769,0.001084912,0.000000000,0.000000000,0.000000000,0.000000000,0.017120767,0.006077120,0.054035440,0.039158926,0.011227231,-0.000907572,0.010457546,0.002751983,-0.001349935,-0.382724752,-0.121036597,-1.164119555,-0.003328990,0.001090113,-0.010155085,0.999941281,0.000000000,0.000000000,0.000000000,0.000000000,0.000000000,0.000000000,0.049575076,0.000000000,3.874486923
1772689462.725198030,0.016353000,0.005851000,0.054060000,-0.008964740,0.015935320,-0.013938500,0.999735670,-0.018379000,0.031618000,-0.028173000,-0.001127274,-0.000690987,0.001663036,-0.030901654,0.054707353,-0.013790742,0.008419488,-0.002999751,0.998911759,0.001944823,-0.002066457,-0.000548043,0.000000000,0.000000000,0.000000000,0.000000000,0.017111378,0.006064569,0.054053057,0.038967856,0.011178619,-0.000897090,0.010371226,0.003374928,-0.000444777,-0.382005143,-0.120643004,-1.162551831,-0.003322760,0.001086569,-0.010141423,0.999941414,0.000000000,0.000000000,0.000000000,0.000000000,0.000000000,0.000000000,0.049575076,0.000000000,3.874486923
1772689462.735197544,0.016339000,0.005842000,0.054101000,-0.009608400,0.016931960,-0.014163000,0.999710160,-0.019703000,0.033588000,-0.028663000,-0.001096174,-0.001053769,0.002179819,-0.073133649,0.102918878,-0.024661482,0.009477380,-0.003447666,0.999810033,-0.001824666,0.000718586,0.001259012,0.000000000,0.000000000,0.000000000,0.000000000,0.017126963,0.006083605,0.054016059,0.038920164,0.011262566,-0.001064893,0.010749391,0.003310769,-0.000232535,-0.381464576,-0.120592826,-1.160938034,-0.003318063,0.001086037,-0.010127348,0.999941580,0.000000000,0.000000000,0.000000000,0.000000000,0.000000000,0.000000000,0.049575076,0.000000000,3.874486923
1772689462.745197535,0.016354000,0.005839000,0.054086000,-0.009711190,0.016888120,-0.014224930,0.999709030,-0.019910000,0.033496000,-0.028790000,-0.000220804,-0.000743843,0.001010199,-0.071981494,0.084256946,-0.018775820,0.008528160,-0.004371427,1.000276533,-0.000688107,0.000479423,0.002312150,0.000000000,0.000000000,0.000000000,0.000000000,0.017124143,0.006089512,0.054014650,0.038821482,0.011251557,-0.001049078,0.010471224,0.002780781,-0.000400783,-0.381320860,-0.121025117,-1.158812345,-0.003316791,0.001089735,-0.010108787,0.999941785,0.000000000,0.000000000,0.000000000,0.000000000,0.000000000,0.000000000,0.049575076,0.000000000,3.874486923
1772689462.755198002,0.016330000,0.005828000,0.054113000,-0.010159580,0.017530160,-0.014448870,0.999690310,-0.020834000,0.034763000,-0.029267000,0.000326593,-0.000456605,0.000077661,-0.055442987,0.056653791,-0.012053233,0.007262968,-0.002878006,0.999162191,-0.000361382,0.005636654,0.002209347,0.000000000,0.000000000,0.000000000,0.000000000,0.017114341,0.006081489,0.054033226,0.038634728,0.011190531,-0.000957475,0.009144172,0.002915075,-0.000298959,-0.380944842,-0.121432273,-1.156775512,-0.003313493,0.001093196,-0.010091004,0.999942003,0.000000000,0.000000000,0.000000000,0.000000000,0.000000000,0.000000000,0.049575076,0.000000000,3.874486923
1772689462.765197992,0.016360000,0.005830000,0.054087000,-0.010229730,0.017565290,-0.014366930,0.999690150,-0.020972000,0.034833000,-0.029106000,0.000909325,0.000063112,-0.000994037,-0.015058802,0.002087240,0.001947484,0.007266058,-0.002692852,1.000558843,-0.000041464,0.001763059,-0.000214146,0.000000000,0.000000000,0.000000000,0.000000000,0.017107647,0.006070020,0.054048853,0.038396811,0.011166356,-0.000871576,0.009927823,0.003092623,0.000283422,-0.380579658,-0.123182880,-1.155969159,-0.003310160,0.001108416,-0.010083922,0.999942055,0.000000000,0.000000000,0.000000000,0.000000000,0.000000000,0.000000000,0.049575076,0.000000000,3.874486923
1772689462.775198221,0.016374000,0.005830000,0.054067000,-0.010041490,0.017006490,-0.014191810,0.999704230,-0.020573000,0.033724000,-0.028737000,0.000728808,0.000780207,-0.001630518,0.026029754,-0.054482062,0.011598784,0.008142147,-0.003172984,0.999448140,-0.000412779,0.001618225,-0.001982900,0.000000000,0.000000000,0.000000000,0.000000000,0.017099922,0.006063897,0.054062828,0.038219610,0.011173163,-0.000767401,0.010121274,0.002653112,-0.000481191,-0.381403080,-0.123018701,-1.154883189,-0.003317370,0.001107025,-0.010074443,0.999942113,0.000000000,0.000000000,0.000000000,0.000000000,0.000000000,0.000000000,0.049575076,0.000000000,3.874486923
1772689462.785197973,0.016368000,0.005832000,0.054071000,-0.010064630,0.017141520,-0.014189380,0.999701720,-0.020623000,0.033994000,-0.028736000,-0.000004235,0.000531974,-0.000523136,0.028977922,-0.045639887,0.005409858,0.008081928,-0.003256881,1.000286019,0.000172768,-0.000057456,-0.002878284,0.000000000,0.000000000,0.000000000,0.000000000,0.017098853,0.006058321,0.054068865,0.038113598,0.011153988,-0.000746819,0.009990426,0.002924307,0.000258346,-0.380278869,-0.123601246,-1.153957502,-0.003307518,0.001111982,-0.010066358,0.999942218,0.000000000,0.000000000,0.000000000,0.000000000,0.000000000,0.000000000,0.049575076,0.000000000,3.874486923
1772689462.795198441,0.016343000,0.005831000,0.054104000,-0.010429510,0.017724560,-0.014393820,0.999684890,-0.021378000,0.035145000,-0.029170000,0.000271853,0.000894173,-0.001197320,0.059161640,-0.075804185,0.008812579,0.008094305,-0.002873742,1.001720156,0.001672639,0.003423159,-0.000872844,0.000000000,0.000000000,0.000000000,0.000000000,0.017094316,0.006049739,0.054072260,0.038001506,0.011150684,-0.000614574,0.010771362,0.003739581,0.002064727,-0.378872082,-0.122978254,-1.153066910,-0.003295305,0.001106397,-0.010058618,0.999942341,0.000000000,0.000000000,0.000000000,0.000000000,0.000000000,0.000000000,0.049575076,0.000000000,3.874486923
1772689462.805198431,0.016400000,0.005896000,0.053978000,-0.008823880,0.015246740,-0.013949890,0.999747510,-0.018078000,0.030244000,-0.028178000,-0.000074495,0.001001963,-0.000875195,0.066790471,-0.070821476,0.006481218,0.009938569,-0.002358640,0.999988247,0.003799253,-0.001490227,-0.001306485,0.000000000,0.000000000,0.000000000,0.000000000,0.017092792,0.006051369,0.054067711,0.037984706,0.011235956,-0.000469213,0.012468508,0.004064442,0.000630799,-0.378174999,-0.125040331,-1.152804452,-0.003289044,0.001124322,-0.010056275,0.999942362,0.000000000,0.000000000,0.000000000,0.000000000,0.000000000,0.000000000,0.049575076,0.000000000,3.874486923
1772689462.815198660,0.016349000,0.005852000,0.054071000,-0.009236900,0.016068220,-0.014254000,0.999726620,-0.018938000,0.031870000,-0.028816000,0.000143978,0.000694717,-0.000668416,0.062303397,-0.054871382,0.012498950,0.010769386,-0.002630969,0.999781737,0.002215968,-0.001001015,-0.002965466,0.000000000,0.000000000,0.000000000,0.000000000,0.017088642,0.006055305,0.054073781,0.038130067,0.011352496,-0.000432888,0.013251300,0.003923213,-0.000856685,-0.376985040,-0.124713491,-1.152515027,-0.003278692,0.001121358,-0.010053772,0.999942462,0.000000000,0.000000000,0.000000000,0.000000000,0.000000000,0.000000000,0.049575076,0.000000000,3.874486923
1772689462.825197935,0.016349000,0.005835000,0.054088000,-0.009500190,0.016780940,-0.014276380,0.999712120,-0.019486000,0.033287000,-0.028883000,-0.000006041,0.000094095,0.000040288,0.036395974,-0.023889497,0.008979013,0.010899502,-0.003379971,1.000109897,0.000002437,-0.002661492,0.001476444,0.000000000,0.000000000,0.000000000,0.000000000,0.017090521,0.006052017,0.054083341,0.038353386,0.011391376,-0.000416039,0.012833751,0.003017203,0.000180949,-0.376894170,-0.126230670,-1.150722160,-0.003277783,0.001134537,-0.010038083,0.999942598,0.000000000,0.000000000,0.000000000,0.000000000,0.000000000,0.000000000,0.049575076,0.000000000,3.874486923
1772689462.835198402,0.016405000,0.005901000,0.053972000,-0.008229080,0.015000850,-0.013828780,0.999757980,-0.016877000,0.029771000,-0.027914000,-0.000181741,-0.000362801,0.000881916,-0.004509318,0.026877964,0.001976597,0.010348164,-0.003032761,1.002918399,0.002668694,-0.001967902,0.002013963,0.000000000,0.000000000,0.000000000,0.000000000,0.017096289,0.006051836,0.054087182,0.038559911,0.011422307,-0.000236684,0.012548462,0.003669739,0.002073245,-0.376773000,-0.125672986,-1.147911153,-0.003276803,0.001129580,-0.010013571,0.999942810,0.000000000,0.000000000,0.000000000,0.000000000,0.000000000,0.000000000,0.049575076,0.000000000,3.874486923
1772689462.845198393,0.016351000,0.005866000,0.054070000,-0.008946730,0.016143150,-0.014058570,0.999730820,-0.018353000,0.032032000,-0.028417000,-0.000463734,-0.000800933,0.001660608,-0.048357032,0.075170892,-0.008744489,0.011225220,-0.003611904,1.000107191,0.000739119,0.000718057,0.001694350,0.000000000,0.000000000,0.000000000,0.000000000,0.017097584,0.006056127,0.054084582,0.038723333,0.011464675,-0.000122367,0.013296288,0.003024060,0.000192424,-0.376825297,-0.124731892,-1.145883313,-0.003277362,0.001121314,-0.009995904,0.999943042,0.000000000,0.000000000,0.000000000,0.000000000,0.000000000,0.000000000,0.049575076,0.000000000,3.874486923
1772689462.855197906,0.016363000,0.005843000,0.054074000,-0.009217940,0.016490790,-0.014032870,0.999723040,-0.018905000,0.032720000,-0.028381000,-0.000028147,-0.000667075,0.000718144,-0.048867163,0.056366667,-0.010867197,0.011180991,-0.005039430,0.998529268,0.005836645,-0.001130543,0.004919637,0.000000000,0.000000000,0.000000000,0.000000000,0.017096716,0.006063629,0.054080080,0.038921900,0.011426028,-0.000194288,0.013637013,0.001644841,-0.001449089,-0.376246017,-0.124868355,-1.143602621,-0.003272317,0.001122390,-0.009976004,0.999943247,0.000000000,0.000000000,0.000000000,0.000000000,0.000000000,0.000000000,0.049575076,0.000000000,3.874486923
1772689462.865198374,0.016348000,0.005841000,0.054094000,-0.009712410,0.017009370,-0.014383620,0.999704690,-0.019921000,0.033736000,-0.029110000,-0.000422495,-0.000924612,0.001127254,-0.066616249,0.074727850,-0.021571632,0.010575238,-0.005481151,0.999630098,0.001050606,0.001189960,0.000519923,0.000000000,0.000000000,0.000000000,0.000000000,0.017098755,0.006063874,0.054075617,0.039130331,0.011230460,-0.000330647,0.012671843,0.001093645,-0.000446951,-0.373598765,-0.123613993,-1.141127882,-0.003249350,0.001111143,-0.009954470,0.999943568,0.000000000,0.000000000,0.000000000,0.000000000,0.000000000,0.000000000,0.049575076,0.000000000,3.874486923
1772689462.875198364,0.016364000,0.005842000,0.054086000,-0.009864920,0.017225310,-0.014241980,0.999701520,-0.020228000,0.034166000,-0.028836000,-0.000390191,-0.000834325,0.000790541,-0.063328721,0.074900903,-0.021759597,0.009466312,-0.004697449,1.001143247,0.002474744,0.002488475,0.001358290,0.000000000,0.000000000,0.000000000,0.000000000,0.017100774,0.006060437,0.054081020,0.039228241,0.011051531,-0.000244636,0.011535740,0.001623619,0.000789387,-0.372740911,-0.123189625,-1.140262086,-0.003241909,0.001107341,-0.009946936,0.999943661,0.000000000,0.000000000,0.000000000,0.000000000,0.000000000,0.000000000,0.049575076,0.000000000,3.874486923
1772689462.885199070,0.016353000,0.005823000,0.054095000,-0.010156760,0.017544910,-0.014380450,0.999691060,-0.020826000,0.034794000,-0.029130000,0.000194076,0.000052622,-0.000498602,-0.025237885,0.023814150,-0.007231443,0.009268722,-0.004133937,0.999205049,0.001122841,0.001266322,-0.002216274,0.000000000,0.000000000,0.000000000,0.000000000,0.017125130,0.006081237,0.054041912,0.039295598,0.011016162,-0.000383355,0.011647277,0.001573909,-0.000159358,-0.371787767,-0.123311348,-1.139218795,-0.003233591,0.001108291,-0.009937838,0.999943793,0.000000000,0.000000000,0.000000000,0.000000000,0.000000000,0.000000000,0.049575076,0.000000000,3.874486923
1772689462.895199299,0.016360000,0.005832000,0.054071000,-0.010111600,0.017382270,-0.014434880,0.999693580,-0.020733000,0.034469000,-0.029234000,-0.000089511,-0.000064219,0.000165676,-0.020251129,0.016329297,-0.002520023,0.009792178,-0.005064751,0.999510214,0.002699160,0.002581519,0.001311211,0.000000000,0.000000000,0.000000000,0.000000000,0.017132886,0.006081825,0.054036102,0.039338375,0.010890999,-0.000449967,0.012043277,0.001496614,-0.000919651,-0.371979503,-0.123505562,-1.138689355,-0.003235253,0.001109987,-0.009933210,0.999943800,0.000000000,0.000000000,0.000000000,0.000000000,0.000000000,0.000000000,0.049575076,0.000000000,3.874486923
1772689462.905198336,0.016351000,0.005846000,0.054082000,-0.010204490,0.017588480,-0.014417640,0.999689270,-0.020924000,0.034879000,-0.029207000,0.000045901,-0.000116783,0.000170804,-0.011902872,0.003898553,0.004403721,0.010209213,-0.003823022,1.000015377,0.001577398,0.001254399,0.002105813,0.000000000,0.000000000,0.000000000,0.000000000,0.017125826,0.006067132,0.054059776,0.039357939,0.010731127,-0.000378988,0.011861633,0.001574499,-0.000053886,-0.371541392,-0.123544691,-1.137511230,-0.003231438,0.001110258,-0.009922933,0.999943933,0.000000000,0.000000000,0.000000000,0.000000000,0.000000000,0.000000000,0.049575076,0.000000000,3.874486923
1772689462.915198326,0.016348000,0.005826000,0.054101000,-0.010279320,0.017683580,-0.014397820,0.999687120,-0.021076000,0.035067000,-0.029172000,-0.000149243,0.000171950,0.000224340,-0.002543426,-0.003895028,0.002174877,0.010114998,-0.004072977,1.001553518,0.001911120,0.001504955,0.001907667,0.000000000,0.000000000,0.000000000,0.000000000,0.017119364,0.006054332,0.054076157,0.039403156,0.010621223,-0.000250474,0.012319080,0.002559636,0.000715544,-0.370758051,-0.122497283,-1.136043118,-0.003224707,0.001101009,-0.009910160,0.999944091,0.000000000,0.000000000,0.000000000,0.000000000,0.000000000,0.000000000,0.049575076,0.000000000,3.874486923
1772689462.925197840,0.016360000,0.005833000,0.054096000,-0.010303980,0.017512540,-0.014305400,0.999691200,-0.021117000,0.034726000,-0.028984000,-0.000052059,0.000290016,-0.000147999,0.010621311,-0.015575587,0.005347639,0.009691940,-0.001730143,0.999945991,0.004282687,-0.000615857,-0.000941562,0.000000000,0.000000000,0.000000000,0.000000000,0.017115791,0.006048776,0.054079153,0.039445657,0.010652069,-0.000165725,0.011653056,0.004304025,0.000422769,-0.369604913,-0.122040108,-1.135182171,-0.003214692,0.001096895,-0.009902670,0.999944207,0.000000000,0.000000000,0.000000000,0.000000000,0.000000000,0.000000000,0.049575076,0.000000000,3.874486923
1772689462.935197592,0.016355000,0.005828000,0.054096000,-0.010363580,0.017516470,-0.014362210,0.999689700,-0.021238000,0.034731000,-0.029100000,-0.000548757,-0.000175797,0.000455595,-0.007285232,0.016962845,-0.007210358,0.009777037,-0.001783215,0.998628078,-0.000703263,-0.000126942,0.001644482,0.000000000,0.000000000,0.000000000,0.000000000,0.017116142,0.006048125,0.054075565,0.039493211,0.010832853,-0.000220873,0.012440984,0.005169163,-0.001198451,-0.367992288,-0.122176532,-1.135106324,-0.003200609,0.001097944,-0.009902021,0.999944266,0.000000000,0.000000000,0.000000000,0.000000000,0.000000000,0.000000000,0.049575076,0.000000000,3.874486923
1772689462.945198059,0.016351000,0.005844000,0.054079000,-0.010139870,0.017428450,-0.014340490,0.999693840,-0.020787000,0.034562000,-0.029047000,0.000061053,0.000582363,-0.000922612,0.015620373,-0.009302692,-0.008846228,0.008521670,-0.003197249,0.999371731,-0.003203657,0.004431714,0.000696433,0.000000000,0.000000000,0.000000000,0.000000000,0.017119027,0.006047669,0.054073609,0.039544808,0.010952330,-0.000340392,0.012015847,0.002429892,-0.001760766,-0.367783486,-0.121630556,-1.134100076,-0.003198844,0.001093134,-0.009893256,0.999944325,0.000000000,0.000000000,0.000000000,0.000000000,0.000000000,0.000000000,0.049575076,0.000000000,3.874486923
1772689462.955198288,0.016342000,0.005852000,0.054079000,-0.009923990,0.017307870,-0.014433690,0.999696760,-0.020355000,0.034326000,-0.029224000,0.000495785,0.001058859,-0.001543805,0.044329086,-0.047074269,-0.001170137,0.008895236,-0.005204968,1.001656200,-0.000251937,0.000675932,-0.001675429,0.000000000,0.000000000,0.000000000,0.000000000,0.017119412,0.006048208,0.054078171,0.039533487,0.010903508,-0.000349284,0.010881081,0.000613628,0.001776388,-0.368324826,-0.121817891,-1.133079305,-0.003203562,0.001094787,-0.009884337,0.999944423,0.000000000,0.000000000,0.000000000,0.000000000,0.000000000,0.000000000,0.049575076,0.000000000,3.874486923
1772689462.965198755,0.016349000,0.005839000,0.054076000,-0.010041330,0.017362870,-0.014461890,0.999694230,-0.020592000,0.034431000,-0.029285000,0.000643552,0.000762880,-0.001030828,0.051618163,-0.065656477,0.007653208,0.009750124,-0.005158728,1.000214666,0.002525935,-0.002774036,-0.004472563,0.000000000,0.000000000,0.000000000,0.000000000,0.017120034,0.006051104,0.054080616,0.039517749,0.010737814,-0.000169777,0.012040435,0.001229582,0.000822182,-0.367969334,-0.121889813,-1.132146390,-0.003200462,0.001095358,-0.009876200,0.999944520,0.000000000,0.000000000,0.000000000,0.000000000,0.000000000,0.000000000,0.049575076,0.000000000,3.874486923
1772689462.975198746,0.016344000,0.005842000,0.054097000,-0.010293840,0.017826060,-0.014611690,0.999681330,-0.021117000,0.035347000,-0.029604000,0.000656333,0.000278749,-0.000325078,0.043885632,-0.069757213,0.016706179,0.010492239,-0.003394294,0.997800096,0.002371198,-0.001555793,-0.003103135,0.000000000,0.000000000,0.000000000,0.000000000,0.017125168,0.006051774,0.054090779,0.039636772,0.010649208,-0.000207391,0.012424678,0.002879737,-0.002671141,-0.366905764,-0.121365817,-1.131982963,-0.003191228,0.001090689,-0.009874799,0.999944568,0.000000000,0.000000000,0.000000000,0.000000000,0.000000000,0.000000000,0.049575076,0.000000000,3.874486923
1772689462.985199213,0.016409000,0.005905000,0.053978000,-0.008673480,0.015409250,-0.014104320,0.999744160,-0.017786000,0.030571000,-0.028486000,0.000230090,-0.000237743,0.000426030,0.026026941,-0.048661811,0.017489818,0.010511468,-0.002397612,0.997734217,0.001187755,0.001781822,0.002031417,0.000000000,0.000000000,0.000000000,0.000000000,0.017146934,0.006081495,0.054035332,0.039797392,0.010831662,-0.000663677,0.012707737,0.003446887,-0.002377743,-0.366116699,-0.121024512,-1.131060745,-0.003184381,0.001087617,-0.009866767,0.999944635,0.000000000,0.000000000,0.000000000,0.000000000,0.000000000,0.000000000,0.049575076,0.000000000,3.874486923
1772689462.995198727,0.016368000,0.005852000,0.054070000,-0.009078010,0.015867390,-0.014065980,0.999733950,-0.018608000,0.031476000,-0.028430000,-0.000170086,-0.000491395,0.000608373,0.008179058,-0.016405237,0.015364180,0.009282050,-0.004463767,0.997593253,0.004613246,-0.001681697,-0.000635513,0.000000000,0.000000000,0.000000000,0.000000000,0.017149110,0.006078495,0.054032730,0.039857686,0.010818484,-0.000859597,0.011693929,0.002276211,-0.002032004,-0.365241120,-0.121229799,-1.130005566,-0.003176733,0.001089304,-0.009857562,0.999944763,0.000000000,0.000000000,0.000000000,0.000000000,0.000000000,0.000000000,0.049575076,0.000000000,3.874486923
1772689463.005198479,0.016352000,0.005836000,0.054106000,-0.009663930,0.016626890,-0.014147900,0.999714960,-0.019805000,0.032977000,-0.028629000,-0.000560218,-0.000768183,0.000869309,-0.014117310,0.020770879,0.009242118,0.008804496,-0.004559668,0.999458274,0.000151766,-0.003358877,0.002032607,0.000000000,0.000000000,0.000000000,0.000000000,0.017154799,0.006092283,0.054003581,0.039811788,0.010753464,-0.001093183,0.011094093,0.001251973,-0.001007600,-0.364420087,-0.121372085,-1.129476104,-0.003169561,0.001090460,-0.009852946,0.999944834,0.000000000,0.000000000,0.000000000,0.000000000,0.000000000,0.000000000,0.049575076,0.000000000,3.874486923
1772689463.015198231,0.016352000,0.005833000,0.054090000,-0.009636090,0.016706220,-0.014134030,0.999714100,-0.019751000,0.033137000,-0.028602000,-0.000672339,-0.000869251,0.000789259,-0.033279866,0.054742953,0.000768543,0.010065631,-0.004756508,1.001419687,-0.000887329,-0.000208779,-0.000217723,0.000000000,0.000000000,0.000000000,0.000000000,0.017145299,0.006083676,0.054017630,0.039757028,0.010575577,-0.000979824,0.011794384,0.001694520,0.001258945,-0.364704727,-0.121393365,-1.128489188,-0.003172052,0.001090643,-0.009844330,0.999944925,0.000000000,0.000000000,0.000000000,0.000000000,0.000000000,0.000000000,0.049575076,0.000000000,3.874486923
1772689463.025198221,0.016349000,0.005841000,0.054082000,-0.009681390,0.016977990,-0.014198500,0.999708170,-0.019852000,0.033678000,-0.028738000,-0.000672825,-0.000829682,0.001339356,-0.061816941,0.099543179,-0.015177545,0.009669762,-0.003654493,1.001934784,0.001929565,-0.000131553,-0.002576537,0.000000000,0.000000000,0.000000000,0.000000000,0.017133523,0.006064419,0.054053548,0.039758245,0.010447930,-0.000615618,0.012056021,0.001711239,0.001356371,-0.364630798,-0.122087989,-1.128092621,-0.003171351,0.001096687,-0.009840852,0.999944943,0.000000000,0.000000000,0.000000000,0.000000000,0.000000000,0.000000000,0.049575076,0.000000000,3.874486923
1772689463.035197973,0.016360000,0.005837000,0.054069000,-0.009768030,0.017034000,-0.014128690,0.999707360,-0.020024000,0.033788000,-0.028602000,0.000606799,0.000766570,-0.000986908,-0.014585383,0.028786826,-0.007817651,0.009322816,-0.005572655,1.001227217,0.001100654,0.001942896,-0.002460539,0.000000000,0.000000000,0.000000000,0.000000000,0.017149185,0.006084885,0.054022512,0.039809221,0.010365714,-0.000589913,0.011941208,0.000711622,0.000632871,-0.364225307,-0.122792275,-1.127822462,-0.003167755,0.001102791,-0.009838478,0.999944966,0.000000000,0.000000000,0.000000000,0.000000000,0.000000000,0.000000000,0.049575076,0.000000000,3.874486923
1772689463.045197964,0.016355000,0.005834000,0.054090000,-0.009925800,0.017206360,-0.014136100,0.999702750,-0.020345000,0.034128000,-0.028626000,0.000659888,0.000634247,-0.000518007,-0.004424447,0.002109051,-0.006343449,0.010057182,-0.005594435,0.999458817,0.000913642,0.000993334,0.000169529,0.000000000,0.000000000,0.000000000,0.000000000,0.017163809,0.006100461,0.053989602,0.039852360,0.010226750,-0.000691930,0.012029243,0.000192831,-0.000465864,-0.363249506,-0.123336379,-1.128344987,-0.003159188,0.001107469,-0.009843032,0.999944939,0.000000000,0.000000000,0.000000000,0.000000000,0.000000000,0.000000000,0.049575076,0.000000000,3.874486923
1772689463.055198669,0.016356000,0.005844000,0.054088000,-0.009946340,0.017401300,-0.014278550,0.999697150,-0.020397000,0.034515000,-0.028916000,0.001051380,0.001338541,-0.001679664,0.038786465,-0.065453059,0.008201412,0.010329045,-0.006053320,0.998799908,0.002933847,0.005159212,-0.001359162,0.000000000,0.000000000,0.000000000,0.000000000,0.017173853,0.006106851,0.053967328,0.039892136,0.010040748,-0.000828946,0.012204996,0.000406529,-0.001593978,-0.362488125,-0.123432192,-1.128157470,-0.003152538,0.001108235,-0.009841400,0.999944985,0.000000000,0.000000000,0.000000000,0.000000000,0.000000000,0.000000000,0.049575076,0.000000000,3.874486923
1772689463.065198421,0.016364000,0.005844000,0.054105000,-0.010308580,0.017699260,-0.014415150,0.999686290,-0.021136000,0.035097000,-0.029208000,0.000900312,0.001375739,-0.002017484,0.075134856,-0.112568709,0.018774586,0.009450572,-0.005050870,0.999351738,0.000941296,0.002265194,-0.002601810,0.000000000,0.000000000,0.000000000,0.000000000,0.017174287,0.006100777,0.053967094,0.039897428,0.009831570,-0.000904187,0.011968110,0.001229475,-0.000833904,-0.361769767,-0.124915305,-1.128140263,-0.003146142,0.001121115,-0.009841216,0.999944985,0.000000000,0.000000000,0.000000000,0.000000000,0.000000000,0.000000000,0.049575076,0.000000000,3.874486923
1772689463.075197935,0.016407000,0.005911000,0.053976000,-0.008802110,0.015484330,-0.013973670,0.999743710,-0.018042000,0.030720000,-0.028230000,0.000137141,0.000517833,-0.000710082,0.066105904,-0.088390823,0.016354872,0.008989030,-0.003979544,1.000515242,-0.001947634,0.001783365,-0.000910055,0.000000000,0.000000000,0.000000000,0.000000000,0.017156653,0.006076295,0.054006493,0.039810291,0.009648386,-0.000759156,0.011381859,0.001799029,-0.000293250,-0.361291942,-0.124946366,-1.127529093,-0.003141976,0.001121328,-0.009835887,0.999945054,0.000000000,0.000000000,0.000000000,0.000000000,0.000000000,0.000000000,0.049575076,0.000000000,3.874486923
1772689463.085197926,0.016377000,0.005857000,0.054058000,-0.009080050,0.015845990,-0.013995190,0.999735260,-0.018609000,0.031435000,-0.028288000,-0.000191453,0.000028089,-0.000025660,0.044571656,-0.056511737,0.014487387,0.009612713,-0.003725377,1.001551414,-0.002421438,0.001796798,0.001777844,0.000000000,0.000000000,0.000000000,0.000000000,0.017161937,0.006083170,0.053988140,0.039760959,0.009635726,-0.000751361,0.012191754,0.002197187,0.002112088,-0.361286944,-0.125612537,-1.125761676,-0.003141892,0.001127092,-0.009820446,0.999945190,0.000000000,0.000000000,0.000000000,0.000000000,0.000000000,0.000000000,0.049575076,0.000000000,3.874486923
1772689463.095197916,0.016398000,0.005914000,0.053967000,-0.007868090,0.014326150,-0.013603690,0.999773870,-0.016130000,0.028436000,-0.027441000,-0.000232013,0.000010412,0.000174184,0.028579619,-0.043236316,0.013303246,0.010353164,-0.004175538,1.001607092,0.000049268,0.000128525,0.000753511,0.000000000,0.000000000,0.000000000,0.000000000,0.017134092,0.006067288,0.054034675,0.039760184,0.009535560,-0.000319558,0.012542829,0.002367250,0.001654869,-0.361410689,-0.125709895,-1.123745495,-0.003142984,0.001127897,-0.009802849,0.999945362,0.000000000,0.000000000,0.000000000,0.000000000,0.000000000,0.000000000,0.049575076,0.000000000,3.874486923
1772689463.105197906,0.016354000,0.005848000,0.054090000,-0.008882110,0.015829950,-0.013984630,0.999737440,-0.018212000,0.031408000,-0.028261000,0.000387238,0.000629410,-0.000944251,0.048607892,-0.074159544,0.018384691,0.009487995,-0.004285672,1.000462030,-0.000425398,0.001376652,-0.001900205,0.000000000,0.000000000,0.000000000,0.000000000,0.017134089,0.006053730,0.054050208,0.039807618,0.009477771,-0.000155042,0.011781310,0.001384845,0.000017423,-0.361151709,-0.124846870,-1.122796800,-0.003140807,0.001120318,-0.009794597,0.999945484,0.000000000,0.000000000,0.000000000,0.000000000,0.000000000,0.000000000,0.049575076,0.000000000,3.874486923
1772689463.115197897,0.016357000,0.005845000,0.054099000,-0.009270630,0.016339030,-0.014052530,0.999724770,-0.019006000,0.032414000,-0.028419000,0.000463229,0.000424845,-0.000569853,0.041546905,-0.068910561,0.014468207,0.009034836,-0.005878328,0.997726785,-0.000962711,0.000887413,-0.001034502,0.000000000,0.000000000,0.000000000,0.000000000,0.017124166,0.006041461,0.054078062,0.039777162,0.009314600,-0.000124955,0.011038658,0.000375496,-0.001537878,-0.360991886,-0.125179529,-1.121814179,-0.003139394,0.001123180,-0.009786014,0.999945558,0.000000000,0.000000000,0.000000000,0.000000000,0.000000000,0.000000000,0.049575076,0.000000000,3.874486923
1772689463.125197887,0.016404000,0.005915000,0.053984000,-0.008232540,0.014520260,-0.013691060,0.999766940,-0.016867000,0.028812000,-0.027630000,0.001171194,0.001054508,-0.002183277,0.079862750,-0.125597113,0.024204029,0.008462114,-0.006889648,0.997678170,0.001880425,-0.000347249,-0.005776925,0.000000000,0.000000000,0.000000000,0.000000000,0.017115753,0.006033434,0.054090046,0.039706381,0.009080454,-0.000272413,0.010969255,0.000199316,-0.002235823,-0.360889094,-0.126439947,-1.120831779,-0.003138398,0.001134143,-0.009777408,0.999945629,0.000000000,0.000000000,0.000000000,0.000000000,0.000000000,0.000000000,0.049575076,0.000000000,3.874486923
1772689463.135198116,0.016417000,0.005923000,0.053955000,-0.007372080,0.013130420,-0.013430840,0.999796410,-0.015100000,0.026060000,-0.027062000,0.000382421,0.000456721,-0.000947689,0.066147853,-0.101435129,0.017824792,0.010480879,-0.004128268,1.000186493,-0.001220208,0.003097087,-0.000000500,0.000000000,0.000000000,0.000000000,0.000000000,0.017110412,0.006020012,0.054095078,0.039721374,0.008914926,-0.000368609,0.011887201,0.001155451,-0.000439725,-0.360482561,-0.126663047,-1.121265977,-0.003134828,0.001136067,-0.009781195,0.999945581,0.000000000,0.000000000,0.000000000,0.000000000,0.000000000,0.000000000,0.049575076,0.000000000,3.874486923
1772689463.145198107,0.016419000,0.005916000,0.053953000,-0.006729110,0.012533690,-0.013278110,0.999810640,-0.013793000,0.024886000,-0.026731000,-0.000101476,0.000154992,-0.000407498,0.048119342,-0.064857881,0.010071542,0.009851358,-0.003669040,1.000771751,-0.000919899,0.002369172,0.002089936,0.000000000,0.000000000,0.000000000,0.000000000,0.017112411,0.006015620,0.054101036,0.039828801,0.008896912,-0.000298229,0.012479257,0.001977554,0.001196876,-0.360667588,-0.127543120,-1.120659866,-0.003136373,0.001143746,-0.009775879,0.999945610,0.000000000,0.000000000,0.000000000,0.000000000,0.000000000,0.000000000,0.049575076,0.000000000,3.874486923
1772689463.155198336,0.016366000,0.005857000,0.054070000,-0.007970960,0.014333760,-0.013702250,0.999771600,-0.016338000,0.028446000,-0.027641000,-0.001258140,-0.001265328,0.002428596,-0.035086746,0.062466744,-0.019624985,0.008896728,-0.004008903,1.000999638,0.002433656,-0.002483727,-0.000151722,0.000000000,0.000000000,0.000000000,0.000000000,0.017115204,0.006020689,0.054099911,0.039902862,0.008930611,-0.000211955,0.011483553,0.002005492,0.000008510,-0.359909120,-0.128164117,-1.119347004,-0.003129715,0.001149064,-0.009764414,0.999945766,0.000000000,0.000000000,0.000000000,0.000000000,0.000000000,0.000000000,0.049575076,0.000000000,3.874486923
1772689463.165198326,0.016400000,0.005904000,0.053984000,-0.007353670,0.013350710,-0.013536020,0.999792210,-0.015072000,0.026500000,-0.027276000,-0.001717620,-0.001651322,0.003572692,-0.108162805,0.169523634,-0.041843912,0.008789932,-0.002303741,0.998407696,-0.000459818,-0.001542325,-0.004505319,0.000000000,0.000000000,0.000000000,0.000000000,0.017121316,0.006022997,0.054094364,0.039912069,0.009005416,-0.000275911,0.010896429,0.002965466,-0.001466654,-0.359419411,-0.127620059,-1.118837774,-0.003125493,0.001144261,-0.009759990,0.999945816,0.000000000,0.000000000,0.000000000,0.000000000,0.000000000,0.000000000,0.049575076,0.000000000,3.874486923
1772689463.175198793,0.016340000,0.005866000,0.054089000,-0.008542840,0.015210360,-0.013965940,0.999750280,-0.017515000,0.030179000,-0.028201000,-0.001434500,-0.001297087,0.002610026,-0.139764868,0.201252029,-0.048256933,0.008689680,-0.001587795,0.998575170,0.000738577,0.003844399,-0.000348979,0.000000000,0.000000000,0.000000000,0.000000000,0.017123693,0.006019273,0.054093668,0.039906637,0.009152071,-0.000412213,0.011726647,0.004108864,-0.001891616,-0.358904313,-0.127402619,-1.119711255,-0.003121008,0.001142343,-0.009767624,0.999945761,0.000000000,0.000000000,0.000000000,0.000000000,0.000000000,0.000000000,0.049575076,0.000000000,3.874486923
1772689463.185198307,0.016366000,0.005852000,0.054073000,-0.008945760,0.015759820,-0.014078370,0.999736670,-0.018341000,0.031265000,-0.028449000,-0.000884461,-0.001049341,0.001837240,-0.142250449,0.189639520,-0.043571901,0.008864085,-0.003153492,0.999997702,0.002401485,-0.001078003,-0.002603875,0.000000000,0.000000000,0.000000000,0.000000000,0.017126259,0.006017533,0.054089448,0.039925045,0.009304163,-0.000514404,0.011571046,0.003733927,-0.000595119,-0.358466909,-0.129822238,-1.117748146,-0.003117005,0.001163367,-0.009750431,0.999945910,0.000000000,0.000000000,0.000000000,0.000000000,0.000000000,0.000000000,0.049575076,0.000000000,3.874486923
1772689463.195199013,0.016340000,0.005845000,0.054116000,-0.009821800,0.017094700,-0.014399180,0.999701940,-0.020143000,0.033903000,-0.029146000,-0.000516084,-0.000640832,0.001047961,-0.119694498,0.155359236,-0.033561914,0.009019920,-0.003573917,1.002312097,-0.001230976,-0.002469915,-0.001287905,0.000000000,0.000000000,0.000000000,0.000000000,0.017142556,0.006029923,0.054058964,0.039977353,0.009424418,-0.000554423,0.011245234,0.003029577,0.001948823,-0.356868184,-0.128699353,-1.118237361,-0.003103145,0.001153446,-0.009754747,0.999945939,0.000000000,0.000000000,0.000000000,0.000000000,0.000000000,0.000000000,0.049575076,0.000000000,3.874486923
1772689463.205198288,0.016338000,0.005846000,0.054103000,-0.010305760,0.017675850,-0.014479770,0.999685800,-0.021131000,0.035049000,-0.029337000,-0.000226923,-0.000467580,0.000859830,-0.095270226,0.123840428,-0.025129154,0.008517514,-0.004180614,1.001488222,0.000644237,-0.001758857,-0.000763920,0.000000000,0.000000000,0.000000000,0.000000000,0.017154969,0.006047258,0.054027536,0.039975573,0.009497091,-0.000471179,0.010885502,0.002142621,0.002194010,-0.356877087,-0.127574127,-1.116610464,-0.003103334,0.001143583,-0.009740580,0.999946035,0.000000000,0.000000000,0.000000000,0.000000000,0.000000000,0.000000000,0.049575076,0.000000000,3.874486923
1772689463.215198755,0.016336000,0.005824000,0.054108000,-0.010798120,0.018094620,-0.014572460,0.999671760,-0.022133000,0.035870000,-0.029549000,0.000239666,0.000194755,-0.000350544,-0.036433574,0.042756594,-0.006077290,0.008363910,-0.003874474,0.998146959,-0.000130478,-0.000179972,-0.001114836,0.000000000,0.000000000,0.000000000,0.000000000,0.017148589,0.006042735,0.054055208,0.039875303,0.009441138,-0.000274957,0.009725061,0.001030749,-0.000902897,-0.356404880,-0.126840809,-1.115640691,-0.003099286,0.001137118,-0.009732142,0.999946172,0.000000000,0.000000000,0.000000000,0.000000000,0.000000000,0.000000000,0.049575076,0.000000000,3.874486923
1772689463.225198746,0.016350000,0.005845000,0.054117000,-0.010796090,0.018114860,-0.014539870,0.999671890,-0.022128000,0.035912000,-0.029485000,0.000043454,-0.000161791,0.000376282,-0.026979082,0.034552338,-0.004971943,0.009739614,-0.003138163,0.996603310,-0.002294330,0.001104048,0.000228047,0.000000000,0.000000000,0.000000000,0.000000000,0.017126242,0.006038350,0.054079477,0.039696445,0.009391737,-0.000397209,0.012234476,0.002724874,-0.003522133,-0.355826503,-0.126310450,-1.114692045,-0.003094293,0.001132415,-0.009723886,0.999946296,0.000000000,0.000000000,0.000000000,0.000000000,0.000000000,0.000000000,0.049575076,0.000000000,3.874486923
1772689463.235198498,0.016344000,0.005857000,0.054094000,-0.010551100,0.017975130,-0.014529690,0.999677180,-0.021633000,0.035640000,-0.029452000,0.000855692,0.000282615,-0.001336656,0.024528583,-0.025944863,0.010388841,0.011591684,-0.003245195,0.999427635,-0.000661771,0.000551694,0.002567164,0.000000000,0.000000000,0.000000000,0.000000000,0.017148839,0.006056001,0.054030592,0.039942386,0.009516002,-0.000840291,0.013577240,0.002955236,-0.000419664,-0.356064038,-0.126655820,-1.113041053,-0.003096353,0.001135404,-0.009709467,0.999946430,0.000000000,0.000000000,0.000000000,0.000000000,0.000000000,0.000000000,0.049575076,0.000000000,3.874486923
1772689463.245198488,0.016363000,0.005845000,0.054094000,-0.010361320,0.017831480,-0.014447880,0.999682920,-0.021246000,0.035360000,-0.029279000,0.001215133,0.000545610,-0.001778731,0.061683802,-0.067768688,0.022516771,0.009904563,-0.004282426,1.002340302,0.002135439,-0.000534422,0.001896589,0.000000000,0.000000000,0.000000000,0.000000000,0.017142895,0.006045467,0.054043632,0.040068150,0.009478166,-0.000604412,0.012814496,0.001494052,0.001190023,-0.356024761,-0.126205603,-1.111429811,-0.003096064,0.001131429,-0.009695419,0.999946572,0.000000000,0.000000000,0.000000000,0.000000000,0.000000000,0.000000000,0.049575076,0.000000000,3.874486923
1772689463.255198717,0.016345000,0.005831000,0.054105000,-0.010489410,0.017844360,-0.014419660,0.999681760,-0.021502000,0.035382000,-0.029227000,0.000512821,0.000298641,-0.000869368,0.060729541,-0.065421384,0.024194383,0.009164955,-0.004561171,0.999536890,0.000964190,0.000545033,0.001903138,0.000000000,0.000000000,0.000000000,0.000000000,0.017135917,0.006032868,0.054054209,0.040076997,0.009348198,-0.000501556,0.011660838,0.001304785,-0.000012416,-0.354889245,-0.124712586,-1.110160388,-0.003086294,0.001118270,-0.009684393,0.999946690,0.000000000,0.000000000,0.000000000,0.000000000,0.000000000,0.000000000,0.049575076,0.000000000,3.874486923
1772689463.265198708,0.016377000,0.005843000,0.054074000,-0.010397220,0.017807910,-0.014409760,0.999683520,-0.021316000,0.035312000,-0.029203000,0.000536636,0.000522106,-0.001203439,0.073715718,-0.098775025,0.028945196,0.008714121,-0.004225970,0.999188745,-0.001986180,0.003787271,-0.000577857,0.000000000,0.000000000,0.000000000,0.000000000,0.017149138,0.006044387,0.054023011,0.040084637,0.009321730,-0.000658810,0.011350267,0.001997228,-0.000807623,-0.353840875,-0.124650225,-1.108744480,-0.003077165,0.001117600,-0.009672050,0.999946840,0.000000000,0.000000000,0.000000000,0.000000000,0.000000000,0.000000000,0.049575076,0.000000000,3.874486923
1772689463.275198698,0.016402000,0.005891000,0.053977000,-0.008719880,0.015697180,-0.013814760,0.999743320,-0.017879000,0.031150000,-0.027913000,0.000401127,0.000757907,-0.000803750,0.076836289,-0.113646524,0.029357860,0.009611754,-0.003626353,0.999439952,0.001972657,0.001354726,0.000563316,0.000000000,0.000000000,0.000000000,0.000000000,0.017167066,0.006063615,0.053986796,0.040105846,0.009344226,-0.000849039,0.011611938,0.002033985,-0.000635552,-0.353214492,-0.126262470,-1.107839456,-0.003071572,0.001131591,-0.009664116,0.999946904,0.000000000,0.000000000,0.000000000,0.000000000,0.000000000,0.000000000,0.049575076,0.000000000,3.874486923
1772689463.285198689,0.016377000,0.005855000,0.054087000,-0.009169090,0.016171840,-0.013911330,0.999730400,-0.018794000,0.032085000,-0.028130000,-0.000410315,0.000084305,0.000350292,0.045878669,-0.075094186,0.017321560,0.009870026,-0.003967601,0.999019275,0.001719343,0.001031839,-0.000965828,0.000000000,0.000000000,0.000000000,0.000000000,0.017174264,0.006076005,0.053967957,0.040111268,0.009349757,-0.000960296,0.011690991,0.002662218,-0.000651463,-0.351556741,-0.126412448,-1.105667200,-0.003057115,0.001132702,-0.009645173,0.999947146,0.000000000,0.000000000,0.000000000,0.000000000,0.000000000,0.000000000,0.049575076,0.000000000,3.874486923
1772689463.295199156,0.016333000,0.005850000,0.054112000,-0.009534120,0.016594920,-0.014069050,0.999717850,-0.019542000,0.032918000,-0.028466000,-0.000455109,-0.000334965,0.000418920,0.015560763,-0.029986763,0.007798896,0.009597913,-0.004429327,0.998535811,0.000193882,0.000927883,-0.001175565,0.000000000,0.000000000,0.000000000,0.000000000,0.017166843,0.006077164,0.053970478,0.040076476,0.009312590,-0.001007334,0.012260957,0.001811400,-0.001599157,-0.350605850,-0.127847726,-1.104261999,-0.003048710,0.001145109,-0.009632881,0.999947270,0.000000000,0.000000000,0.000000000,0.000000000,0.000000000,0.000000000,0.049575076,0.000000000,3.874486923
1772689463.305199146,0.016406000,0.005893000,0.053987000,-0.008311980,0.014582700,-0.013676680,0.999765570,-0.017027000,0.028935000,-0.027604000,-0.000096912,-0.000264588,-0.000254856,0.002690409,-0.012213163,0.005258175,0.009426673,-0.003587924,0.998917997,0.000286482,0.000368448,-0.000492486,0.000000000,0.000000000,0.000000000,0.000000000,0.017142102,0.006052852,0.054022415,0.040010925,0.009162408,-0.000900684,0.012135278,0.002464985,-0.000874720,-0.349937303,-0.127766097,-1.103043855,-0.003042896,0.001144308,-0.009622260,0.999947415,0.000000000,0.000000000,0.000000000,0.000000000,0.000000000,0.000000000,0.049575076,0.000000000,3.874486923
1772689463.315199137,0.016359000,0.005845000,0.054081000,-0.009060390,0.015822090,-0.013871610,0.999737540,-0.018565000,0.031390000,-0.028040000,0.001028128,0.000778983,-0.002461385,0.048758046,-0.064319806,0.018929787,0.009128409,-0.002450272,0.998822978,0.001111833,-0.001854618,-0.002697815,0.000000000,0.000000000,0.000000000,0.000000000,0.017159855,0.006062276,0.053991077,0.040063608,0.009249184,-0.001062837,0.011641113,0.003033679,-0.001149469,-0.349100553,-0.127155957,-1.102385832,-0.003035652,0.001138896,-0.009616543,0.999947521,0.000000000,0.000000000,0.000000000,0.000000000,0.000000000,0.000000000,0.049575076,0.000000000,3.874486923
1772689463.325199127,0.016352000,0.005832000,0.054077000,-0.009383140,0.016351810,-0.013947320,0.999724990,-0.019229000,0.032439000,-0.028212000,0.000807693,0.001012472,-0.002376925,0.081208187,-0.097252798,0.025968780,0.008943246,-0.003217074,0.997766549,0.000125924,-0.003846057,-0.004193589,0.000000000,0.000000000,0.000000000,0.000000000,0.017171007,0.006071526,0.053959506,0.040022455,0.009332625,-0.001312501,0.011489317,0.002608980,-0.001778240,-0.348452854,-0.126770968,-1.102669014,-0.003030029,0.001135490,-0.009619030,0.999947520,0.000000000,0.000000000,0.000000000,0.000000000,0.000000000,0.000000000,0.049575076,0.000000000,3.874486923
1772689463.335199118,0.016409000,0.005898000,0.053962000,-0.008235160,0.014899440,-0.013570160,0.999762990,-0.016879000,0.029573000,-0.027395000,0.000234247,0.000543260,-0.000518823,0.064344194,-0.076853576,0.015694951,0.009944127,-0.004073797,0.997807343,-0.001490392,-0.002351618,0.001659835,0.000000000,0.000000000,0.000000000,0.000000000,0.017180586,0.006075275,0.053941538,0.040017198,0.009288677,-0.001509283,0.011923638,0.002473441,-0.002790583,-0.347961878,-0.125758206,-1.102263093,-0.003025834,0.001126601,-0.009615520,0.999947557,0.000000000,0.000000000,0.000000000,0.000000000,0.000000000,0.000000000,0.049575076,0.000000000,3.874486923
1772689463.345199108,0.016416000,0.005909000,0.053963000,-0.007388690,0.013589250,-0.013330370,0.999791500,-0.015143000,0.026979000,-0.026869000,-0.000246815,0.000426263,0.000030575,0.048436905,-0.064423771,0.004062430,0.010525695,-0.003497268,0.997674157,-0.004670310,0.000680236,0.004708748,0.000000000,0.000000000,0.000000000,0.000000000,0.017185467,0.006077717,0.053935963,0.040056004,0.009276501,-0.001720735,0.012400700,0.002490986,-0.002085390,-0.347849700,-0.124484838,-1.100623965,-0.003024978,0.001115436,-0.009601252,0.999947703,0.000000000,0.000000000,0.000000000,0.000000000,0.000000000,0.000000000,0.049575076,0.000000000,3.874486923
1772689463.355199575,0.016396000,0.005910000,0.053966000,-0.006795960,0.012881640,-0.013249980,0.999806140,-0.013936000,0.025581000,-0.026682000,0.000376418,0.000548175,-0.000913404,0.056747365,-0.087805329,0.004076551,0.009894989,-0.004444450,0.999433439,-0.006101084,0.002260643,-0.000202224,0.000000000,0.000000000,0.000000000,0.000000000,0.017170698,0.006059678,0.053973979,0.040047616,0.009177754,-0.001634197,0.012358553,0.001631433,-0.000563261,-0.348177016,-0.124030425,-1.098986830,-0.003027888,0.001111455,-0.009586975,0.999947807,0.000000000,0.000000000,0.000000000,0.000000000,0.000000000,0.000000000,0.049575076,0.000000000,3.874486923
1772689463.365199566,0.016338000,0.005844000,0.054103000,-0.008365120,0.014932410,-0.013864380,0.999757380,-0.017149000,0.029630000,-0.027988000,0.000424282,0.000215579,-0.000773311,0.049922561,-0.075111245,0.002554482,0.009756697,-0.004532543,1.000555747,-0.002786109,-0.001509259,0.002435383,0.000000000,0.000000000,0.000000000,0.000000000,0.017152427,0.006039552,0.054020683,0.040018606,0.009030972,-0.001396296,0.012068384,0.000973168,0.000559595,-0.348406443,-0.124473361,-1.098378931,-0.003029859,0.001115323,-0.009581657,0.999947899,0.000000000,0.000000000,0.000000000,0.000000000,0.000000000,0.000000000,0.049575076,0.000000000,3.874486923
1772689463.375199556,0.016403000,0.005892000,0.053984000,-0.007600040,0.013740240,-0.013630360,0.999783810,-0.015578000,0.027271000,-0.027477000,0.000456314,-0.000149845,-0.000671893,0.034890067,-0.053752620,0.003201342,0.009539156,-0.003531727,1.001506161,-0.001159913,0.000607095,0.002024796,0.000000000,0.000000000,0.000000000,0.000000000,0.017138153,0.006023424,0.054051310,0.040000370,0.008925673,-0.001146624,0.012044878,0.001841773,0.001580826,-0.347965325,-0.123808108,-1.096232920,-0.003026086,0.001109425,-0.009562952,0.999948069,0.000000000,0.000000000,0.000000000,0.000000000,0.000000000,0.000000000,0.049575076,0.000000000,3.874486923
1772689463.385199547,0.016410000,0.005901000,0.053951000,-0.007053380,0.012994830,-0.013481640,0.999799790,-0.014460000,0.025797000,-0.027154000,0.000602060,-0.000040695,-0.000310160,0.022215750,-0.032743260,0.007156930,0.009693398,-0.003610216,1.000230265,0.002033000,0.000162143,-0.001667160,0.000000000,0.000000000,0.000000000,0.000000000,0.017129937,0.006010853,0.054062725,0.040011582,0.008900221,-0.000963954,0.011953394,0.002576445,0.000294707,-0.347712560,-0.123948645,-1.095759205,-0.003023874,0.001110618,-0.009558817,0.999948128,0.000000000,0.000000000,0.000000000,0.000000000,0.000000000,0.000000000,0.049575076,0.000000000,3.874486923
1772689463.395200491,0.016421000,0.005900000,0.053947000,-0.006670110,0.012555330,-0.013327840,0.999810100,-0.013677000,0.024931000,-0.026830000,-0.000064452,-0.000500039,0.001083218,-0.009562067,0.012609764,0.002052515,0.009798976,-0.004089318,0.999009727,0.002508370,-0.000193963,0.000430894,0.000000000,0.000000000,0.000000000,0.000000000,0.017128120,0.006002805,0.054071582,0.040052871,0.008897996,-0.000923438,0.011628932,0.002617419,-0.001013826,-0.346604786,-0.122485662,-1.096619706,-0.003014321,0.001097781,-0.009566375,0.999948112,0.000000000,0.000000000,0.000000000,0.000000000,0.000000000,0.000000000,0.049575076,0.000000000,3.874486923
1772689463.405200720,0.016418000,0.005901000,0.053964000,-0.006509100,0.012403970,-0.013283690,0.999813640,-0.013350000,0.024633000,-0.026735000,-0.001104838,-0.001241124,0.002688755,-0.067071639,0.099236127,-0.015945924,0.009565309,-0.004695434,0.999065982,0.000867976,0.001017798,0.005218059,0.000000000,0.000000000,0.000000000,0.000000000,0.017126087,0.005997806,0.054078570,0.040078530,0.008891207,-0.000967523,0.011637112,0.001415583,-0.000610512,-0.346612475,-0.121752137,-1.094954738,-0.003014465,0.001091337,-0.009551866,0.999948225,0.000000000,0.000000000,0.000000000,0.000000000,0.000000000,0.000000000,0.049575076,0.000000000,3.874486923
1772689463.415200233,0.016369000,0.005848000,0.054074000,-0.007895960,0.014147520,-0.013629700,0.999775840,-0.016181000,0.028077000,-0.027491000,-0.002247147,-0.002307675,0.004648606,-0.161540232,0.227209876,-0.046411144,0.009342873,-0.005445686,0.999736311,0.001601260,0.002013998,0.002276296,0.000000000,0.000000000,0.000000000,0.000000000,0.017135024,0.005999287,0.054075993,0.040122271,0.008800732,-0.000975979,0.011670505,0.000497535,-0.000325023,-0.347200781,-0.122558927,-1.091914662,-0.003019561,0.001098347,-0.009525310,0.999948475,0.000000000,0.000000000,0.000000000,0.000000000,0.000000000,0.000000000,0.049575076,0.000000000,3.874486923
1772689463.425200462,0.016351000,0.005834000,0.054122000,-0.008919520,0.015703920,-0.013944390,0.999739660,-0.018282000,0.031156000,-0.028179000,-0.001719737,-0.002175352,0.003842175,-0.201760364,0.283843829,-0.058288738,0.010615192,-0.004593975,0.998805614,0.000596921,0.001575361,0.002478607,0.000000000,0.000000000,0.000000000,0.000000000,0.017151807,0.006021128,0.054036067,0.040208535,0.008748175,-0.001169348,0.012331374,0.001386680,-0.000635284,-0.346904540,-0.123736664,-1.089778078,-0.003016898,0.001108543,-0.009506636,0.999948610,0.000000000,0.000000000,0.000000000,0.000000000,0.000000000,0.000000000,0.049575076,0.000000000,3.874486923
1772689463.435200453,0.016346000,0.005825000,0.054093000,-0.009532380,0.016638290,-0.014182080,0.999715540,-0.019543000,0.033003000,-0.028693000,-0.000542405,-0.000814356,0.000938657,-0.154291068,0.210360113,-0.043213186,0.010425391,-0.001692091,0.999563903,0.000340099,-0.003146330,0.000642077,0.000000000,0.000000000,0.000000000,0.000000000,0.017156583,0.006027046,0.054027042,0.040300001,0.008804137,-0.001227800,0.012939070,0.003234660,-0.000821855,-0.346193959,-0.123347616,-1.087441548,-0.003010752,0.001105028,-0.009486265,0.999948865,0.000000000,0.000000000,0.000000000,0.000000000,0.000000000,0.000000000,0.049575076,0.000000000,3.874486923
1772689463.445200443,0.016352000,0.005820000,0.054099000,-0.010209020,0.017644990,-0.014368460,0.999688940,-0.020933000,0.034993000,-0.029110000,0.000704313,0.000440035,-0.001378401,-0.064572483,0.083346093,-0.015758063,0.009712759,-0.001722197,0.999532515,0.000119245,-0.000727026,-0.001298560,0.000000000,0.000000000,0.000000000,0.000000000,0.017151325,0.006019500,0.054043442,0.040339443,0.008913321,-0.001170488,0.011830856,0.003928973,-0.000877725,-0.346358158,-0.122183334,-1.086359751,-0.003012292,0.001094853,-0.009476855,0.999948961,0.000000000,0.000000000,0.000000000,0.000000000,0.000000000,0.000000000,0.049575076,0.000000000,3.874486923
1772689463.455200672,0.016348000,0.005817000,0.054106000,-0.010710710,0.018212320,-0.014444500,0.999672420,-0.021957000,0.036111000,-0.029293000,0.001224962,0.001101749,-0.002249128,0.017555606,-0.034996755,0.005893067,0.009115477,-0.002969953,1.000563419,0.000851855,-0.000015429,-0.001164697,0.000000000,0.000000000,0.000000000,0.000000000,0.017142505,0.006012531,0.054059428,0.040304188,0.009021097,-0.001091444,0.011759854,0.002987705,0.001130066,-0.345555379,-0.121742490,-1.085500463,-0.003005332,0.001090917,-0.009469376,0.999949061,0.000000000,0.000000000,0.000000000,0.000000000,0.000000000,0.000000000,0.049575076,0.000000000,3.874486923
1772689463.465201139,0.016375000,0.005831000,0.054088000,-0.010539420,0.018015630,-0.014380270,0.999678730,-0.021606000,0.035724000,-0.029154000,0.000405148,0.000395377,-0.000351244,0.025767744,-0.051835068,0.007691940,0.008880881,-0.003467553,1.000956799,0.002210855,-0.002356067,0.001177441,0.000000000,0.000000000,0.000000000,0.000000000,0.017136705,0.006012142,0.054067126,0.040257233,0.009056125,-0.000918413,0.010872711,0.002499221,0.000044042,-0.345245900,-0.121502866,-1.085120410,-0.003002654,0.001088791,-0.009466068,0.999949098,0.000000000,0.000000000,0.000000000,0.000000000,0.000000000,0.000000000,0.049575076,0.000000000,3.874486923
1772689463.475201607,0.016401000,0.005891000,0.053986000,-0.008954240,0.015392910,-0.013909600,0.999744670,-0.018342000,0.030534000,-0.028105000,-0.000031527,0.000244658,0.000200661,0.030143570,-0.048787075,0.005676630,0.008849408,-0.002599765,0.999803472,0.003269848,-0.004965491,0.003661206,0.000000000,0.000000000,0.000000000,0.000000000,0.017151062,0.006033604,0.054024839,0.040235719,0.009158079,-0.001088234,0.011489594,0.003205091,-0.000397895,-0.344475496,-0.121147649,-1.084298097,-0.002995968,0.001085606,-0.009458909,0.999949144,0.000000000,0.000000000,0.000000000,0.000000000,0.000000000,0.000000000,0.049575076,0.000000000,3.874486923
1772689463.485201836,0.016373000,0.005842000,0.054079000,-0.009390250,0.016260890,-0.014122110,0.999723950,-0.019246000,0.032253000,-0.028561000,0.000345902,0.000796252,-0.001337084,0.067416630,-0.085486437,0.013673989,0.009462418,-0.000317119,1.000097567,0.000869439,-0.000075241,-0.001159062,0.000000000,0.000000000,0.000000000,0.000000000,0.017165268,0.006055540,0.053986632,0.040236197,0.009355783,-0.001235034,0.011822966,0.004379031,-0.000073631,-0.342895688,-0.120640830,-1.082737252,-0.002982239,0.001081012,-0.009445318,0.999949336,0.000000000,0.000000000,0.000000000,0.000000000,0.000000000,0.000000000,0.049575076,0.000000000,3.874486923
1772689463.495201826,0.016355000,0.005830000,0.054096000,-0.009789120,0.016757680,-0.014308510,0.999709270,-0.020065000,0.033232000,-0.028957000,0.000310548,0.000961501,-0.001598583,0.080093745,-0.097273007,0.014625431,0.009327797,0.000061449,1.000904723,-0.001033862,0.002441924,0.000851194,0.000000000,0.000000000,0.000000000,0.000000000,0.017164007,0.006063139,0.053982684,0.040188196,0.009594586,-0.001185282,0.011277666,0.005855368,0.001129059,-0.342773089,-0.120954652,-1.082659994,-0.002981144,0.001083738,-0.009444637,0.999949336,0.000000000,0.000000000,0.000000000,0.000000000,0.000000000,0.000000000,0.049575076,0.000000000,3.874486923
1772689463.505201817,0.016348000,0.005830000,0.054105000,-0.010027600,0.017245620,-0.014329310,0.999698310,-0.020557000,0.034200000,-0.029017000,-0.000251807,0.000619290,-0.000836714,0.063908718,-0.082543387,0.008506139,0.009491704,-0.001248908,0.999549315,-0.001617752,0.003015062,0.003711295,0.000000000,0.000000000,0.000000000,0.000000000,0.017143938,0.006051470,0.054018527,0.040070965,0.009781642,-0.000939599,0.011803026,0.004455750,-0.000971447,-0.342769439,-0.121625780,-1.081624444,-0.002981067,0.001089568,-0.009435582,0.999949408,0.000000000,0.000000000,0.000000000,0.000000000,0.000000000,0.000000000,0.049575076,0.000000000,3.874486923
1772689463.515202045,0.016400000,0.005895000,0.053971000,-0.008489500,0.015238630,-0.013957240,0.999750420,-0.017409000,0.030237000,-0.028183000,-0.000189083,0.000278050,-0.000280362,0.047880281,-0.065184212,0.007389173,0.009407566,-0.003406105,0.998148890,-0.001243569,0.002428898,0.003449355,0.000000000,0.000000000,0.000000000,0.000000000,0.017128696,0.006036444,0.054050930,0.040017567,0.009820811,-0.000906028,0.011506478,0.002280915,-0.001387186,-0.342910859,-0.122668433,-1.080026923,-0.002982231,0.001098636,-0.009421613,0.999949518,0.000000000,0.000000000,0.000000000,0.000000000,0.000000000,0.000000000,0.049575076,0.000000000,3.874486923
