t,px,py,pz,qx,qy,qz,qw,roll,pitch,yaw,vx,vy,vz,wx_vicon,wy_vicon,wz_vicon,imu_acc_x,imu_acc_y,imu_acc_z,imu_gyro_x,imu_gyro_y,imu_gyro_z,motor_motor_m1,motor_motor_m2,motor_motor_m3,motor_motor_m4,est_stateEstimate_x,est_stateEstimate_y,est_stateEstimate_z,est_stateEstimate_vx,est_stateEstimate_vy,est_stateEstimate_vz,est_stateEstimate_ax,est_stateEstimate_ay,est_stateEstimate_az,att_stateEstimate_roll,att_stateEstimate_pitch,att_stateEstimate_yaw,att_stateEstimate_qx,att_stateEstimate_qy,att_stateEstimate_qz,att_stateEstimate_qw,sp_ctrltarget_x,sp_ctrltarget_y,sp_ctrltarget_z,sp_ctrltarget_yaw,pid_controller_roll,pid_controller_pitch,pid_controller_yaw,pid_controller_cmd_thrust,pwr_pm_vbat
1772688449.067671537,0.016134000,0.008998000,0.053711000,-0.000155100,0.009421490,-0.038381800,0.999218720,-0.001033000,0.018817000,-0.076796000,0.014143603,-0.011333888,0.012336123,0.004298891,-0.462543785,-0.050882554,0.011561349,-0.000469780,1.000900597,-0.001558462,-0.001121285,0.000698477,0.000000000,0.000000000,0.000000000,0.000000000,0.016602339,0.008871066,0.053811104,0.020136716,-0.002475006,0.001538086,0.006678058,-0.000064424,0.001197975,-0.059497201,0.312120844,-3.486426071,-0.000601826,-0.002706713,-0.030421380,0.999533006,0.000000000,0.000000000,0.000000000,0.000000000,0.000000000,0.000000000,0.483951598,0.000000000,4.165784889
1772688449.077672482,0.016263000,0.008897000,0.053830000,-0.000236610,0.007021350,-0.038597090,0.999230160,-0.001015000,0.014014000,-0.077222000,0.008358166,-0.006582835,0.006872481,0.018249229,-0.442338081,-0.038431590,0.011412902,-0.001147783,1.001612596,-0.000758805,0.006465552,0.000124947,0.000000000,0.000000000,0.000000000,0.000000000,0.016450042,0.008879026,0.053825696,0.018515713,-0.002012241,0.001531000,0.006388004,-0.000765927,0.001189350,-0.060369089,0.312596981,-3.478541135,-0.000609372,-0.002710676,-0.030352625,0.999532912,0.000000000,0.000000000,0.000000000,0.000000000,0.000000000,0.000000000,0.483951598,0.000000000,4.166411677
1772688449.087672710,0.016296000,0.008866000,0.053855000,-0.000169960,0.005189870,-0.038781490,0.999234220,-0.000742000,0.010359000,-0.077587000,0.003811192,-0.002908239,0.002806160,0.019859902,-0.346134094,-0.025592145,0.011806863,-0.000504828,1.000626144,0.000857289,0.004633606,0.000489849,0.000000000,0.000000000,0.000000000,0.000000000,0.016486729,0.008861429,0.053850372,0.018377001,-0.001870236,0.001643067,0.006217507,0.000153075,0.000976712,-0.062081878,0.328854619,-3.510119700,-0.000629402,-0.002851858,-0.030628176,0.999527236,0.000000000,0.000000000,0.000000000,0.000000000,0.000000000,0.000000000,0.483951598,0.000000000,4.167038420
1772688449.097672224,0.016314000,0.008857000,0.053858000,-0.000105990,0.003845490,-0.038811140,0.999239160,-0.000510000,0.007677000,-0.077644000,0.000466317,-0.000256954,0.000009188,0.013003601,-0.205148706,-0.013436656,0.011568303,-0.001322021,1.001550277,0.000968070,0.001174475,0.001389594,0.000000000,0.000000000,0.000000000,0.000000000,0.016597658,0.008837365,0.053868954,0.018933759,-0.001856345,0.001729035,0.005281873,-0.000086772,0.000559780,-0.061255185,0.327077329,-3.515497809,-0.000621850,-0.002836547,-0.030675063,0.999525591,0.000000000,0.000000000,0.000000000,0.000000000,0.000000000,0.000000000,0.483951598,0.000000000,4.167665118
1772688449.107672691,0.016321000,0.008854000,0.053848000,-0.000178730,0.003321300,-0.038915140,0.999236980,-0.000616000,0.006624000,-0.077852000,-0.001712822,0.001424166,-0.001646408,0.001677208,-0.050597371,-0.003003285,0.011164950,-0.001749263,1.002371195,0.001076443,-0.001731537,0.001985327,0.000000000,0.000000000,0.000000000,0.000000000,0.016649755,0.008826398,0.053883866,0.019162818,-0.001895679,0.001760535,0.005005247,-0.000803662,0.001856503,-0.060076146,0.326059084,-3.520111769,-0.000611407,-0.002827956,-0.030715276,0.999524514,0.000000000,0.000000000,0.000000000,0.000000000,0.000000000,0.000000000,0.483951598,0.000000000,4.168291876
1772688449.117672682,0.016325000,0.008853000,0.053867000,-0.000078510,0.002798660,-0.038928000,0.999238100,-0.000375000,0.005587000,-0.077877000,-0.002762590,0.002188269,-0.002288600,-0.010211620,0.086298201,0.004688130,0.010363241,-0.000552447,1.002372386,0.000615305,-0.001850595,0.001482368,0.000000000,0.000000000,0.000000000,0.000000000,0.016667623,0.008824699,0.053892402,0.019247233,-0.001924199,0.001934536,0.004952141,0.000025353,0.002360720,-0.060561489,0.327540233,-3.523814984,-0.000616129,-0.002840726,-0.030747593,0.999523356,0.000000000,0.000000000,0.000000000,0.000000000,0.000000000,0.000000000,0.483951598,0.000000000,4.168918604
1772688449.127672911,0.016313000,0.008862000,0.053866000,-0.000295320,0.002827110,-0.038918480,0.999238350,-0.000810000,0.005627000,-0.077859000,-0.002065814,0.001545728,-0.001538987,-0.013704660,0.119886458,0.005160895,0.011265864,0.000070878,1.000483157,-0.002696208,-0.000217854,0.002314693,0.000000000,0.000000000,0.000000000,0.000000000,0.016623359,0.008861485,0.053852325,0.019126722,-0.001771787,0.001901817,0.004779274,0.000141687,0.000557141,-0.061275909,0.330474902,-3.527433179,-0.000623238,-0.002866112,-0.030779180,0.999522203,0.000000000,0.000000000,0.000000000,0.000000000,0.000000000,0.000000000,0.483951598,0.000000000,4.169545346
1772688449.137672663,0.016156000,0.008969000,0.053733000,-0.000227870,0.006470560,-0.038687420,0.999230390,-0.000956000,0.012914000,-0.077402000,-0.000933140,0.000588579,-0.000648019,-0.009077385,0.093387467,0.004310293,0.009986167,-0.001263356,0.999567215,-0.000780870,0.000206692,0.005032516,0.000000000,0.000000000,0.000000000,0.000000000,0.016607921,0.008878109,0.053837543,0.019082603,-0.001681882,0.001824474,0.004243652,-0.001145752,-0.000487214,-0.061498318,0.332713994,-3.531305528,-0.000625877,-0.002885562,-0.030812968,0.999520908,0.000000000,0.000000000,0.000000000,0.000000000,0.000000000,0.000000000,0.483951598,0.000000000,4.170087814
1772688449.147672892,0.016259000,0.008904000,0.053819000,-0.000308340,0.005366140,-0.038812310,0.999232060,-0.001033000,0.010700000,-0.077651000,0.000732013,-0.000432285,0.000445397,-0.001076132,0.027465254,0.000124100,0.011342056,-0.002390271,0.999092596,0.000435749,-0.000842169,0.002831155,0.000000000,0.000000000,0.000000000,0.000000000,0.016632790,0.008863268,0.053851440,0.019097145,-0.001774402,0.001798166,0.004889001,-0.002219732,0.000080976,-0.061072055,0.332993803,-3.536575727,-0.000622367,-0.002888088,-0.030858932,0.999519598,0.000000000,0.000000000,0.000000000,0.000000000,0.000000000,0.000000000,0.483951598,0.000000000,4.170087814
1772688449.157672882,0.016295000,0.008875000,0.053833000,-0.000311520,0.004605230,-0.038878060,0.999233300,-0.000981000,0.009179000,-0.077781000,0.002685822,-0.001904994,0.002282248,0.002267575,-0.093066600,-0.011156709,0.012682588,-0.003136909,0.998775355,0.001255332,-0.001857952,-0.000021074,0.000000000,0.000000000,0.000000000,0.000000000,0.016522997,0.008852868,0.053864536,0.018822729,-0.001988206,0.001781853,0.005989557,-0.002439028,-0.000553757,-0.060148283,0.333141365,-3.541508648,-0.000614474,-0.002889598,-0.030901936,0.999518514,0.000000000,0.000000000,0.000000000,0.000000000,0.000000000,0.000000000,0.483951598,0.000000000,4.170087814
1772688449.167673111,0.016301000,0.008864000,0.053851000,-0.000207170,0.003847240,-0.038912460,0.999235200,-0.000713000,0.007673000,-0.077848000,0.002486793,-0.001668339,0.002472030,0.003944892,-0.140486278,-0.014673019,0.011527905,-0.001531324,0.999286898,-0.000097270,-0.001237482,-0.002291950,0.000000000,0.000000000,0.000000000,0.000000000,0.016620100,0.008835955,0.053879957,0.019137395,-0.002156612,0.001694761,0.005418241,-0.001017702,-0.000338188,-0.059847747,0.333959297,-3.545350157,-0.000612170,-0.002896792,-0.030935441,0.999517264,0.000000000,0.000000000,0.000000000,0.000000000,0.000000000,0.000000000,0.483951598,0.000000000,4.170087814
1772688449.177673101,0.016318000,0.008860000,0.053865000,-0.000228850,0.003780050,-0.038877850,0.999236790,-0.000751000,0.007537000,-0.077779000,-0.000952410,0.000464433,-0.000176904,-0.002141408,-0.012937232,-0.002407760,0.012889460,-0.002632054,1.001323875,-0.001011613,-0.001107749,0.001851373,0.000000000,0.000000000,0.000000000,0.000000000,0.016542556,0.008840732,0.053886108,0.018964158,-0.002164094,0.001634446,0.006536682,-0.001513204,0.000985374,-0.059490537,0.335817369,-3.550065065,-0.000609676,-0.002913071,-0.030976562,0.999515865,0.000000000,0.000000000,0.000000000,0.000000000,0.000000000,0.000000000,0.483951598,0.000000000,4.170087814
1772688449.187672853,0.016321000,0.008864000,0.053875000,-0.000278460,0.003555780,-0.039025590,0.999231850,-0.000834000,0.007084000,-0.078074000,-0.003484599,0.002144777,-0.002542485,-0.003687751,0.151218202,0.012963078,0.012809756,-0.003461865,1.001277449,0.000952357,0.000664280,0.000623314,0.000000000,0.000000000,0.000000000,0.000000000,0.016441046,0.008877574,0.053845197,0.018794187,-0.002158939,0.001488726,0.006950298,-0.002949782,0.001475967,-0.059489604,0.337806652,-3.554294178,-0.000610313,-0.002930400,-0.031013456,0.999514824,0.000000000,0.000000000,0.000000000,0.000000000,0.000000000,0.000000000,0.483951598,0.000000000,4.170087814
1772688449.197672844,0.016293000,0.008864000,0.053878000,-0.000404320,0.003327230,-0.039018520,0.999232870,-0.001068000,0.006618000,-0.078061000,-0.004132793,0.002840484,-0.003514009,-0.002494085,0.265297200,0.026938846,0.012325382,-0.003166894,1.001261891,0.000670636,0.001062632,0.000752184,0.000000000,0.000000000,0.000000000,0.000000000,0.016424375,0.008897827,0.053818008,0.018809148,-0.002180419,0.001403776,0.006456851,-0.002743896,0.001431350,-0.059887416,0.337999712,-3.554770118,-0.000613848,-0.002931974,-0.031017618,0.999514491,0.000000000,0.000000000,0.000000000,0.000000000,0.000000000,0.000000000,0.483951598,0.000000000,4.170087814
1772688449.207673073,0.016156000,0.008973000,0.053736000,-0.000249500,0.007108550,-0.038656690,0.999227230,-0.001048000,0.014187000,-0.077342000,-0.003124401,0.002274653,-0.003069447,0.002052744,0.306298484,0.034083005,0.011809631,-0.002784736,1.001248725,0.000214845,0.001354520,0.000986231,0.000000000,0.000000000,0.000000000,0.000000000,0.016449305,0.008894850,0.053819898,0.018867942,-0.002207303,0.001415163,0.005963392,-0.002538006,0.001386731,-0.060285238,0.338192776,-3.555246070,-0.000617382,-0.002933547,-0.031021781,0.999514311,0.000000000,0.000000000,0.000000000,0.000000000,0.000000000,0.000000000,0.483951598,0.000000000,4.170087814
1772688449.217672348,0.016114000,0.008980000,0.053698000,-0.000079170,0.009628600,-0.038358440,0.999217650,-0.000897000,0.019237000,-0.076748000,-0.000977740,0.000650137,-0.001154605,0.004823493,0.234231569,0.030204661,0.011293930,-0.002402613,1.001235560,-0.000240902,0.001646380,0.001220256,0.000000000,0.000000000,0.000000000,0.000000000,0.016474232,0.008891873,0.053821788,0.018926731,-0.002234184,0.001426549,0.005469980,-0.002332135,0.001342117,-0.060683022,0.338385822,-3.555721977,-0.000620916,-0.002935121,-0.031025942,0.999514130,0.000000000,0.000000000,0.000000000,0.000000000,0.000000000,0.000000000,0.483951598,0.000000000,4.170087814
1772688449.227672815,0.016269000,0.008897000,0.053814000,-0.000043660,0.007683630,-0.038462280,0.999230510,-0.000678000,0.015353000,-0.076951000,0.001773681,-0.001191784,0.001315405,0.002677452,0.076944134,0.016018849,0.010778167,-0.002020445,1.001222394,-0.000696704,0.001938274,0.001454309,0.000000000,0.000000000,0.000000000,0.000000000,0.016499163,0.008888896,0.053823679,0.018985527,-0.002261068,0.001437936,0.004976509,-0.002126239,0.001297498,-0.061080854,0.338578892,-3.556197940,-0.000624451,-0.002936695,-0.031030105,0.999513949,0.000000000,0.000000000,0.000000000,0.000000000,0.000000000,0.000000000,0.483951598,0.000000000,4.170087814
1772688449.237673044,0.016175000,0.008967000,0.053745000,0.000005310,0.009694080,-0.038243130,0.999221440,-0.000731000,0.019375000,-0.076516000,0.003658861,-0.002446584,0.003284677,-0.000726807,-0.123264087,-0.006912812,0.010262416,-0.001638287,1.001209229,-0.001152494,0.002230162,0.001688356,0.000000000,0.000000000,0.000000000,0.000000000,0.016524092,0.008885918,0.053825569,0.019044321,-0.002287952,0.001449323,0.004483050,-0.001920349,0.001252880,-0.061478676,0.338771956,-3.556673892,-0.000627985,-0.002938268,-0.031034267,0.999513768,0.000000000,0.000000000,0.000000000,0.000000000,0.000000000,0.000000000,0.483951598,0.000000000,4.170087814
1772688449.247672796,0.016289000,0.008874000,0.053853000,-0.000110400,0.007713810,-0.038460690,0.999230330,-0.000814000,0.015408000,-0.076949000,0.003894856,-0.002861172,0.003747517,-0.001999295,-0.281628069,-0.025938300,0.009746690,-0.001256146,1.001196064,-0.001608263,0.002522035,0.001922392,0.000000000,0.000000000,0.000000000,0.000000000,0.016549021,0.008882941,0.053827460,0.019103113,-0.002314834,0.001460710,0.003989614,-0.001714468,0.001208263,-0.061876479,0.338965012,-3.557149821,-0.000631519,-0.002939842,-0.031038429,0.999513587,0.000000000,0.000000000,0.000000000,0.000000000,0.000000000,0.000000000,0.483951598,0.000000000,4.170087814
1772688449.257672787,0.016302000,0.008854000,0.053869000,-0.000299630,0.005766250,-0.038627440,0.999237000,-0.001044000,0.011501000,-0.077281000,0.002037201,-0.001465056,0.001761929,-0.000539804,-0.291223224,-0.026646337,0.009230951,-0.000873996,1.001182898,-0.002064043,0.002813916,0.002156434,0.000000000,0.000000000,0.000000000,0.000000000,0.016573950,0.008879964,0.053829350,0.019161906,-0.002341717,0.001472097,0.003496167,-0.001508582,0.001163646,-0.062274292,0.339158072,-3.557625761,-0.000635054,-0.002941415,-0.031042591,0.999513407,0.000000000,0.000000000,0.000000000,0.000000000,0.000000000,0.000000000,0.483951598,0.000000000,4.170087814
1772688449.267672777,0.016310000,0.008862000,0.053868000,-0.000297970,0.004343440,-0.038754620,0.999239270,-0.000932000,0.008657000,-0.077533000,0.001408024,-0.001285374,0.000941473,0.006488116,-0.292017240,-0.024861024,0.009394283,-0.000747854,1.000661260,-0.001635781,0.001443313,0.002026727,0.000000000,0.000000000,0.000000000,0.000000000,0.016598879,0.008876987,0.053831241,0.019220699,-0.002368600,0.001483484,0.003494475,-0.001141315,-0.000196865,-0.062948046,0.339968324,-3.559888635,-0.000641208,-0.002948288,-0.031062349,0.999513046,0.000000000,0.000000000,0.000000000,0.000000000,0.000000000,0.000000000,0.483951598,0.000000000,4.170087814
1772688449.277673483,0.016302000,0.008866000,0.053859000,-0.000239770,0.003368490,-0.038846970,0.999239470,-0.000741000,0.006713000,-0.077716000,0.000040074,-0.000107479,-0.000417561,0.008733271,-0.191449627,-0.013230456,0.011063749,-0.000845044,0.999933270,0.000857125,-0.000979920,0.000819706,0.000000000,0.000000000,0.000000000,0.000000000,0.016546656,0.008904441,0.053779955,0.018954236,-0.002254300,0.001205457,0.005155544,-0.000217620,0.000023290,-0.063779665,0.340625240,-3.563427139,-0.000648731,-0.002953772,-0.031093238,0.999512108,0.000000000,0.000000000,0.000000000,0.000000000,0.000000000,0.000000000,0.483951598,0.000000000,4.170087814
1772688449.287672758,0.016310000,0.008855000,0.053852000,-0.000166120,0.002812350,-0.038889530,0.999239540,-0.000551000,0.005608000,-0.077801000,-0.002373001,0.001769232,-0.002239144,0.006137093,0.014618237,0.007628162,0.013553462,-0.000990758,1.000447867,0.003200683,0.000827590,-0.001646095,0.000000000,0.000000000,0.000000000,0.000000000,0.016584196,0.008883674,0.053802682,0.019189537,-0.002241128,0.001305189,0.007242296,-0.000621309,0.000701193,-0.064300352,0.340469316,-3.566973461,-0.000653322,-0.002952250,-0.031124184,0.999511165,0.000000000,0.000000000,0.000000000,0.000000000,0.000000000,0.000000000,0.483951598,0.000000000,4.170087814
1772688449.297673225,0.016303000,0.008867000,0.053847000,-0.000216750,0.002678810,-0.038763800,0.999244790,-0.000641000,0.005337000,-0.077549000,-0.001965367,0.001543222,-0.001633393,0.000339351,0.125094246,0.014998381,0.013008428,-0.002127622,0.998863371,0.000746649,-0.000848130,-0.001942799,0.000000000,0.000000000,0.000000000,0.000000000,0.016574150,0.008900499,0.053790233,0.019493874,-0.002245414,0.001222996,0.007035018,-0.001384786,-0.001129824,-0.064150282,0.340204988,-3.571046915,-0.000652046,-0.002949963,-0.031159708,0.999510088,0.000000000,0.000000000,0.000000000,0.000000000,0.000000000,0.000000000,0.483951598,0.000000000,4.170087814
1772688449.307673693,0.016298000,0.008858000,0.053853000,-0.000172830,0.002694710,-0.038836860,0.999241920,-0.000555000,0.005372000,-0.077695000,-0.001317095,0.001152623,-0.000856295,-0.008458243,0.152897902,0.012823670,0.012556405,-0.001343443,0.998340498,0.001869769,-0.003052278,0.000803081,0.000000000,0.000000000,0.000000000,0.000000000,0.016628461,0.008859663,0.053838736,0.019899750,-0.002446612,0.001239232,0.006589908,0.000011780,-0.001095532,-0.063003271,0.340976894,-3.574900000,-0.000642351,-0.002956986,-0.031193290,0.999509046,0.000000000,0.000000000,0.000000000,0.000000000,0.000000000,0.000000000,0.483951598,0.000000000,4.170087814
1772688449.317673922,0.016163000,0.008965000,0.053744000,-0.000209890,0.006773240,-0.038457120,0.999237270,-0.000941000,0.013520000,-0.076941000,-0.000362801,0.000528497,-0.000018745,-0.009330320,0.113427902,0.005629374,0.011218966,-0.001618792,0.999048385,-0.001410466,-0.001255830,0.001380072,0.000000000,0.000000000,0.000000000,0.000000000,0.016659872,0.008833056,0.053866212,0.020056403,-0.002481217,0.001174477,0.004804343,-0.000796539,-0.001016826,-0.062178699,0.343831090,-3.578751640,-0.000636036,-0.002982084,-0.031226875,0.999507814,0.000000000,0.000000000,0.000000000,0.000000000,0.000000000,0.000000000,0.483951598,0.000000000,4.170087814
1772688449.327674389,0.016268000,0.008900000,0.053832000,-0.000203010,0.005676540,-0.038566800,0.999239880,-0.000844000,0.011329000,-0.077159000,0.000751030,-0.000273990,0.000747942,-0.005849992,0.034679948,-0.002276215,0.008436879,-0.002073739,0.999900885,-0.001728434,-0.001769040,-0.000124457,0.000000000,0.000000000,0.000000000,0.000000000,0.016679312,0.008822912,0.053878174,0.020067919,-0.002554682,0.001091988,0.002893291,-0.001332719,-0.000241991,-0.062857690,0.346016323,-3.583140244,-0.000642668,-0.003000935,-0.031265181,0.999506513,0.000000000,0.000000000,0.000000000,0.000000000,0.000000000,0.000000000,0.483951598,0.000000000,4.170087814
1772688449.337673903,0.016296000,0.008880000,0.053850000,-0.000270560,0.004805560,-0.038753930,0.999237190,-0.000913000,0.009583000,-0.077533000,0.001729508,-0.001352663,0.001556917,-0.000194000,-0.061717760,-0.010704631,0.007854105,-0.002411137,1.002010964,-0.000931979,-0.002285460,-0.000292962,0.000000000,0.000000000,0.000000000,0.000000000,0.016684375,0.008815828,0.053877147,0.019633755,-0.002631878,0.001066763,0.001954906,-0.001003312,0.001913904,-0.064111686,0.348711579,-3.589297303,-0.000654504,-0.003024066,-0.031318926,0.999504795,0.000000000,0.000000000,0.000000000,0.000000000,0.000000000,0.000000000,0.483951598,0.000000000,4.170087814
1772688449.347674608,0.016301000,0.008871000,0.053859000,-0.000318640,0.004004880,-0.038830560,0.999237730,-0.000948000,0.007979000,-0.077685000,0.002031451,-0.001781529,0.001660277,0.004131655,-0.127887293,-0.012793166,0.009639969,-0.000455863,1.000271984,0.003631119,-0.004249434,0.003247862,0.000000000,0.000000000,0.000000000,0.000000000,0.016537817,0.008829599,0.053865535,0.018754119,-0.002595376,0.001133310,0.003409362,0.000245210,0.000614026,-0.063682413,0.351210427,-3.594293646,-0.000651575,-0.003045951,-0.031362506,0.999503628,0.000000000,0.000000000,0.000000000,0.000000000,0.000000000,0.000000000,0.483951598,0.000000000,4.170087814
1772688449.357675076,0.016300000,0.008862000,0.053856000,-0.000216860,0.003688000,-0.038793190,0.999240430,-0.000720000,0.007354000,-0.077609000,0.002179431,-0.001898292,0.001752216,0.008015508,-0.181755558,-0.016835022,0.010883336,-0.001261954,0.999106467,-0.002183061,0.002229172,-0.000434336,0.000000000,0.000000000,0.000000000,0.000000000,0.016663976,0.008816650,0.053867678,0.018896021,-0.002490512,0.001172933,0.004549910,-0.000236865,-0.001148021,-0.062827092,0.354672908,-3.597891723,-0.000645159,-0.003076366,-0.031393883,0.999502559,0.000000000,0.000000000,0.000000000,0.000000000,0.000000000,0.000000000,0.483951598,0.000000000,4.170087814
1772688449.367675543,0.016313000,0.008859000,0.053865000,-0.000243590,0.003523470,-0.038799230,0.999240780,-0.000760000,0.007023000,-0.077621000,-0.001157557,0.000804546,-0.001088618,0.005398943,-0.038855972,-0.002628040,0.010391681,-0.001972340,0.999413876,-0.002766821,0.001671268,-0.001566058,0.000000000,0.000000000,0.000000000,0.000000000,0.016600676,0.008865501,0.053819671,0.018622197,-0.002327702,0.000800367,0.003116076,-0.002098431,-0.000853565,-0.064040130,0.355630923,-3.601102938,-0.000656088,-0.003084371,-0.031421923,0.999501399,0.000000000,0.000000000,0.000000000,0.000000000,0.000000000,0.000000000,0.483951598,0.000000000,4.170087814
1772688449.377676249,0.016307000,0.008846000,0.053874000,-0.000232320,0.003117630,-0.038899510,0.999238240,-0.000707000,0.006212000,-0.077821000,-0.001210899,0.001064181,-0.001210335,0.003164225,0.009391199,0.000460195,0.012275828,-0.000425897,0.999950312,0.001079489,0.000058794,-0.001662793,0.000000000,0.000000000,0.000000000,0.000000000,0.016620181,0.008855866,0.053837559,0.018584945,-0.002421050,0.000771898,0.006291607,0.000355914,0.000004434,-0.064246934,0.356009276,-3.605294850,-0.000658109,-0.003087591,-0.031458493,0.999500308,0.000000000,0.000000000,0.000000000,0.000000000,0.000000000,0.000000000,0.483951598,0.000000000,4.170087814
1772688449.387677193,0.016306000,0.008867000,0.053847000,-0.000206370,0.003180690,-0.038863080,0.999239460,-0.000660000,0.006341000,-0.077748000,-0.002673934,0.002138425,-0.002465542,-0.002172849,0.140213740,0.008439895,0.012438242,-0.000696874,0.999739546,0.000860104,0.000396128,0.002900336,0.000000000,0.000000000,0.000000000,0.000000000,0.016642598,0.008841045,0.053855675,0.018768096,-0.002382540,0.000781560,0.006195610,-0.000112250,-0.000830230,-0.064316134,0.356404975,-3.609768301,-0.000658942,-0.003090997,-0.031497515,0.999498916,0.000000000,0.000000000,0.000000000,0.000000000,0.000000000,0.000000000,0.483951598,0.000000000,4.170087814
1772688449.397676706,0.016297000,0.008884000,0.053848000,-0.000228200,0.002938250,-0.038907360,0.999238480,-0.000685000,0.005854000,-0.077837000,-0.002887784,0.002213075,-0.002556180,-0.007133986,0.239864001,0.019029781,0.013023118,-0.002725225,1.003450939,0.002339447,-0.001786696,-0.000041443,0.000000000,0.000000000,0.000000000,0.000000000,0.016653616,0.008830873,0.053864400,0.018920957,-0.002373530,0.000807614,0.006974129,-0.001598102,0.002480666,-0.064316502,0.356820067,-3.614069977,-0.000659175,-0.003094593,-0.031535038,0.999498307,0.000000000,0.000000000,0.000000000,0.000000000,0.000000000,0.000000000,0.483951598,0.000000000,4.170087814
1772688449.407677174,0.016153000,0.008977000,0.053727000,-0.000135480,0.006815070,-0.038573670,0.999232510,-0.000797000,0.013610000,-0.077174000,-0.001745262,0.001234694,-0.001434345,-0.007804740,0.262985880,0.025615010,0.011863460,-0.001799617,1.002769559,-0.000794674,0.000950963,-0.000435274,0.000000000,0.000000000,0.000000000,0.000000000,0.016661368,0.008823232,0.053869622,0.019035005,-0.002441461,0.000982584,0.005264502,-0.001034696,0.003502602,-0.063139281,0.357567976,-3.615443795,-0.000649150,-0.003101433,-0.031546994,0.999497579,0.000000000,0.000000000,0.000000000,0.000000000,0.000000000,0.000000000,0.483951598,0.000000000,4.170087814
1772688449.417677879,0.016266000,0.008887000,0.053822000,-0.000228340,0.005982330,-0.038669390,0.999234130,-0.000919000,0.011938000,-0.077365000,0.001120611,-0.000841629,0.001081742,-0.005701898,0.147535592,0.018670838,0.010550824,-0.001211657,1.001831761,-0.001309201,0.002129884,-0.000714982,0.000000000,0.000000000,0.000000000,0.000000000,0.016670476,0.008816090,0.053878869,0.019063959,-0.002516983,0.001284325,0.004463712,-0.000429070,0.002110668,-0.063317175,0.357832150,-3.618573073,-0.000650859,-0.003103670,-0.031574292,0.999496654,0.000000000,0.000000000,0.000000000,0.000000000,0.000000000,0.000000000,0.483951598,0.000000000,4.170087814
1772688449.427677870,0.016172000,0.008957000,0.053747000,-0.000121870,0.009423280,-0.038321130,0.999221040,-0.000966000,0.018824000,-0.076674000,0.002137842,-0.001829295,0.002111929,-0.001256975,0.008485142,0.004989433,0.010418932,-0.000529592,1.001349215,-0.002016739,0.001725653,-0.001691634,0.000000000,0.000000000,0.000000000,0.000000000,0.016671980,0.008808404,0.053887317,0.018939335,-0.002496975,0.001436536,0.003216254,0.000815531,0.001367177,-0.063730124,0.359410949,-3.621573564,-0.000654978,-0.003117310,-0.031600483,0.999495780,0.000000000,0.000000000,0.000000000,0.000000000,0.000000000,0.000000000,0.483951598,0.000000000,4.170087814
1772688449.437678099,0.016290000,0.008877000,0.053846000,-0.000196310,0.007497650,-0.038387520,0.999234780,-0.000968000,0.014969000,-0.076803000,0.000701865,-0.000486636,0.000546834,0.001957635,-0.016083612,0.002384829,0.011937552,-0.001310745,1.001936765,-0.002077510,-0.000012791,-0.002451188,0.000000000,0.000000000,0.000000000,0.000000000,0.016669821,0.008816818,0.053880600,0.018755680,-0.002348294,0.001494435,0.006339323,-0.000484576,0.002277203,-0.064712298,0.360722232,-3.624999716,-0.000664000,-0.003128456,-0.031630401,0.999494706,0.000000000,0.000000000,0.000000000,0.000000000,0.000000000,0.000000000,0.483951598,0.000000000,4.170087814
1772688449.447677851,0.016317000,0.008857000,0.053873000,-0.000199940,0.006001080,-0.038544670,0.999238840,-0.000862000,0.011978000,-0.077115000,-0.000789200,0.000690366,-0.000702992,0.002188981,-0.000820890,-0.001800309,0.011985396,-0.002339234,1.000847695,0.000078512,-0.000826065,-0.001232104,0.000000000,0.000000000,0.000000000,0.000000000,0.016649573,0.008838418,0.053866008,0.018748809,-0.002250811,0.001554817,0.005196699,-0.002070447,0.000808847,-0.066953091,0.361816133,-3.628536020,-0.000683943,-0.003137358,-0.031661313,0.999493816,0.000000000,0.000000000,0.000000000,0.000000000,0.000000000,0.000000000,0.483951598,0.000000000,4.170087814
1772688449.457678318,0.016318000,0.008857000,0.053867000,-0.000184910,0.004780370,-0.038688890,0.999239850,-0.000739000,0.009539000,-0.077402000,-0.002223953,0.001696155,-0.002027119,0.000731984,0.069497702,-0.000861758,0.010078719,-0.002045866,1.000912001,0.000757242,-0.000881880,0.000549333,0.000000000,0.000000000,0.000000000,0.000000000,0.016590958,0.008878888,0.053817470,0.018559259,-0.002225828,0.001375345,0.003112444,-0.001048583,0.000285511,-0.067842183,0.362337096,-3.631021337,-0.000691910,-0.003141641,-0.031683012,0.999493242,0.000000000,0.000000000,0.000000000,0.000000000,0.000000000,0.000000000,0.483951598,0.000000000,4.170087814
1772688449.467678308,0.016158000,0.008965000,0.053735000,-0.000129060,0.007704290,-0.038507820,0.999228590,-0.000851000,0.015387000,-0.077044000,-0.001023408,0.000709014,-0.000860626,0.001234306,0.040063997,-0.004459135,0.010160157,-0.002017133,1.001511993,0.002006421,0.001401969,0.001302070,0.000000000,0.000000000,0.000000000,0.000000000,0.016595801,0.008869863,0.053823011,0.018449626,-0.002291270,0.001376141,0.003657667,-0.000693200,0.001178432,-0.067899077,0.362776087,-3.632909561,-0.000692579,-0.003145443,-0.031699486,0.999492686,0.000000000,0.000000000,0.000000000,0.000000000,0.000000000,0.000000000,0.483951598,0.000000000,4.170087814
1772688449.477678061,0.016131000,0.008997000,0.053704000,-0.000080430,0.010215980,-0.038265260,0.999215390,-0.000943000,0.020411000,-0.076563000,-0.000259208,0.000143260,-0.000116628,-0.000439866,0.022522071,-0.001279144,0.010454497,-0.003463045,1.000987108,0.002121528,-0.003578025,0.001129802,0.000000000,0.000000000,0.000000000,0.000000000,0.016574313,0.008883599,0.053807504,0.018289542,-0.002282251,0.001402963,0.003841178,-0.002678263,0.001271667,-0.068993266,0.365979428,-3.636940282,-0.000703127,-0.003173054,-0.031734690,0.999492276,0.000000000,0.000000000,0.000000000,0.000000000,0.000000000,0.000000000,0.483951598,0.000000000,4.170087814
1772688449.487678289,0.016262000,0.008891000,0.053826000,-0.000170780,0.007883260,-0.038574000,0.999224640,-0.000950000,0.015742000,-0.077177000,0.002454315,-0.001716610,0.002225527,-0.002947669,-0.117860106,-0.006805313,0.010005383,-0.003750047,1.000950112,0.000843073,-0.002866194,0.000963916,0.000000000,0.000000000,0.000000000,0.000000000,0.016611114,0.008856332,0.053842104,0.018381365,-0.002537156,0.001606980,0.003611224,-0.002941267,0.000843803,-0.070393412,0.369944999,-3.641602126,-0.000716574,-0.003207223,-0.031775410,0.999491903,0.000000000,0.000000000,0.000000000,0.000000000,0.000000000,0.000000000,0.483951598,0.000000000,4.170087814
1772688449.497677803,0.016304000,0.008870000,0.053857000,-0.000185340,0.006007260,-0.038646480,0.999234870,-0.000835000,0.011991000,-0.077319000,0.003769584,-0.002658200,0.003397925,-0.000841475,-0.256702935,-0.014169128,0.009864685,-0.002511286,1.000898119,-0.000895416,0.001812897,0.001302779,0.000000000,0.000000000,0.000000000,0.000000000,0.016638779,0.008833745,0.053870194,0.018365124,-0.002789250,0.001711691,0.003332593,-0.001452089,0.000445242,-0.071793458,0.373910287,-3.646263636,-0.000730020,-0.003241390,-0.031816127,0.999491292,0.000000000,0.000000000,0.000000000,0.000000000,0.000000000,0.000000000,0.483951598,0.000000000,4.170087814
1772688449.507678509,0.016308000,0.008860000,0.053875000,-0.000208950,0.004390910,-0.038683530,0.999241840,-0.000757000,0.008759000,-0.077390000,0.003151557,-0.002277663,0.003014377,-0.001119760,-0.316910057,-0.018616765,0.010735248,-0.000857389,1.000118170,-0.000549389,-0.001391925,-0.001818829,0.000000000,0.000000000,0.000000000,0.000000000,0.016628444,0.008819641,0.053885340,0.017748521,-0.002856826,0.001688203,0.005448676,0.000136162,-0.000072561,-0.073193671,0.377876047,-3.650925702,-0.000743467,-0.003275561,-0.031856849,0.999490092,0.000000000,0.000000000,0.000000000,0.000000000,0.000000000,0.000000000,0.483951598,0.000000000,4.170087814
1772688449.517678499,0.016323000,0.008853000,0.053875000,-0.000377490,0.003495830,-0.038731230,0.999243480,-0.001025000,0.006957000,-0.077486000,0.001128342,-0.001024418,0.001285005,-0.000048965,-0.263917611,-0.016341294,0.009655855,-0.002435987,0.999461204,-0.004600948,0.003464942,0.001565110,0.000000000,0.000000000,0.000000000,0.000000000,0.016361837,0.008855579,0.053866485,0.013181636,-0.002446908,0.000691501,0.002710797,-0.000198116,-0.000341942,-0.074593783,0.381841524,-3.655587434,-0.000756913,-0.003309730,-0.031897568,0.999487836,0.000000000,0.000000000,0.000000000,0.000000000,0.000000000,0.000000000,0.483951598,0.000000000,4.170087814
1772688449.527678728,0.016312000,0.008863000,0.053872000,-0.000392400,0.002947450,-0.038788830,0.999243010,-0.001013000,0.005860000,-0.077600000,-0.000966318,0.000670358,-0.000789958,-0.000934046,-0.115219680,-0.005057181,0.009510995,-0.001933689,0.999793577,0.000923832,-0.001891273,0.001016735,0.000000000,0.000000000,0.000000000,0.000000000,0.016430181,0.008843488,0.053871108,0.013492312,-0.002524062,0.000660745,0.002765420,-0.001349866,-0.000024000,-0.075993929,0.385807095,-3.660249278,-0.000770360,-0.003343899,-0.031938288,0.999485580,0.000000000,0.000000000,0.000000000,0.000000000,0.000000000,0.000000000,0.483951598,0.000000000,4.170087814
1772688449.537678719,0.016295000,0.008869000,0.053863000,-0.000316500,0.002614140,-0.038793450,0.999243780,-0.000835000,0.005200000,-0.077609000,-0.002979082,0.002184831,-0.002600041,0.000034329,0.080117078,0.006465432,0.012486942,-0.000926557,1.000015229,-0.000697600,0.005021061,0.000583392,0.000000000,0.000000000,0.000000000,0.000000000,0.016495701,0.008831327,0.053870988,0.013790583,-0.002545187,0.000659121,0.004982060,0.000546416,0.000585820,-0.077313759,0.389537491,-3.664760208,-0.000783037,-0.003376040,-0.031977688,0.999483324,0.000000000,0.000000000,0.000000000,0.000000000,0.000000000,0.000000000,0.483951598,0.000000000,4.170087814
1772688449.547678709,0.016288000,0.008872000,0.053864000,-0.000400980,0.002735120,-0.038824360,0.999242230,-0.001014000,0.005435000,-0.077671000,-0.003648391,0.002854568,-0.003293185,-0.001599958,0.248427954,0.020603551,0.012538515,-0.002689976,0.999301631,-0.000482750,-0.001592093,0.000687029,0.000000000,0.000000000,0.000000000,0.000000000,0.016498342,0.008854999,0.053835250,0.014101411,-0.002488831,0.000528609,0.005806845,-0.001872670,-0.001017802,-0.076998317,0.388417601,-3.665898182,-0.000780006,-0.003366353,-0.031987593,0.999482494,0.000000000,0.000000000,0.000000000,0.000000000,0.000000000,0.000000000,0.483951598,0.000000000,4.170087814
1772688449.557678699,0.016298000,0.008866000,0.053853000,-0.000276330,0.002843010,-0.038787950,0.999243380,-0.000773000,0.005660000,-0.077598000,-0.002816611,0.002096875,-0.002667563,-0.000561164,0.313311061,0.027493098,0.014046149,-0.000841858,0.999287823,0.003906615,0.001693065,0.000064667,0.000000000,0.000000000,0.000000000,0.000000000,0.016463407,0.008897012,0.053784324,0.014407348,-0.002438056,0.000317225,0.006900981,0.000067185,-0.000236648,-0.077075115,0.387292770,-3.662161215,-0.000780253,-0.003356546,-0.031954996,0.999483143,0.000000000,0.000000000,0.000000000,0.000000000,0.000000000,0.000000000,0.483951598,0.000000000,4.170087814
1772688449.567678213,0.016163000,0.008980000,0.053735000,-0.000244030,0.006863270,-0.038420320,0.999238070,-0.001015000,0.013698000,-0.076868000,-0.000014375,0.000076865,-0.000256061,-0.003186777,0.224087999,0.015322620,0.013419667,0.000087341,1.000112694,0.002567225,0.001938041,-0.001638409,0.000000000,0.000000000,0.000000000,0.000000000,0.016470177,0.008900813,0.053777246,0.014838403,-0.002371853,0.000276919,0.006694858,0.001401383,0.000435366,-0.076995627,0.387095858,-3.658684173,-0.000779403,-0.003354874,-0.031924668,0.999484182,0.000000000,0.000000000,0.000000000,0.000000000,0.000000000,0.000000000,0.483951598,0.000000000,4.170087814
1772688449.577677488,0.016128000,0.008998000,0.053713000,-0.000110540,0.009834360,-0.038233120,0.999220450,-0.000973000,0.019646000,-0.076498000,0.000473000,-0.000305031,0.000349961,-0.002420897,0.142986869,0.005831863,0.011296099,-0.000876726,0.999176238,0.001108251,-0.001392348,-0.000224719,0.000000000,0.000000000,0.000000000,0.000000000,0.016528014,0.008864212,0.053815309,0.015335539,-0.002337086,0.000402638,0.003875330,-0.000035981,-0.000257614,-0.076316355,0.387140256,-3.659991083,-0.000773529,-0.003355442,-0.031936046,0.999484245,0.000000000,0.000000000,0.000000000,0.000000000,0.000000000,0.000000000,0.483951598,0.000000000,4.170087814
1772688449.587677717,0.016278000,0.008885000,0.053838000,-0.000269610,0.007845260,-0.038385710,0.999232160,-0.001141000,0.015658000,-0.076802000,0.001022417,-0.000839084,0.000927371,0.000268243,0.040814047,-0.006421060,0.010324506,0.000511253,1.000616949,-0.002771126,0.002542410,0.001764332,0.000000000,0.000000000,0.000000000,0.000000000,0.016569536,0.008838527,0.053844202,0.015574577,-0.002309874,0.000474955,0.003318827,0.001538421,0.000364520,-0.076357701,0.386745949,-3.661839375,-0.000773833,-0.003351979,-0.031952168,0.999483773,0.000000000,0.000000000,0.000000000,0.000000000,0.000000000,0.000000000,0.483951598,0.000000000,4.170087814
1772688449.597676754,0.016308000,0.008855000,0.053859000,-0.000178230,0.006119400,-0.038609000,0.999235640,-0.000829000,0.012216000,-0.077244000,0.002455733,-0.001881315,0.001987745,0.003053896,-0.117702660,-0.022422765,0.009978134,-0.000527419,1.000324189,-0.001123593,0.003475585,0.000810337,0.000000000,0.000000000,0.000000000,0.000000000,0.016587847,0.008832057,0.053860913,0.015643367,-0.002215616,0.000489189,0.003473973,0.000956835,0.000644270,-0.076717421,0.386157178,-3.663589904,-0.000776858,-0.003346731,-0.031967442,0.999483474,0.000000000,0.000000000,0.000000000,0.000000000,0.000000000,0.000000000,0.483951598,0.000000000,4.170087814
1772688449.607677221,0.016313000,0.008864000,0.053878000,-0.000297060,0.004962440,-0.038863500,0.999232160,-0.000979000,0.009894000,-0.077752000,0.001964221,-0.001520573,0.001398098,0.009097923,-0.185527932,-0.023345550,0.010031242,-0.002007569,0.999415944,0.001411127,0.002207783,-0.000262175,0.000000000,0.000000000,0.000000000,0.000000000,0.016577070,0.008840816,0.053850090,0.015622206,-0.002153794,0.000467988,0.003627203,0.000526048,0.000488652,-0.076806638,0.385657701,-3.664346115,-0.000777519,-0.003342345,-0.031974039,0.999483371,0.000000000,0.000000000,0.000000000,0.000000000,0.000000000,0.000000000,0.483951598,0.000000000,4.170087814
1772688449.617676735,0.016165000,0.008968000,0.053736000,-0.000129510,0.007929510,-0.038503990,0.999226980,-0.000870000,0.015837000,-0.077036000,-0.001917892,0.001652041,-0.002037958,0.008336651,-0.018854995,-0.001004402,0.010375283,-0.002111164,0.999417698,0.001407372,0.002147486,-0.000039880,0.000000000,0.000000000,0.000000000,0.000000000,0.016566295,0.008849575,0.053839268,0.015601047,-0.002091979,0.000446789,0.003774259,0.000133864,0.000286235,-0.076783387,0.385199800,-3.664754265,-0.000777200,-0.003338355,-0.031977597,0.999483269,0.000000000,0.000000000,0.000000000,0.000000000,0.000000000,0.000000000,0.483951598,0.000000000,4.170087814
1772688449.627676725,0.016278000,0.008886000,0.053824000,-0.000152040,0.006301300,-0.038738680,0.999229500,-0.000792000,0.012581000,-0.077503000,-0.003396410,0.002840115,-0.003155656,0.006712928,0.141042616,0.019131770,0.010719339,-0.002214763,0.999419453,0.001403618,0.002087185,0.000182425,0.000000000,0.000000000,0.000000000,0.000000000,0.016555518,0.008858334,0.053828446,0.015579888,-0.002030161,0.000425589,0.003921322,-0.000258340,0.000083808,-0.076760134,0.384741877,-3.665162433,-0.000776881,-0.003334364,-0.031981155,0.999483166,0.000000000,0.000000000,0.000000000,0.000000000,0.000000000,0.000000000,0.483951598,0.000000000,4.170087814
1772688449.637676716,0.016303000,0.008872000,0.053841000,-0.000120970,0.004778300,-0.038767500,0.999236830,-0.000612000,0.009540000,-0.077558000,-0.000640016,0.000534344,-0.000575428,0.005448783,0.087520711,0.020919050,0.011063396,-0.002318363,0.999421207,0.001399863,0.002026885,0.000404730,0.000000000,0.000000000,0.000000000,0.000000000,0.016544742,0.008867093,0.053817624,0.015558728,-0.001968342,0.000404389,0.004068386,-0.000650543,-0.000118619,-0.076736882,0.384283954,-3.665570602,-0.000776563,-0.003330374,-0.031984713,0.999483063,0.000000000,0.000000000,0.000000000,0.000000000,0.000000000,0.000000000,0.483951598,0.000000000,4.170087814
1772688449.647676706,0.016172000,0.008963000,0.053747000,-0.000004630,0.007698520,-0.038371860,0.999233870,-0.000600000,0.015385000,-0.076769000,-0.000207615,-0.000227059,0.000017910,0.005536497,0.060076216,0.017945751,0.011407453,-0.002421962,0.999422962,0.001396108,0.001966584,0.000627036,0.000000000,0.000000000,0.000000000,0.000000000,0.016533966,0.008875852,0.053806802,0.015537568,-0.001906524,0.000383190,0.004215449,-0.001042746,-0.000321046,-0.076713630,0.383826032,-3.665978771,-0.000776244,-0.003326383,-0.031988271,0.999482960,0.000000000,0.000000000,0.000000000,0.000000000,0.000000000,0.000000000,0.483951598,0.000000000,4.170087814
1772688449.657676697,0.016139000,0.009000000,0.053707000,0.000033570,0.009829580,-0.038174430,0.999222740,-0.000684000,0.019648000,-0.076378000,0.000062238,-0.000517075,0.000566201,-0.000530672,0.030314207,0.009898745,0.011751510,-0.002525561,0.999424717,0.001392353,0.001906284,0.000849341,0.000000000,0.000000000,0.000000000,0.000000000,0.016540672,0.008873192,0.053807881,0.015586959,-0.001933113,0.000370468,0.004403938,-0.001426317,-0.000496307,-0.076690377,0.383368109,-3.666386939,-0.000775925,-0.003322393,-0.031991830,0.999482688,0.000000000,0.000000000,0.000000000,0.000000000,0.000000000,0.000000000,0.483951598,0.000000000,4.170087814
1772688449.667676210,0.016272000,0.008887000,0.053834000,-0.000045570,0.007314880,-0.038389380,0.999236080,-0.000653000,0.014616000,-0.076804000,0.000794445,-0.001171777,0.000956547,-0.003493678,-0.024410136,0.001102599,0.012523521,-0.002690708,1.000092215,-0.002470364,0.001962250,-0.001812534,0.000000000,0.000000000,0.000000000,0.000000000,0.016567128,0.008857511,0.053822849,0.015776665,-0.002062275,0.000382679,0.005902335,-0.001517842,0.000206524,-0.076759005,0.381503999,-3.667838611,-0.000776045,-0.003306105,-0.032004479,0.999482259,0.000000000,0.000000000,0.000000000,0.000000000,0.000000000,0.000000000,0.483951598,0.000000000,4.170087814
1772688449.677675486,0.016305000,0.008841000,0.053865000,-0.000071320,0.005302320,-0.038537170,0.999243100,-0.000551000,0.010591000,-0.077097000,0.001379003,-0.001379469,0.001113618,-0.006275499,-0.082239940,-0.010835835,0.012096183,-0.002036841,0.999796447,-0.001383854,0.001326519,0.001398592,0.000000000,0.000000000,0.000000000,0.000000000,0.016571759,0.008856650,0.053822516,0.015985698,-0.002161671,0.000359834,0.005082291,-0.001942891,-0.000461448,-0.076962299,0.380445952,-3.664885296,-0.000777438,-0.003296840,-0.031978724,0.999482831,0.000000000,0.000000000,0.000000000,0.000000000,0.000000000,0.000000000,0.483951598,0.000000000,4.170087814
1772688449.687675953,0.016164000,0.008950000,0.053740000,-0.000066830,0.008295020,-0.038351170,0.999229890,-0.000770000,0.016573000,-0.076730000,0.000911093,-0.000698116,0.000712433,-0.007049005,-0.101802390,-0.014581583,0.011374415,-0.000621781,1.001046539,0.000926330,0.000609759,0.005152366,0.000000000,0.000000000,0.000000000,0.000000000,0.016523124,0.008894541,0.053780919,0.016056946,-0.002126890,0.000195193,0.005284646,0.001428482,0.000983733,-0.077627970,0.379668638,-3.660365283,-0.000782898,-0.003289905,-0.031939318,0.999483995,0.000000000,0.000000000,0.000000000,0.000000000,0.000000000,0.000000000,0.483951598,0.000000000,4.170087814
1772688449.697675705,0.016274000,0.008881000,0.053834000,-0.000202730,0.006277430,-0.038529740,0.999237720,-0.000889000,0.012530000,-0.077086000,0.000260160,0.000025253,0.000282634,-0.007205361,-0.080062367,-0.011471489,0.011478053,-0.002025108,1.001488862,0.002206521,0.000812962,0.004626572,0.000000000,0.000000000,0.000000000,0.000000000,0.016506936,0.008912375,0.053762671,0.016216457,-0.001973520,0.000202576,0.004965660,-0.001120583,0.001501614,-0.077179945,0.379210270,-3.656012087,-0.000778737,-0.003286061,-0.031901328,0.999485468,0.000000000,0.000000000,0.000000000,0.000000000,0.000000000,0.000000000,0.483951598,0.000000000,4.170087814
1772688449.707675695,0.016309000,0.008854000,0.053854000,-0.000237000,0.004778280,-0.038681490,0.999240140,-0.000843000,0.009531000,-0.077387000,-0.001182091,0.001390619,-0.000962219,-0.005824066,0.012709725,-0.003184704,0.011535831,-0.003148752,1.001067221,0.000839739,0.003379209,0.001649917,0.000000000,0.000000000,0.000000000,0.000000000,0.016556149,0.008870750,0.053809289,0.016494751,-0.002160669,0.000540880,0.005134996,-0.002457646,0.001532165,-0.074851466,0.378496143,-3.655132541,-0.000758204,-0.003280487,-0.031893588,0.999486141,0.000000000,0.000000000,0.000000000,0.000000000,0.000000000,0.000000000,0.483951598,0.000000000,4.170087814
1772688449.717674494,0.016158000,0.008975000,0.053733000,-0.000186300,0.007709900,-0.038446250,0.999230910,-0.000965000,0.015394000,-0.076921000,-0.000345105,0.000531702,-0.000235276,-0.000219279,0.015897659,-0.003113250,0.011018153,-0.002007160,1.000925165,-0.001144221,0.000799106,0.001146825,0.000000000,0.000000000,0.000000000,0.000000000,0.016570631,0.008850014,0.053823915,0.016650339,-0.002366589,0.000689976,0.004557389,-0.000569807,0.000063952,-0.073830870,0.378050774,-3.650721139,-0.000749052,-0.003276915,-0.031855080,0.999486816,0.000000000,0.000000000,0.000000000,0.000000000,0.000000000,0.000000000,0.483951598,0.000000000,4.170087814
1772688449.727674484,0.016262000,0.008893000,0.053837000,-0.000230420,0.006037080,-0.038604700,0.999236300,-0.000927000,0.012047000,-0.077236000,0.000242250,-0.000221853,0.000191473,0.006200535,0.001264711,-0.003360166,0.010554701,-0.001405260,1.001696046,0.000392218,0.000386646,-0.001425261,0.000000000,0.000000000,0.000000000,0.000000000,0.016545359,0.008867310,0.053801245,0.016633895,-0.002346959,0.000655035,0.003587346,-0.000505691,0.002161378,-0.073720647,0.377298940,-3.650965274,-0.000747889,-0.003270387,-0.031857200,0.999486887,0.000000000,0.000000000,0.000000000,0.000000000,0.000000000,0.000000000,0.483951598,0.000000000,4.170087814
1772688449.737674713,0.016300000,0.008863000,0.053856000,-0.000233070,0.004805130,-0.038715920,0.999238680,-0.000838000,0.009585000,-0.077456000,-0.000127487,-0.000162374,-0.000003127,0.008035796,0.022626580,-0.000544758,0.009300064,-0.001161272,1.001606560,0.000115073,-0.001035573,0.001713430,0.000000000,0.000000000,0.000000000,0.000000000,0.016575263,0.008848905,0.053826702,0.016708187,-0.002385974,0.000885486,0.002903460,-0.000047229,0.001766808,-0.073734641,0.374900300,-3.653559243,-0.000747417,-0.003249444,-0.031879817,0.999486280,0.000000000,0.000000000,0.000000000,0.000000000,0.000000000,0.000000000,0.483951598,0.000000000,4.170087814
1772688449.747674465,0.016164000,0.008965000,0.053741000,-0.000065820,0.007915900,-0.038479350,0.999228040,-0.000741000,0.015815000,-0.076986000,0.002305888,-0.001830188,0.002066999,0.008420328,-0.118695746,-0.009168380,0.009608764,-0.000308220,1.000879886,-0.002134053,-0.001988971,0.003678688,0.000000000,0.000000000,0.000000000,0.000000000,0.016598966,0.008833124,0.053845269,0.016714080,-0.002373143,0.001076851,0.003484017,0.000657707,0.000838376,-0.073306748,0.375304593,-3.652056837,-0.000743755,-0.003253100,-0.031866701,0.999486201,0.000000000,0.000000000,0.000000000,0.000000000,0.000000000,0.000000000,0.483951598,0.000000000,4.170087814
1772688449.757674456,0.016277000,0.008874000,0.053828000,-0.000072740,0.006055560,-0.038651670,0.999234390,-0.000614000,0.012097000,-0.077328000,0.002263639,-0.001688347,0.001819135,0.006681095,-0.183603125,-0.010780763,0.010994143,0.000110031,1.000964873,-0.001364434,-0.001589888,0.002083737,0.000000000,0.000000000,0.000000000,0.000000000,0.016541652,0.008881864,0.053799411,0.016488309,-0.002098261,0.000923500,0.004540670,0.001057928,0.000995150,-0.073795738,0.376078652,-3.652069432,-0.000748236,-0.003259715,-0.031866826,0.999486630,0.000000000,0.000000000,0.000000000,0.000000000,0.000000000,0.000000000,0.483951598,0.000000000,4.170087814
1772688449.767674685,0.016301000,0.008863000,0.053860000,-0.000121130,0.004790540,-0.038698140,0.999239460,-0.000613000,0.009565000,-0.077419000,-0.000534927,0.000440346,-0.000524845,-0.002023071,-0.079322006,-0.000451138,0.010922821,-0.001051694,1.001636836,0.002428373,-0.000473429,0.001463722,0.000000000,0.000000000,0.000000000,0.000000000,0.016563117,0.008867334,0.053828069,0.016644996,-0.001979924,0.001090203,0.004258160,-0.000302819,0.001638662,-0.074237413,0.375881520,-3.654209659,-0.000752094,-0.003257859,-0.031885504,0.999486228,0.000000000,0.000000000,0.000000000,0.000000000,0.000000000,0.000000000,0.483951598,0.000000000,4.170087814
1772688449.777673960,0.016300000,0.008857000,0.053871000,-0.000187200,0.003781340,-0.038729140,0.999242570,-0.000667000,0.007543000,-0.077481000,-0.002500566,0.001996428,-0.002118048,-0.010875059,0.080802142,0.015727569,0.010043094,-0.002176107,1.001383611,0.001969900,0.000929289,0.000868679,0.000000000,0.000000000,0.000000000,0.000000000,0.016589440,0.008848632,0.053850336,0.016740207,-0.002033256,0.001301513,0.003420010,-0.001120118,0.001866646,-0.073504449,0.375467734,-3.653557369,-0.000745567,-0.003254458,-0.031879793,0.999485831,0.000000000,0.000000000,0.000000000,0.000000000,0.000000000,0.000000000,0.483951598,0.000000000,4.170087814
1772688449.787674427,0.016300000,0.008872000,0.053852000,-0.000257210,0.003037420,-0.038746470,0.999244420,-0.000749000,0.006050000,-0.077515000,-0.003404238,0.002641339,-0.002949634,-0.015404765,0.231727221,0.028568687,0.010169702,-0.001851167,1.001080725,-0.001014629,-0.002305800,0.001467235,0.000000000,0.000000000,0.000000000,0.000000000,0.016554633,0.008875499,0.053820685,0.016591270,-0.001987794,0.001282455,0.003176699,-0.000711460,0.000860163,-0.072582196,0.375188970,-3.651521478,-0.000737388,-0.003252296,-0.031862011,0.999486915,0.000000000,0.000000000,0.000000000,0.000000000,0.000000000,0.000000000,0.483951598,0.000000000,4.170087814
1772688449.797673941,0.016164000,0.008964000,0.053733000,-0.000206500,0.006952740,-0.038398230,0.999238310,-0.000947000,0.013879000,-0.076824000,-0.003718943,0.002646292,-0.003167311,-0.011755937,0.343789663,0.031765807,0.010418658,-0.001733304,0.999031667,0.000711381,0.001982513,0.002313810,0.000000000,0.000000000,0.000000000,0.000000000,0.016560232,0.008869293,0.053823549,0.016573956,-0.002001378,0.001280163,0.003735840,-0.000426599,-0.000820118,-0.071709059,0.374907466,-3.653190857,-0.000729742,-0.003250073,-0.031876544,0.999486581,0.000000000,0.000000000,0.000000000,0.000000000,0.000000000,0.000000000,0.483951598,0.000000000,4.170087814
1772688449.807673693,0.016129000,0.008985000,0.053711000,-0.000240280,0.009679940,-0.038197400,0.999223300,-0.001220000,0.019328000,-0.076429000,-0.000433819,0.000164763,-0.000592755,-0.004534779,0.240357161,0.015454631,0.011076541,-0.002107663,0.998948062,0.003263325,-0.000830236,-0.000601807,0.000000000,0.000000000,0.000000000,0.000000000,0.016582766,0.008851738,0.053843585,0.016636812,-0.002082661,0.001285236,0.004299824,-0.001556807,-0.000812434,-0.071480205,0.373908167,-3.654657251,-0.000727509,-0.003241411,-0.031889324,0.999486197,0.000000000,0.000000000,0.000000000,0.000000000,0.000000000,0.000000000,0.483951598,0.000000000,4.170087814
1772688449.817673206,0.016129000,0.008996000,0.053710000,-0.000145670,0.011458740,-0.037970670,0.999213140,-0.001162000,0.022890000,-0.075978000,0.003201790,-0.002496292,0.002846934,0.004242474,-0.017949271,-0.010770783,0.011008487,-0.002011090,0.999195007,0.001928903,-0.000571610,-0.002373436,0.000000000,0.000000000,0.000000000,0.000000000,0.016600767,0.008838250,0.053862525,0.016700457,-0.002189061,0.001265391,0.004375105,-0.001498360,-0.000921673,-0.070895500,0.374660390,-3.656152727,-0.000722661,-0.003248126,-0.031902354,0.999485688,0.000000000,0.000000000,0.000000000,0.000000000,0.000000000,0.000000000,0.483951598,0.000000000,4.170087814
1772688449.827673674,0.016271000,0.008876000,0.053837000,-0.000153920,0.008496570,-0.038349290,0.999228260,-0.000959000,0.016969000,-0.076728000,0.003626596,-0.002844739,0.003383259,0.009352702,-0.205543821,-0.026646535,0.011157851,-0.001230907,0.999901389,-0.000540187,-0.003060536,-0.000578991,0.000000000,0.000000000,0.000000000,0.000000000,0.016613156,0.008826697,0.053877735,0.016768049,-0.002287263,0.001196494,0.005217174,0.000297483,0.000296617,-0.070399283,0.375023953,-3.658357361,-0.000718496,-0.003251421,-0.031921571,0.999485037,0.000000000,0.000000000,0.000000000,0.000000000,0.000000000,0.000000000,0.483951598,0.000000000,4.170087814
1772688449.837673426,0.016304000,0.008849000,0.053861000,-0.000124660,0.006364130,-0.038666720,0.999231890,-0.000741000,0.012709000,-0.077359000,0.002820263,-0.002066028,0.002602858,0.007556234,-0.288897810,-0.032284259,0.009848533,-0.002185940,0.999563119,-0.000172981,-0.002729570,-0.000159479,0.000000000,0.000000000,0.000000000,0.000000000,0.016604063,0.008837993,0.053861968,0.016764234,-0.002196416,0.001095443,0.002998988,-0.002103089,-0.000135462,-0.069952877,0.374549785,-3.656267743,-0.000714412,-0.003247423,-0.031903328,0.999485044,0.000000000,0.000000000,0.000000000,0.000000000,0.000000000,0.000000000,0.483951598,0.000000000,4.170087814
1772688449.847673655,0.016320000,0.008854000,0.053867000,-0.000232210,0.004702770,-0.038786380,0.999236430,-0.000829000,0.009380000,-0.077597000,0.000288714,-0.000373913,0.000370397,0.004246316,-0.203822078,-0.024892983,0.009757556,-0.002147473,0.998365029,-0.000290667,-0.000011548,0.002451225,0.000000000,0.000000000,0.000000000,0.000000000,0.016538738,0.008884778,0.053799982,0.016497124,-0.002135464,0.000754034,0.002517870,-0.000640523,-0.002193335,-0.069388960,0.375724692,-3.653099424,-0.000709730,-0.003257847,-0.031875682,0.999485814,0.000000000,0.000000000,0.000000000,0.000000000,0.000000000,0.000000000,0.483951598,0.000000000,4.170087814
1772688449.857673168,0.016294000,0.008861000,0.053871000,-0.000249260,0.003526310,-0.038860720,0.999238380,-0.000772000,0.007028000,-0.077744000,-0.001338152,0.000911539,-0.000874321,-0.001976909,-0.077624237,-0.014438158,0.010735782,-0.000314002,0.998478412,0.000670085,0.002110301,0.000794567,0.000000000,0.000000000,0.000000000,0.000000000,0.016492182,0.008917267,0.053758414,0.016300713,-0.002034062,0.000395711,0.004719485,0.001535327,-0.001004109,-0.069375288,0.376155996,-3.650356017,-0.000709653,-0.003261630,-0.031851756,0.999486891,0.000000000,0.000000000,0.000000000,0.000000000,0.000000000,0.000000000,0.483951598,0.000000000,4.170087814
1772688449.867673159,0.016156000,0.008963000,0.053737000,-0.000209840,0.006892120,-0.038570520,0.999232090,-0.000951000,0.013758000,-0.077169000,-0.001475895,0.001241804,-0.001142309,-0.003754099,0.012921924,-0.000835780,0.010245501,-0.000510649,0.999763123,0.000179862,0.003230073,0.000202673,0.000000000,0.000000000,0.000000000,0.000000000,0.016488800,0.008922264,0.053753253,0.016414647,-0.001912297,0.000267633,0.003485828,-0.000196459,0.000007663,-0.069577275,0.375336645,-3.645990024,-0.000711063,-0.003254454,-0.031813678,0.999488133,0.000000000,0.000000000,0.000000000,0.000000000,0.000000000,0.000000000,0.483951598,0.000000000,4.170087814
1772688449.877672911,0.016260000,0.008887000,0.053833000,-0.000288450,0.005764360,-0.038763420,0.999231750,-0.001023000,0.011498000,-0.077553000,0.001258101,-0.000828070,0.001061423,-0.002431253,-0.064411065,-0.008144985,0.010005604,-0.000698866,0.999323827,-0.000429710,0.002186821,0.001667900,0.000000000,0.000000000,0.000000000,0.000000000,0.016547922,0.008874215,0.053804561,0.016612198,-0.001993362,0.000413460,0.004364988,0.000566800,-0.000968496,-0.070283608,0.372335994,-3.646539200,-0.000716406,-0.003228082,-0.031818476,0.999488377,0.000000000,0.000000000,0.000000000,0.000000000,0.000000000,0.000000000,0.483951598,0.000000000,4.170087814
1772688449.887672424,0.016283000,0.008864000,0.053849000,-0.000206220,0.004679460,-0.038919860,0.999231360,-0.000776000,0.009336000,-0.077864000,0.001149010,-0.000806566,0.000818377,-0.000660608,-0.063130758,-0.008036865,0.010150209,-0.001646089,0.998006674,0.000406170,0.005332705,0.002608674,0.000000000,0.000000000,0.000000000,0.000000000,0.016591392,0.008841862,0.053839241,0.016745640,-0.002021954,0.000456870,0.003958876,-0.001108916,-0.002456007,-0.070009178,0.371156056,-3.648570632,-0.000713742,-0.003217854,-0.031836182,0.999487875,0.000000000,0.000000000,0.000000000,0.000000000,0.000000000,0.000000000,0.483951598,0.000000000,4.170087814
1772688449.897671223,0.016295000,0.008874000,0.053865000,-0.000318720,0.003953040,-0.038940270,0.999233670,-0.000945000,0.007875000,-0.077905000,0.000648913,-0.000353186,0.000328594,-0.002374593,-0.035153107,-0.004728799,0.009918921,-0.001224701,0.998941583,0.000224969,0.002164344,0.003535517,0.000000000,0.000000000,0.000000000,0.000000000,0.016616057,0.008828611,0.053858891,0.016748682,-0.002060352,0.000350101,0.003097739,0.000195005,-0.000566014,-0.069423986,0.370637714,-3.650550451,-0.000708549,-0.003213483,-0.031853432,0.999487995,0.000000000,0.000000000,0.000000000,0.000000000,0.000000000,0.000000000,0.483951598,0.000000000,4.169309566
1772688449.907670259,0.016307000,0.008859000,0.053859000,-0.000322480,0.003358580,-0.038871790,0.999238510,-0.000906000,0.006687000,-0.077767000,-0.000351282,0.000077681,-0.000216900,-0.002671650,0.008573681,0.000959944,0.009188422,-0.001560837,1.000256420,0.001719172,0.001560633,0.000447075,0.000000000,0.000000000,0.000000000,0.000000000,0.016597169,0.008839637,0.053849099,0.016582162,-0.002006462,0.000239913,0.003224136,-0.001005674,0.000944244,-0.069357533,0.369135432,-3.646465369,-0.000707438,-0.003200424,-0.031817793,0.999488669,0.000000000,0.000000000,0.000000000,0.000000000,0.000000000,0.000000000,0.483951598,0.000000000,4.168303587
1772688449.917669535,0.016306000,0.008853000,0.053867000,-0.000370500,0.003196790,-0.039026380,0.999233000,-0.000990000,0.006360000,-0.078076000,-0.001746680,0.001135296,-0.001486540,-0.002745005,0.097061060,0.010459522,0.009709467,-0.001122929,1.000100289,-0.000673674,0.002246176,-0.000579115,0.000000000,0.000000000,0.000000000,0.000000000,0.016362242,0.008855790,0.053856759,0.013309310,-0.001696425,0.000119425,0.003449783,0.000202717,0.000443935,-0.069123260,0.376938498,-3.647984698,-0.000707607,-0.003268539,-0.031831071,0.999487848,0.000000000,0.000000000,0.000000000,0.000000000,0.000000000,0.000000000,0.483951598,0.000000000,4.167297584
1772688449.927669525,0.016161000,0.008955000,0.053747000,-0.000241120,0.007055590,-0.038636110,0.999228410,-0.001027000,0.014082000,-0.077301000,-0.000830187,0.000418668,-0.000395571,0.000667162,0.067326722,0.005337707,0.011253472,-0.000563298,1.000376132,-0.000911661,0.002105026,-0.000504864,0.000000000,0.000000000,0.000000000,0.000000000,0.016399245,0.008885844,0.053807286,0.013596919,-0.001571438,0.000139030,0.004527168,0.000121296,0.000368696,-0.068790165,0.387275434,-3.651610122,-0.000707678,-0.003358770,-0.031862725,0.999486303,0.000000000,0.000000000,0.000000000,0.000000000,0.000000000,0.000000000,0.483951598,0.000000000,4.166291510
1772688449.937669039,0.016260000,0.008885000,0.053832000,-0.000296440,0.005784200,-0.038805250,0.999230010,-0.001041000,0.011537000,-0.077637000,0.000184790,-0.000293124,0.000383878,0.007148793,-0.012531431,-0.001696083,0.011871983,-0.001276716,1.000815570,0.001000266,0.000989347,0.000798479,0.000000000,0.000000000,0.000000000,0.000000000,0.016459929,0.008871206,0.053820244,0.013974313,-0.001564545,0.000191436,0.005645917,-0.000098123,0.001038498,-0.068427958,0.389232615,-3.654503551,-0.000705146,-0.003375924,-0.031887960,0.999485837,0.000000000,0.000000000,0.000000000,0.000000000,0.000000000,0.000000000,0.483951598,0.000000000,4.165285483
1772688449.947668314,0.016285000,0.008862000,0.053857000,-0.000263560,0.004603180,-0.038838150,0.999234880,-0.000884000,0.009179000,-0.077701000,0.002156956,-0.001297884,0.002000759,0.007409752,-0.141177173,-0.010204598,0.011472631,-0.001404770,0.999870851,-0.000277259,-0.000894748,0.002760628,0.000000000,0.000000000,0.000000000,0.000000000,0.016520487,0.008849832,0.053844232,0.014501393,-0.001585448,0.000359404,0.004893649,0.000013698,-0.000711015,-0.068050248,0.386727101,-3.657007156,-0.000701228,-0.003354160,-0.031909775,0.999485003,0.000000000,0.000000000,0.000000000,0.000000000,0.000000000,0.000000000,0.483951598,0.000000000,4.165000771
1772688449.957668304,0.016287000,0.008877000,0.053855000,-0.000225500,0.003812160,-0.038889390,0.999236220,-0.000747000,0.007601000,-0.077802000,0.002128906,-0.001214259,0.001668688,0.006717846,-0.180473442,-0.011936717,0.012005591,-0.001921365,1.000456405,-0.001783924,0.002832595,0.000713786,0.000000000,0.000000000,0.000000000,0.000000000,0.016547777,0.008846333,0.053854530,0.014739305,-0.001601513,0.000348855,0.004698293,-0.000727676,0.000365865,-0.066847193,0.385755214,-3.659832045,-0.000690547,-0.003346001,-0.031934372,0.999484251,0.000000000,0.000000000,0.000000000,0.000000000,0.000000000,0.000000000,0.483951598,0.000000000,4.165364543
1772688449.967668295,0.016283000,0.008868000,0.053862000,-0.000224740,0.003230740,-0.038985190,0.999234540,-0.000701000,0.006439000,-0.077993000,-0.000629158,0.000678517,-0.000901963,0.001307690,-0.032105044,-0.001101145,0.012157874,-0.003019584,0.999885700,0.000557192,0.000369461,0.001069318,0.000000000,0.000000000,0.000000000,0.000000000,0.016564030,0.008839740,0.053861679,0.014924437,-0.001688828,0.000395704,0.005125467,-0.002129010,0.000415973,-0.067557090,0.385835580,-3.662148584,-0.000696829,-0.003346490,-0.031954601,0.999483910,0.000000000,0.000000000,0.000000000,0.000000000,0.000000000,0.000000000,0.483951598,0.000000000,4.165728315
