t,px,py,pz,qx,qy,qz,qw,roll,pitch,yaw,vx,vy,vz,wx_vicon,wy_vicon,wz_vicon,imu_acc_x,imu_acc_y,imu_acc_z,imu_gyro_x,imu_gyro_y,imu_gyro_z,motor_motor_m1,motor_motor_m2,motor_motor_m3,motor_motor_m4,est_stateEstimate_x,est_stateEstimate_y,est_stateEstimate_z,est_stateEstimate_vx,est_stateEstimate_vy,est_stateEstimate_vz,est_stateEstimate_ax,est_stateEstimate_ay,est_stateEstimate_az,att_stateEstimate_roll,att_stateEstimate_pitch,att_stateEstimate_yaw,att_stateEstimate_qx,att_stateEstimate_qy,att_stateEstimate_qz,att_stateEstimate_qw,sp_ctrltarget_x,sp_ctrltarget_y,sp_ctrltarget_z,sp_ctrltarget_yaw,pid_controller_roll,pid_controller_pitch,pid_controller_yaw,pid_controller_cmd_thrust,pwr_pm_vbat
1772428120.007703543,0.016543000,0.009312000,0.070687000,-0.003291700,0.003237710,0.007767010,0.999959180,-0.006533000,0.006526000,0.015513000,0.002770185,-0.001867407,0.001886637,-0.018769744,-0.018763420,-0.016577351,0.012507347,-0.006521388,1.000220424,0.000574588,-0.003218538,0.001029646,0.000000000,0.000000000,0.000000000,0.000000000,0.016670563,0.009316386,0.070701158,0.019350001,0.002220839,0.000322795,0.006643963,-0.001088631,-0.000017314,-0.237846490,0.323579426,0.602511806,-0.002060715,-0.002834630,0.005251985,0.999979079,0.000000000,0.000000000,0.000000000,0.000000000,0.000000000,0.000000000,0.602498126,0.000000000,4.217595577
1772428120.017703533,0.016552000,0.009302000,0.070682000,-0.003296200,0.003241850,0.007687660,0.999959760,-0.006542000,0.006534000,0.015354000,0.001396990,-0.001129993,0.001173117,-0.003722343,-0.005279751,-0.010386428,0.013032630,-0.005836572,1.000066874,0.001396593,0.004739758,0.003687402,0.000000000,0.000000000,0.000000000,0.000000000,0.016703730,0.009321837,0.070694197,0.019601449,0.002153974,0.000305451,0.007388726,-0.001992702,0.000157245,-0.237764754,0.324081167,0.602088253,-0.002059989,-0.002838997,0.005248282,0.999979079,0.000000000,0.000000000,0.000000000,0.000000000,0.000000000,0.000000000,0.602191467,0.000000000,4.217595577
1772428120.027703047,0.016565000,0.009293000,0.070704000,-0.003319920,0.003117570,0.007702710,0.999959960,-0.006592000,0.006286000,0.015385000,0.000436966,-0.000511927,0.000562860,0.004323473,0.003928350,-0.002987281,0.012636821,-0.003917361,1.001535687,0.000283201,-0.000390601,0.000987951,0.000000000,0.000000000,0.000000000,0.000000000,0.016727385,0.009319657,0.070695793,0.019816616,0.001948358,0.000316958,0.007509771,0.000075010,0.000969996,-0.237135310,0.322833762,0.602847304,-0.002054535,-0.002828097,0.005254944,0.999979079,0.000000000,0.000000000,0.000000000,0.000000000,0.000000000,0.000000000,0.602657800,0.000000000,4.217595577
1772428120.037703276,0.016576000,0.009287000,0.070715000,-0.003330880,0.003290950,0.007669330,0.999959630,-0.006611000,0.006633000,0.015317000,-0.000165132,-0.000031391,0.000082440,0.007106461,0.009467888,0.004433573,0.013505335,-0.003281475,0.998825833,0.000626448,0.000224518,-0.002260773,0.000000000,0.000000000,0.000000000,0.000000000,0.016747469,0.009313424,0.070705375,0.020017835,0.001801282,0.000435698,0.007512134,0.000937249,-0.000088165,-0.237328623,0.322160998,0.601696511,-0.002056281,-0.002822214,0.005244909,0.999979143,0.000000000,0.000000000,0.000000000,0.000000000,0.000000000,0.000000000,0.601623750,0.000000000,4.217595577
1772428120.047702789,0.016578000,0.009280000,0.070715000,-0.003256370,0.003163900,0.007679380,0.999960210,-0.006464000,0.006378000,0.015338000,-0.000464550,0.000293435,-0.000241570,0.006364236,0.011947910,0.010683475,0.013088473,-0.004610359,0.999782080,0.000807564,0.000363840,-0.001510613,0.000000000,0.000000000,0.000000000,0.000000000,0.016761053,0.009306413,0.070712865,0.020212347,0.001844205,0.000507713,0.007539546,-0.000185309,-0.000807175,-0.237023067,0.321610403,0.600810666,-0.002053662,-0.002817380,0.005237197,0.999979206,0.000000000,0.000000000,0.000000000,0.000000000,0.000000000,0.000000000,0.600661787,0.000000000,4.217595577
1772428120.057701826,0.016551000,0.009302000,0.070698000,-0.003270410,0.003498360,0.007737120,0.999958600,-0.006487000,0.007047000,0.015452000,-0.000516531,0.000444367,-0.000382596,0.003827245,0.011975609,0.014580094,0.011287567,-0.003573452,1.000002366,-0.000040034,-0.003653813,-0.002089100,0.000000000,0.000000000,0.000000000,0.000000000,0.016757246,0.009311493,0.070709111,0.020324653,0.001833013,0.000398874,0.005925481,0.000477929,-0.000222738,-0.236323436,0.322169363,0.599676328,-0.002047559,-0.002822205,0.005227304,0.999979258,0.000000000,0.000000000,0.000000000,0.000000000,0.000000000,0.000000000,0.599642866,0.000000000,4.217595577
1772428120.067701817,0.016548000,0.009298000,0.070700000,-0.003140360,0.003382850,0.007905940,0.999958090,-0.006227000,0.006815000,0.015791000,-0.000380556,0.000216201,-0.000171387,0.004429982,0.013326740,0.011467261,0.012842612,-0.003058523,0.999379490,0.000809583,0.000350176,0.001076103,0.000000000,0.000000000,0.000000000,0.000000000,0.016751416,0.009314168,0.070705030,0.020312976,0.001798517,0.000340276,0.007341795,0.001043432,-0.000963156,-0.236848491,0.323051911,0.599935056,-0.002052094,-0.002829935,0.005229534,0.999979229,0.000000000,0.000000000,0.000000000,0.000000000,0.000000000,0.000000000,0.600028389,0.000000000,4.217595577
1772428120.077701092,0.016563000,0.009299000,0.070689000,-0.003235170,0.003249640,0.007905040,0.999958240,-0.006419000,0.006550000,0.015789000,0.000040618,-0.000141375,0.000344969,0.003604965,0.001402211,0.004470176,0.013153425,-0.003655359,1.000771979,0.002265865,-0.001215465,-0.002753623,0.000000000,0.000000000,0.000000000,0.000000000,0.016755359,0.009315880,0.070698353,0.020284975,0.001877676,0.000229715,0.007602022,0.001060525,-0.000683569,-0.235934016,0.322767516,0.599211553,-0.002044144,-0.002827399,0.005223248,0.999979210,0.000000000,0.000000000,0.000000000,0.000000000,0.000000000,0.000000000,0.599046492,0.000000000,4.217595577
1772428120.087699890,0.016547000,0.009306000,0.070692000,-0.003255100,0.003679290,0.007966120,0.999956200,-0.006452000,0.007410000,0.015909000,0.000308198,-0.000370416,0.000696485,0.006397916,-0.001347549,-0.002541158,0.013024160,-0.003614019,1.000871365,0.001597510,-0.001057477,-0.001867251,0.000000000,0.000000000,0.000000000,0.000000000,0.016754509,0.009316581,0.070697963,0.020302127,0.001885054,0.000226984,0.007502461,0.001069498,-0.000268012,-0.235774927,0.322724023,0.599113361,-0.002042761,-0.002827010,0.005222396,0.999979232,0.000000000,0.000000000,0.000000000,0.000000000,0.000000000,0.000000000,0.599127099,0.000000000,4.217595577
1772428120.097699404,0.016568000,0.009286000,0.070731000,-0.003164480,0.003380780,0.007859650,0.999958390,-0.006276000,0.006811000,0.015698000,0.000125078,-0.000193881,0.000357265,0.007240033,-0.002801999,-0.006423596,0.012894887,-0.003572675,1.000970758,0.000929106,-0.000899477,-0.000980815,0.000000000,0.000000000,0.000000000,0.000000000,0.016753659,0.009317282,0.070697572,0.020319280,0.001892432,0.000224252,0.007402893,0.001078471,0.000147574,-0.235804898,0.322717762,0.599194733,-0.002043020,-0.002826958,0.005223105,0.999979253,0.000000000,0.000000000,0.000000000,0.000000000,0.000000000,0.000000000,0.599207713,0.000000000,4.217595577
1772428120.107698917,0.016564000,0.009281000,0.070721000,-0.003097520,0.003482650,0.007775010,0.999958910,-0.006141000,0.007013000,0.015529000,-0.000197630,0.000228963,-0.000324379,0.001734703,0.005992096,-0.006802229,0.012765613,-0.003531332,1.001070151,0.000260702,-0.000741478,-0.000094379,0.000000000,0.000000000,0.000000000,0.000000000,0.016752808,0.009317983,0.070697182,0.020336433,0.001899810,0.000221520,0.007303325,0.001087445,0.000563161,-0.235834870,0.322711501,0.599276106,-0.002043280,-0.002826907,0.005223814,0.999979275,0.000000000,0.000000000,0.000000000,0.000000000,0.000000000,0.000000000,0.599288326,0.000000000,4.217595577
1772428120.117697954,0.016562000,0.009292000,0.070709000,-0.003120630,0.003228180,0.007763490,0.999959780,-0.006191000,0.006505000,0.015507000,-0.000329721,0.000446387,-0.000672242,-0.004302356,0.005749115,-0.002251206,0.012636345,-0.003489990,1.001169540,-0.000407669,-0.000583486,0.000792014,0.000000000,0.000000000,0.000000000,0.000000000,0.016751958,0.009318684,0.070696791,0.020353586,0.001907188,0.000218788,0.007203762,0.001096418,0.000978727,-0.235864840,0.322705240,0.599357474,-0.002043540,-0.002826855,0.005224524,0.999979296,0.000000000,0.000000000,0.000000000,0.000000000,0.000000000,0.000000000,0.599368936,0.000000000,4.217595577
1772428120.127697706,0.016547000,0.009305000,0.070697000,-0.003077370,0.003592660,0.007847260,0.999958020,-0.006098000,0.007233000,0.015673000,-0.000035800,0.000513987,-0.000861772,-0.016346741,0.010838268,-0.000691015,0.012507068,-0.003448646,1.001268935,-0.001076089,-0.000425482,0.001678471,0.000000000,0.000000000,0.000000000,0.000000000,0.016751107,0.009319385,0.070696401,0.020370739,0.001914566,0.000216056,0.007104191,0.001105391,0.001394323,-0.235894813,0.322698978,0.599438849,-0.002043800,-0.002826803,0.005225233,0.999979316,0.000000000,0.000000000,0.000000000,0.000000000,0.000000000,0.000000000,0.599449551,0.000000000,4.217595577
1772428120.137697220,0.016544000,0.009316000,0.070674000,-0.003297310,0.003640690,0.007835970,0.999957230,-0.006538000,0.007333000,0.015648000,0.000043901,0.000280031,-0.000563248,-0.022365348,0.024706999,0.000869322,0.013239524,-0.003419620,1.001963461,-0.000394805,0.000875037,0.000942271,0.000000000,0.000000000,0.000000000,0.000000000,0.016750285,0.009320059,0.070696073,0.020388182,0.001921763,0.000213938,0.007004623,0.001114365,0.001809910,-0.235924784,0.322692717,0.599520221,-0.002044060,-0.002826751,0.005225942,0.999979278,0.000000000,0.000000000,0.000000000,0.000000000,0.000000000,0.000000000,0.599530165,0.000000000,4.217595577
1772428120.147696733,0.016563000,0.009303000,0.070687000,-0.003444700,0.003682710,0.007798760,0.999956870,-0.006832000,0.007419000,0.015573000,0.000429293,-0.000338462,0.000272611,-0.016597418,0.015339772,-0.002953873,0.013521765,-0.004088416,1.002667014,0.000472043,0.001669016,-0.000655759,0.000000000,0.000000000,0.000000000,0.000000000,0.016758758,0.009311832,0.070715563,0.020515855,0.001867136,0.000444745,0.008490931,0.000145518,0.002508827,-0.235709435,0.320980636,0.599388467,-0.002042262,-0.002811799,0.005224829,0.999979291,0.000000000,0.000000000,0.000000000,0.000000000,0.000000000,0.000000000,0.599358269,0.000000000,4.217595577
1772428120.157696009,0.016560000,0.009302000,0.070701000,-0.003480400,0.003676420,0.007801150,0.999956760,-0.006903000,0.007407000,0.015577000,0.000229934,-0.000417735,0.000262063,-0.008230695,0.010380172,-0.004660607,0.011311412,-0.004907750,1.002251781,-0.000054939,-0.000969202,-0.001161526,0.000000000,0.000000000,0.000000000,0.000000000,0.016761050,0.009309631,0.070717448,0.020654370,0.001840606,0.000693902,0.005648530,-0.000494025,0.002249165,-0.235153623,0.320536523,0.599142249,-0.002037438,-0.002807893,0.005222703,0.999979317,0.000000000,0.000000000,0.000000000,0.000000000,0.000000000,0.000000000,0.599087415,0.000000000,4.217595577
1772428120.167696238,0.016573000,0.009293000,0.070699000,-0.003546160,0.003861700,0.007732420,0.999956360,-0.007033000,0.007778000,0.015438000,0.000122028,-0.000185703,-0.000033333,-0.002242788,-0.008599275,-0.003694229,0.011976891,-0.004566260,1.000916859,0.003133480,-0.002033298,0.000611943,0.000000000,0.000000000,0.000000000,0.000000000,0.016759549,0.009311078,0.070716051,0.020677545,0.001796501,0.000914206,0.006656834,-0.000713501,0.001909052,-0.236071715,0.320966109,0.598607934,-0.002045443,-0.002811675,0.005218009,0.999979317,0.000000000,0.000000000,0.000000000,0.000000000,0.000000000,0.000000000,0.598540865,0.000000000,4.217595577
1772428120.177696228,0.016561000,0.009287000,0.070699000,-0.003427070,0.003776420,0.007740720,0.999957040,-0.006796000,0.007606000,0.015456000,-0.000032770,0.000042172,-0.000177623,0.003198704,-0.019930640,-0.001039157,0.014446942,-0.004829919,1.000609254,0.002224337,0.003555519,-0.000428469,0.000000000,0.000000000,0.000000000,0.000000000,0.016752415,0.009319613,0.070705398,0.020581218,0.001728010,0.001031029,0.007589254,-0.000711464,-0.000608062,-0.234576595,0.320930630,0.598374512,-0.002032403,-0.002811293,0.005216010,0.999979370,0.000000000,0.000000000,0.000000000,0.000000000,0.000000000,0.000000000,0.598441920,0.000000000,4.217595577
1772428120.187696457,0.016561000,0.009295000,0.070695000,-0.003338470,0.003474620,0.007714750,0.999958630,-0.006623000,0.007001000,0.015407000,-0.000041414,0.000135082,-0.000097164,0.002721059,-0.034107914,-0.001791150,0.013281716,-0.003608535,1.000309938,0.003429172,-0.002041208,0.001912585,0.000000000,0.000000000,0.000000000,0.000000000,0.016753279,0.009322605,0.070700162,0.020727246,0.001652318,0.001072371,0.006857396,0.000522535,-0.001497192,-0.233306122,0.319495593,0.598649048,-0.002021375,-0.002798717,0.005218463,0.999979430,0.000000000,0.000000000,0.000000000,0.000000000,0.000000000,0.000000000,0.598520134,0.000000000,4.217595577
1772428120.197695971,0.016549000,0.009315000,0.070671000,-0.003475490,0.003527350,0.007786030,0.999957430,-0.006896000,0.007109000,0.015548000,0.000359324,-0.000121076,0.000239200,-0.000268928,-0.039044996,-0.002499541,0.012279933,-0.002660298,0.998192863,0.002052634,-0.001783190,-0.000220291,0.000000000,0.000000000,0.000000000,0.000000000,0.016760592,0.009319062,0.070704691,0.020994095,0.001574014,0.001119374,0.006125591,0.001756446,-0.002386258,-0.231753054,0.319878100,0.597309700,-0.002007838,-0.002801960,0.005206806,0.999979520,0.000000000,0.000000000,0.000000000,0.000000000,0.000000000,0.000000000,0.597079268,0.000000000,4.217595577
1772428120.207696438,0.016575000,0.009299000,0.070689000,-0.003511390,0.003087010,0.007737320,0.999959140,-0.006975000,0.006228000,0.015453000,0.000497689,-0.000186558,0.000461189,-0.002304315,-0.034021066,-0.005034848,0.011848695,-0.003552000,0.998200973,0.002945687,0.000943538,-0.001205707,0.000000000,0.000000000,0.000000000,0.000000000,0.016768374,0.009314560,0.070706998,0.021072804,0.001656103,0.001044441,0.006940582,0.001140532,-0.001927073,-0.231055686,0.320331679,0.596210666,-0.002001759,-0.002805868,0.005197224,0.999979574,0.000000000,0.000000000,0.000000000,0.000000000,0.000000000,0.000000000,0.596130081,0.000000000,4.217595577
1772428120.217695951,0.016575000,0.009288000,0.070713000,-0.003443270,0.003021820,0.007680300,0.999960010,-0.006840000,0.006096000,0.015340000,0.000277254,-0.000087393,0.000171173,-0.001364552,-0.005511496,-0.007983048,0.011850566,-0.004874406,1.000809170,0.001871614,0.002689597,-0.000475208,0.000000000,0.000000000,0.000000000,0.000000000,0.016767740,0.009309826,0.070707438,0.021014400,0.001738819,0.000807166,0.006463670,-0.001021314,0.000161898,-0.230325220,0.319714615,0.595675956,-0.001995425,-0.002800441,0.005192587,0.999979628,0.000000000,0.000000000,0.000000000,0.000000000,0.000000000,0.000000000,0.595600183,0.000000000,4.217595577
1772428120.227696657,0.016574000,0.009287000,0.070715000,-0.003412860,0.003006090,0.007627300,0.999960570,-0.006780000,0.006064000,0.015234000,-0.000220144,0.000068298,-0.000082809,0.006796723,0.021015911,-0.004713828,0.012510258,-0.003756995,1.002143142,0.001210414,-0.000406593,0.000137977,0.000000000,0.000000000,0.000000000,0.000000000,0.016766664,0.009310250,0.070705049,0.021009226,0.001713704,0.000681694,0.006027043,-0.001307649,0.000921479,-0.229106739,0.317985091,0.595286636,-0.001984880,-0.002785286,0.005189249,0.999979689,0.000000000,0.000000000,0.000000000,0.000000000,0.000000000,0.000000000,0.595269535,0.000000000,4.217595577
1772428120.237697124,0.016580000,0.009290000,0.070695000,-0.003445240,0.003197180,0.007651270,0.999959680,-0.006841000,0.006447000,0.015281000,-0.000516823,0.000248466,-0.000283644,0.014198699,0.027442623,-0.000370622,0.012272917,-0.003890964,1.000214230,0.001465807,0.001297816,0.004427257,0.000000000,0.000000000,0.000000000,0.000000000,0.016760135,0.009320498,0.070691567,0.020967448,0.001612509,0.000761159,0.006220148,-0.000157224,0.000480574,-0.228471513,0.317230696,0.595215659,-0.001979373,-0.002778673,0.005188659,0.999979734,0.000000000,0.000000000,0.000000000,0.000000000,0.000000000,0.000000000,0.595218019,0.000000000,4.217595577
1772428120.247697115,0.016560000,0.009307000,0.070686000,-0.003373890,0.003398960,0.007589160,0.999959730,-0.006696000,0.006849000,0.015156000,-0.000660354,0.000466745,-0.000492444,0.011366924,0.032504265,0.005371835,0.011463559,-0.003970370,1.001050103,0.000855028,0.000895893,0.003615172,0.000000000,0.000000000,0.000000000,0.000000000,0.016769671,0.009317883,0.070694286,0.021042562,0.001643462,0.000838640,0.005389039,0.000306178,0.001876046,-0.227633247,0.317453459,0.595139430,-0.001972049,-0.002780577,0.005188010,0.999979734,0.000000000,0.000000000,0.000000000,0.000000000,0.000000000,0.000000000,0.595113359,0.000000000,4.217595577
1772428120.257697105,0.016543000,0.009313000,0.070677000,-0.003260280,0.003833320,0.007672290,0.999957910,-0.006462000,0.007716000,0.015320000,-0.000265773,0.000099592,-0.000001340,0.007125354,0.021021008,0.008876839,0.011758427,-0.004593021,1.001014861,0.000972484,0.000329663,0.000271873,0.000000000,0.000000000,0.000000000,0.000000000,0.016773747,0.009311857,0.070706274,0.021006274,0.001627920,0.000915267,0.007086080,-0.000597077,0.001180614,-0.226674883,0.317473050,0.594580292,-0.001963699,-0.002780695,0.005183153,0.999979755,0.000000000,0.000000000,0.000000000,0.000000000,0.000000000,0.000000000,0.594443942,0.000000000,4.217595577
1772428120.267697573,0.016557000,0.009301000,0.070698000,-0.003182070,0.003625990,0.007791080,0.999958010,-0.006308000,0.007301000,0.015559000,0.000104565,-0.000237044,0.000390113,0.001869534,0.007110293,0.007151640,0.013497753,-0.003531401,1.000246294,-0.001031256,-0.001071006,-0.001601164,0.000000000,0.000000000,0.000000000,0.000000000,0.016775803,0.009307201,0.070715196,0.020874238,0.001566235,0.001067500,0.008362732,0.000224488,0.001012180,-0.226471607,0.317245094,0.593797647,-0.001961954,-0.002778683,0.005176333,0.999979808,0.000000000,0.000000000,0.000000000,0.000000000,0.000000000,0.000000000,0.593700725,0.000000000,4.217595577
1772428120.277697563,0.016564000,0.009293000,0.070704000,-0.003231730,0.003357250,0.007749110,0.999959120,-0.006411000,0.006764000,0.015477000,0.000235529,-0.000396931,0.000521640,-0.003102452,-0.005267675,0.005356948,0.013475724,-0.003002992,0.999984586,-0.002857645,0.002615329,-0.004663317,0.000000000,0.000000000,0.000000000,0.000000000,0.016778957,0.009306223,0.070711427,0.020974959,0.001507921,0.001062808,0.007341347,0.000835151,0.000473744,-0.226786811,0.316963903,0.592980460,-0.001964738,-0.002776230,0.005169199,0.999979861,0.000000000,0.000000000,0.000000000,0.000000000,0.000000000,0.000000000,0.592611608,0.000000000,4.217595577
1772428120.287697554,0.016565000,0.009296000,0.070703000,-0.003370410,0.003648270,0.007766650,0.999957500,-0.006684000,0.007349000,0.015509000,0.000497805,-0.000429352,0.000124107,-0.007565319,-0.015371730,0.000873136,0.011310834,-0.003902766,0.999874999,-0.000706334,0.003352061,0.000226512,0.000000000,0.000000000,0.000000000,0.000000000,0.016775767,0.009310448,0.070706703,0.021088912,0.001553542,0.001049151,0.005457035,0.000481506,-0.000252708,-0.227128451,0.316872765,0.591714403,-0.001967754,-0.002775428,0.005158144,0.999979899,0.000000000,0.000000000,0.000000000,0.000000000,0.000000000,0.000000000,0.591352629,0.000000000,4.217595577
1772428120.297697544,0.016568000,0.009287000,0.070707000,-0.003348390,0.003541530,0.007783980,0.999957830,-0.006642000,0.007135000,0.015545000,0.000207828,0.000012840,-0.000342211,-0.011911931,-0.015705601,-0.006632229,0.010058348,-0.004262787,0.998750129,0.000432177,0.001687846,0.001761087,0.000000000,0.000000000,0.000000000,0.000000000,0.016769393,0.009316142,0.070701189,0.021133972,0.001608597,0.001024691,0.003879915,-0.000128869,-0.000724394,-0.227601019,0.316250843,0.590799594,-0.001971928,-0.002770007,0.005150160,0.999979950,0.000000000,0.000000000,0.000000000,0.000000000,0.000000000,0.000000000,0.590644113,0.000000000,4.217595577
1772428120.307697296,0.016568000,0.009296000,0.070689000,-0.003396290,0.003416810,0.007695930,0.999958780,-0.006740000,0.006886000,0.015369000,0.000031313,0.000072475,-0.000392677,-0.010257446,-0.008301548,-0.009014653,0.010313112,-0.004080253,0.997890640,0.000387203,0.000906501,0.000891727,0.000000000,0.000000000,0.000000000,0.000000000,0.016760033,0.009321224,0.070695736,0.020965146,0.001610245,0.000944580,0.004520602,0.000252005,-0.002562411,-0.227236317,0.315202178,0.590132751,-0.001968809,-0.002760828,0.005144368,0.999980006,0.000000000,0.000000000,0.000000000,0.000000000,0.000000000,0.000000000,0.590052379,0.000000000,4.217595577
1772428120.317698002,0.016559000,0.009294000,0.070697000,-0.003379150,0.003370020,0.007745220,0.999958620,-0.006706000,0.006792000,0.015468000,0.000087801,-0.000107712,0.000166939,-0.007690206,-0.011463912,-0.007639585,0.011381812,-0.004848108,0.999796574,-0.001924964,0.003389029,0.000542339,0.000000000,0.000000000,0.000000000,0.000000000,0.016760319,0.009318352,0.070701221,0.020744013,0.001555863,0.000796937,0.006225918,-0.000753783,-0.000008236,-0.227468353,0.313455248,0.589186712,-0.001970935,-0.002745577,0.005136137,0.999980097,0.000000000,0.000000000,0.000000000,0.000000000,0.000000000,0.000000000,0.589008900,0.000000000,4.217595577
1772428120.327697515,0.016577000,0.009291000,0.070688000,-0.003460240,0.003192400,0.007609910,0.999959960,-0.006872000,0.006437000,0.015198000,0.000041900,-0.000224903,0.000581236,-0.005905900,-0.019405145,-0.005031493,0.011039398,-0.004981148,1.001539205,-0.002312370,-0.000320409,-0.000642238,0.000000000,0.000000000,0.000000000,0.000000000,0.016762788,0.009313247,0.070706089,0.020628724,0.001490011,0.000612903,0.005370368,-0.001391598,0.002365486,-0.229156921,0.311438972,0.587948090,-0.001985790,-0.002728036,0.005125324,0.999980189,0.000000000,0.000000000,0.000000000,0.000000000,0.000000000,0.000000000,0.587778681,0.000000000,4.217595577
1772428120.337697268,0.016562000,0.009300000,0.070699000,-0.003576380,0.003327890,0.007594080,0.999959230,-0.007102000,0.006710000,0.015165000,-0.000183372,-0.000108567,0.000714297,0.001862942,-0.004732064,0.003454051,0.011460555,-0.003913615,0.999802705,0.000341779,-0.002543604,-0.001187655,0.000000000,0.000000000,0.000000000,0.000000000,0.016764398,0.009310329,0.070708384,0.020612164,0.001309861,0.000735179,0.005434382,0.000588829,0.000460504,-0.229269043,0.311455182,0.587174640,-0.001986786,-0.002728169,0.005118571,0.999980211,0.000000000,0.000000000,0.000000000,0.000000000,0.000000000,0.000000000,0.587075064,0.000000000,4.217595577
1772428120.347697496,0.016573000,0.009276000,0.070723000,-0.003436140,0.003285120,0.007675830,0.999959240,-0.006822000,0.006623000,0.015329000,-0.000593105,0.000021678,0.000546018,0.013179596,0.014159647,0.016575885,0.013243692,-0.004327092,0.998974749,0.001616322,0.000063659,-0.000925906,0.000000000,0.000000000,0.000000000,0.000000000,0.016766049,0.009305727,0.070710445,0.020482924,0.001244456,0.000832381,0.007730667,-0.000291241,-0.000872848,-0.229631267,0.311994114,0.586239127,-0.001989945,-0.002732872,0.005110389,0.999980211,0.000000000,0.000000000,0.000000000,0.000000000,0.000000000,0.000000000,0.586062817,0.000000000,4.217595577
1772428120.357697010,0.016561000,0.009287000,0.070725000,-0.003424200,0.003235280,0.007751380,0.999958860,-0.006798000,0.006523000,0.015481000,-0.000572087,0.000333237,-0.000094134,0.019186185,0.030250836,0.021685844,0.012289982,-0.004511455,1.000308695,0.004863177,-0.000780854,0.000440323,0.000000000,0.000000000,0.000000000,0.000000000,0.016766552,0.009307098,0.070703973,0.020512266,0.001248872,0.000715514,0.007589401,-0.000378671,-0.000245754,-0.229158099,0.312336885,0.585329959,-0.001985822,-0.002735827,0.005102461,0.999980233,0.000000000,0.000000000,0.000000000,0.000000000,0.000000000,0.000000000,0.585217887,0.000000000,4.217595577
1772428120.367697477,0.016552000,0.009295000,0.070711000,-0.003278230,0.003273740,0.007878880,0.999958230,-0.006505000,0.006599000,0.015737000,-0.000487180,0.000411927,-0.000373893,0.024294293,0.031586792,0.020426474,0.011132531,-0.004121597,1.001148485,-0.001779236,0.002852997,0.001191367,0.000000000,0.000000000,0.000000000,0.000000000,0.016762924,0.009306887,0.070703378,0.020598406,0.001187728,0.000645766,0.005508551,-0.000555878,0.001018126,-0.228365664,0.312283836,0.584578242,-0.001978927,-0.002735315,0.005095921,0.999980294,0.000000000,0.000000000,0.000000000,0.000000000,0.000000000,0.000000000,0.584481168,0.000000000,4.217595577
1772428120.377697706,0.016543000,0.009303000,0.070703000,-0.003041830,0.003855000,0.008042760,0.999955600,-0.006022000,0.007759000,0.016063000,0.000166375,0.000151476,-0.000477759,0.018730996,0.022118108,0.012195690,0.012655110,-0.004804519,1.001768449,-0.000797535,0.000044699,0.000639302,0.000000000,0.000000000,0.000000000,0.000000000,0.016769915,0.009304775,0.070698660,0.020617059,0.001159155,0.000623526,0.006281462,-0.000285116,0.001051880,-0.227958851,0.311560124,0.584521391,-0.001975411,-0.002728981,0.005095447,0.999980353,0.000000000,0.000000000,0.000000000,0.000000000,0.000000000,0.000000000,0.584614117,0.000000000,4.217595577
1772428120.387697935,0.016543000,0.009302000,0.070697000,-0.003076280,0.003971050,0.008122790,0.999954390,-0.006088000,0.007992000,0.016222000,0.000649418,-0.000112782,-0.000111577,0.008172006,0.003498806,0.000862146,0.013760261,-0.005467580,1.001064994,0.001419443,0.002825859,0.000167132,0.000000000,0.000000000,0.000000000,0.000000000,0.016765891,0.009307848,0.070702323,0.020541937,0.001081921,0.000790228,0.008393648,-0.001757440,0.001136553,-0.227088771,0.310608279,0.584327800,-0.001967865,-0.002720633,0.005093795,0.999980410,0.000000000,0.000000000,0.000000000,0.000000000,0.000000000,0.000000000,0.584174778,0.000000000,4.217595577
1772428120.397698641,0.016574000,0.009299000,0.070696000,-0.003107390,0.003761310,0.007921860,0.999956720,-0.006155000,0.007572000,0.015821000,0.001024671,-0.000578283,0.000296581,-0.002601139,-0.018121386,-0.008783368,0.014182923,-0.006147766,1.002000092,0.002676700,0.000100360,0.002011805,0.000000000,0.000000000,0.000000000,0.000000000,0.016768726,0.009298804,0.070714330,0.020621735,0.000993483,0.000867603,0.008854421,-0.001656771,0.001262403,-0.226019205,0.310131536,0.583699327,-0.001958568,-0.002716414,0.005088345,0.999980450,0.000000000,0.000000000,0.000000000,0.000000000,0.000000000,0.000000000,0.583707383,0.000000000,4.217595577
1772428120.407698870,0.016568000,0.009287000,0.070715000,-0.003029020,0.003439100,0.007884830,0.999958410,-0.006004000,0.006926000,0.015749000,0.000528750,-0.000312141,0.000240599,-0.012425382,-0.029129239,-0.013546017,0.012188069,-0.004764005,0.998275525,-0.002212138,0.000162185,0.000542161,0.000000000,0.000000000,0.000000000,0.000000000,0.016847551,0.009305092,0.070714229,0.018837140,0.000537644,0.000591743,0.008767408,-0.000579574,0.000167790,-0.224582064,0.320334583,0.582909771,-0.001945594,-0.002805374,0.005081314,0.999980309,0.000000000,0.000000000,0.000000000,0.000000000,0.000000000,0.000000000,0.582545374,0.000000000,4.217595577
1772428120.417698860,0.016587000,0.009277000,0.070717000,-0.003212990,0.003409720,0.007896000,0.999957850,-0.006372000,0.006870000,0.015770000,-0.000109363,0.000112859,-0.000282906,-0.016661911,-0.019836788,-0.014986838,0.014846828,-0.002894302,1.001416784,0.000439794,0.005737775,-0.001775084,0.000000000,0.000000000,0.000000000,0.000000000,0.016676329,0.009291155,0.070713068,0.017757429,0.000350247,0.000443190,0.008894963,0.000525529,0.001795001,-0.222511182,0.346204070,0.582909653,-0.001926372,-0.003031032,0.005080920,0.999979639,0.000000000,0.000000000,0.000000000,0.000000000,0.000000000,0.000000000,0.583889554,0.000000000,4.217595577
1772428120.427698374,0.016577000,0.009289000,0.070711000,-0.003247530,0.003201880,0.007768530,0.999959420,-0.006445000,0.006454000,0.015517000,-0.000779507,0.000609111,-0.000733217,-0.014579324,0.001050553,-0.011548744,0.012750003,-0.002994588,1.002378030,-0.005259119,-0.002748445,0.000099264,0.000000000,0.000000000,0.000000000,0.000000000,0.016687299,0.009289682,0.070714656,0.018368852,0.000439143,0.000527394,0.006926358,0.001073875,0.002202186,-0.223841125,0.342315971,0.587174688,-0.001938038,-0.002997234,0.005118171,0.999979521,0.000000000,0.000000000,0.000000000,0.000000000,0.000000000,0.000000000,0.587105704,0.000000000,4.217595577
1772428120.437698603,0.016558000,0.009297000,0.070692000,-0.003362820,0.003434360,0.007761810,0.999958320,-0.006672000,0.006921000,0.015501000,-0.001003012,0.000644834,-0.000662316,-0.009528104,0.015894248,-0.005361229,0.012523619,-0.001991860,1.001374264,-0.003521990,-0.001483499,0.000449793,0.000000000,0.000000000,0.000000000,0.000000000,0.016714742,0.009298401,0.070704745,0.018811122,0.000565316,0.000780767,0.006474807,0.001683790,0.001333308,-0.224881814,0.341574349,0.586487694,-0.001947170,-0.002990796,0.005112161,0.999979556,0.000000000,0.000000000,0.000000000,0.000000000,0.000000000,0.000000000,0.586370275,0.000000000,4.217595577
1772428120.447698832,0.016537000,0.009316000,0.070681000,-0.003348210,0.003640200,0.007757420,0.999957680,-0.006640000,0.007332000,0.015491000,-0.000482091,0.000357498,-0.000367833,-0.004953196,0.016858344,-0.001407187,0.012888776,-0.003454699,1.001703478,-0.001707412,0.000549389,-0.000562947,0.000000000,0.000000000,0.000000000,0.000000000,0.016721113,0.009310272,0.070696095,0.019013128,0.000806424,0.000869451,0.006795721,0.000971656,0.001826128,-0.224437313,0.341436815,0.584696653,-0.001943344,-0.002989546,0.005096545,0.999979638,0.000000000,0.000000000,0.000000000,0.000000000,0.000000000,0.000000000,0.584455858,0.000000000,4.217595577
1772428120.457699299,0.016552000,0.009307000,0.070679000,-0.003402980,0.003723040,0.007665600,0.999957900,-0.006749000,0.007498000,0.015306000,0.000067036,-0.000389608,0.000343221,0.001958486,0.009259404,0.004852329,0.013606630,-0.004248484,0.999514446,-0.001128470,0.003604645,0.000753730,0.000000000,0.000000000,0.000000000,0.000000000,0.016731203,0.009312570,0.070696468,0.019227542,0.000923526,0.001045902,0.007866870,-0.000429760,0.000078270,-0.224236644,0.340944525,0.583259397,-0.001941653,-0.002985217,0.005084017,0.999979727,0.000000000,0.000000000,0.000000000,0.000000000,0.000000000,0.000000000,0.583313106,0.000000000,4.217595577
1772428120.467699051,0.016551000,0.009303000,0.070697000,-0.003337770,0.003492810,0.007753710,0.999958270,-0.006621000,0.007037000,0.015484000,0.000851263,-0.000884189,0.000766920,0.006212757,0.002270689,0.010032306,0.011821103,-0.005532137,0.999707799,-0.000089823,-0.001436628,0.001075285,0.000000000,0.000000000,0.000000000,0.000000000,0.016740171,0.009305633,0.070708422,0.019496202,0.000879353,0.001074954,0.006505444,-0.000642766,-0.000404258,-0.223416650,0.340715564,0.583343478,-0.001934505,-0.002983184,0.005084777,0.999979746,0.000000000,0.000000000,0.000000000,0.000000000,0.000000000,0.000000000,0.583189063,0.000000000,4.217595577
1772428120.477699041,0.016565000,0.009282000,0.070717000,-0.003250550,0.003602750,0.007867730,0.999957280,-0.006444000,0.007256000,0.015712000,0.000930420,-0.000678245,0.000773563,0.006682424,-0.016679168,0.008561423,0.012025264,-0.003252569,1.001471955,-0.001334699,-0.000847605,-0.001050452,0.000000000,0.000000000,0.000000000,0.000000000,0.016752966,0.009296588,0.070714305,0.019660187,0.000751960,0.001018522,0.006512634,0.000436881,-0.000084936,-0.222777032,0.340245522,0.582118536,-0.001928976,-0.002979033,0.005074112,0.999979854,0.000000000,0.000000000,0.000000000,0.000000000,0.000000000,0.000000000,0.582026490,0.000000000,4.217595577
1772428120.487699032,0.016578000,0.009280000,0.070706000,-0.003352340,0.003512940,0.007901710,0.999956990,-0.006649000,0.007079000,0.015780000,0.000354546,-0.000137199,0.000155575,0.003726879,-0.014950074,0.005173283,0.013555752,-0.002930256,0.998169169,-0.005483548,0.001404874,0.000823680,0.000000000,0.000000000,0.000000000,0.000000000,0.016763497,0.009287436,0.070719305,0.019759188,0.000709257,0.001064887,0.007170097,0.001489297,-0.000253132,-0.223278731,0.340086430,0.581606133,-0.001933375,-0.002977658,0.005069630,0.999979854,0.000000000,0.000000000,0.000000000,0.000000000,0.000000000,0.000000000,0.581565294,0.000000000,4.217595577
1772428120.497699261,0.016578000,0.009273000,0.070714000,-0.003245150,0.003505920,0.007892520,0.999957440,-0.006435000,0.007063000,0.015763000,-0.000121931,0.000345183,-0.000313753,0.001350662,-0.004614793,0.002259655,0.013398650,-0.002960681,0.998344837,-0.004480252,0.000932929,0.000382546,0.000000000,0.000000000,0.000000000,0.000000000,0.016764057,0.009288182,0.070719014,0.019786332,0.000728121,0.001041863,0.007348230,0.001413568,-0.000625004,-0.223495788,0.339888971,0.581517963,-0.001935280,-0.002975943,0.005068858,0.999979854,0.000000000,0.000000000,0.000000000,0.000000000,0.000000000,0.000000000,0.581412473,0.000000000,4.217595577
1772428120.507699251,0.016575000,0.009296000,0.070702000,-0.003211350,0.003424770,0.007878540,0.999957940,-0.006369000,0.006900000,0.015735000,-0.000301263,0.000465094,-0.000526652,-0.003939914,0.007817589,-0.000884030,0.013241553,-0.002991105,0.998520501,-0.003476981,0.000460995,-0.000058578,0.000000000,0.000000000,0.000000000,0.000000000,0.016764347,0.009289261,0.070718502,0.019811258,0.000747284,0.001015276,0.007526360,0.001337840,-0.000996868,-0.223712839,0.339691516,0.581429796,-0.001937185,-0.002974228,0.005068087,0.999979854,0.000000000,0.000000000,0.000000000,0.000000000,0.000000000,0.000000000,0.581259656,0.000000000,4.217595577
1772428120.517699003,0.016556000,0.009308000,0.070695000,-0.003359920,0.003221170,0.007818740,0.999958600,-0.006669000,0.006495000,0.015616000,-0.000465948,0.000484732,-0.000393629,-0.009912191,0.003687198,-0.003287952,0.013084459,-0.003021529,0.998696161,-0.002473733,-0.000010927,-0.000499692,0.000000000,0.000000000,0.000000000,0.000000000,0.016764638,0.009290340,0.070717991,0.019836183,0.000766446,0.000988691,0.007704485,0.001262114,-0.001368723,-0.223929885,0.339494066,0.581341630,-0.001939090,-0.002972513,0.005067315,0.999979854,0.000000000,0.000000000,0.000000000,0.000000000,0.000000000,0.000000000,0.581106842,0.000000000,4.217595577
1772428120.527698517,0.016553000,0.009301000,0.070686000,-0.003338970,0.003690860,0.007828480,0.999956970,-0.006620000,0.007434000,0.015633000,-0.000123407,0.000081216,-0.000174417,-0.013126053,0.005927193,-0.006951254,0.012927369,-0.003051951,0.998871817,-0.001470510,-0.000482838,-0.000940794,0.000000000,0.000000000,0.000000000,0.000000000,0.016764928,0.009291419,0.070717479,0.019861108,0.000785608,0.000962106,0.007579165,0.001157951,-0.001281125,-0.224146926,0.339296620,0.581253467,-0.001940995,-0.002970798,0.005066543,0.999979854,0.000000000,0.000000000,0.000000000,0.000000000,0.000000000,0.000000000,0.580935906,0.000000000,4.217595577
1772428120.537698746,0.016573000,0.009287000,0.070704000,-0.003391560,0.003663050,0.007889750,0.999956410,-0.006725000,0.007379000,0.015755000,0.000267347,-0.000307809,0.000059577,-0.012356353,0.001971464,-0.011122471,0.012770268,-0.003082376,0.999047485,-0.000467214,-0.000954783,-0.001381929,0.000000000,0.000000000,0.000000000,0.000000000,0.016765219,0.009292498,0.070716967,0.019886035,0.000804771,0.000935518,0.007449111,0.001053338,-0.001186368,-0.224363983,0.339099161,0.581165297,-0.001942900,-0.002969083,0.005065772,0.999979854,0.000000000,0.000000000,0.000000000,0.000000000,0.000000000,0.000000000,0.580549223,0.000000000,4.217595577
1772428120.547698021,0.016564000,0.009293000,0.070699000,-0.003503100,0.003600230,0.007809930,0.999956880,-0.006950000,0.007255000,0.015595000,0.000276088,-0.000469076,0.000408101,-0.000302013,-0.001881301,-0.009811625,0.012613182,-0.003112799,0.999223137,0.000535986,-0.001426683,-0.001823021,0.000000000,0.000000000,0.000000000,0.000000000,0.016765510,0.009293576,0.070716456,0.019910960,0.000823933,0.000908934,0.007319070,0.000948735,-0.001091619,-0.224581019,0.338901720,0.581077136,-0.001944805,-0.002967369,0.005065000,0.999979854,0.000000000,0.000000000,0.000000000,0.000000000,0.000000000,0.000000000,0.580162576,0.000000000,4.217595577
1772428120.557698488,0.016567000,0.009296000,0.070696000,-0.003562310,0.003284790,0.007641010,0.999959070,-0.007074000,0.006624000,0.015259000,0.000128516,-0.000051923,0.000260373,0.009252249,-0.004935115,-0.006448063,0.012456077,-0.003143224,0.999398809,0.001539305,-0.001898639,-0.002264166,0.000000000,0.000000000,0.000000000,0.000000000,0.016765800,0.009294655,0.070715944,0.019935887,0.000843096,0.000882346,0.007189013,0.000844119,-0.000996860,-0.224798080,0.338704256,0.580988964,-0.001946710,-0.002965653,0.005064229,0.999979854,0.000000000,0.000000000,0.000000000,0.000000000,0.000000000,0.000000000,0.579775884,0.000000000,4.217595577
1772428120.567698717,0.016578000,0.009285000,0.070699000,-0.003428230,0.003553250,0.007595150,0.999958970,-0.006802000,0.007158000,0.015166000,-0.000223815,0.000257285,0.000015812,0.008853953,-0.002488228,-0.001862736,0.012300000,-0.003319899,0.999578312,0.000976594,-0.000639146,-0.000962855,0.000000000,0.000000000,0.000000000,0.000000000,0.016765117,0.009296884,0.070714726,0.019965821,0.000875470,0.000847867,0.007058960,0.000739506,-0.000902102,-0.224626963,0.338315721,0.579971211,-0.001945261,-0.002962238,0.005055358,0.999979907,0.000000000,0.000000000,0.000000000,0.000000000,0.000000000,0.000000000,0.579389201,0.000000000,4.217595577
1772428120.577698708,0.016565000,0.009288000,0.070712000,-0.003275390,0.003482570,0.007670250,0.999959150,-0.006497000,0.007015000,0.015318000,-0.000385801,0.000193201,-0.000179157,0.007378079,0.016292911,0.004693523,0.011909669,-0.003763470,0.999885851,-0.001598404,0.001716432,0.002398548,0.000000000,0.000000000,0.000000000,0.000000000,0.016758956,0.009305579,0.070709534,0.020023934,0.000982183,0.000768979,0.006222261,0.000155078,0.000238145,-0.224631388,0.337556929,0.579211167,-0.001945353,-0.002955604,0.005048738,0.999979973,0.000000000,0.000000000,0.000000000,0.000000000,0.000000000,0.000000000,0.579208167,0.000000000,4.217595577
1772428120.587699175,0.016554000,0.009300000,0.070703000,-0.003202900,0.003577600,0.007816000,0.999957930,-0.006350000,0.007205000,0.015609000,-0.000075544,0.000119114,-0.000160529,-0.000540005,0.012379670,0.008592776,0.010789129,-0.004139646,1.000286284,-0.000168767,-0.001630946,0.002054928,0.000000000,0.000000000,0.000000000,0.000000000,0.016759735,0.009304525,0.070707260,0.020033748,0.000987474,0.000742698,0.004622754,0.000567615,0.000520898,-0.224977686,0.336561755,0.579133175,-0.001948420,-0.002946934,0.005048066,0.999980003,0.000000000,0.000000000,0.000000000,0.000000000,0.000000000,0.000000000,0.579115176,0.000000000,4.217595577
1772428120.597699642,0.016562000,0.009304000,0.070689000,-0.003377420,0.003679860,0.007772410,0.999957320,-0.006698000,0.007412000,0.015520000,-0.000136694,0.000060451,-0.000170260,-0.008569815,0.005653161,0.007381725,0.009575502,-0.003837161,1.000118333,0.002547245,-0.000786173,-0.000490714,0.000000000,0.000000000,0.000000000,0.000000000,0.016760535,0.009302998,0.070705828,0.020005871,0.000986017,0.000719472,0.004188982,-0.000535162,-0.000054785,-0.223837409,0.335980182,0.578183696,-0.001938520,-0.002941792,0.005039820,0.999980068,0.000000000,0.000000000,0.000000000,0.000000000,0.000000000,0.000000000,0.578021124,0.000000000,4.217595577
1772428120.607699633,0.016561000,0.009293000,0.070695000,-0.003513780,0.003743800,0.007785380,0.999956510,-0.006969000,0.007542000,0.015545000,0.000165948,-0.000025932,-0.000172844,-0.013091794,-0.010610669,-0.000998906,0.010401178,-0.003760333,1.000310448,-0.002070581,-0.000613765,-0.000589695,0.000000000,0.000000000,0.000000000,0.000000000,0.016760237,0.009302567,0.070705852,0.019855916,0.000987858,0.000694843,0.002806661,0.000177908,0.000724090,-0.224702689,0.334618373,0.577318237,-0.001946153,-0.002929932,0.005032269,0.999980132,0.000000000,0.000000000,0.000000000,0.000000000,0.000000000,0.000000000,0.577213297,0.000000000,4.217595577
1772428120.617699146,0.016564000,0.009290000,0.070697000,-0.003480420,0.003668320,0.007769230,0.999957030,-0.006904000,0.007390000,0.015513000,0.000265346,-0.000063928,-0.000126243,-0.011175818,-0.017706235,-0.008770341,0.014819301,-0.004185478,1.000152849,-0.003692525,0.000054294,0.002366431,0.000000000,0.000000000,0.000000000,0.000000000,0.016763133,0.009300379,0.070705257,0.019644452,0.000964306,0.000688358,0.006330058,-0.000133436,0.001134427,-0.225956748,0.334876154,0.575961652,-0.001957120,-0.002932213,0.005020394,0.999980211,0.000000000,0.000000000,0.000000000,0.000000000,0.000000000,0.000000000,0.575921803,0.000000000,4.217595577
1772428120.627699137,0.016573000,0.009299000,0.070695000,-0.003536360,0.003233000,0.007709150,0.999958800,-0.007023000,0.006520000,0.015396000,0.000119037,0.000053419,0.000048427,-0.005719591,-0.027324430,-0.011194187,0.012453247,-0.004182775,1.000744406,-0.001333119,0.005596438,0.001524642,0.000000000,0.000000000,0.000000000,0.000000000,0.016761807,0.009298986,0.070709442,0.019744774,0.000949870,0.000687214,0.007381489,-0.000077145,0.001169469,-0.226504251,0.333872371,0.575655942,-0.001961949,-0.002923472,0.005017730,0.999980213,0.000000000,0.000000000,0.000000000,0.000000000,0.000000000,0.000000000,0.575589641,0.000000000,4.217595577
1772428120.637699604,0.016558000,0.009291000,0.070700000,-0.003471050,0.003433310,0.007704120,0.999958400,-0.006889000,0.006920000,0.015385000,-0.000065288,0.000102836,0.000100369,0.001372972,-0.024842594,-0.008557340,0.011989383,-0.002454768,0.999954372,-0.001330117,-0.001438173,0.000495101,0.000000000,0.000000000,0.000000000,0.000000000,0.016756202,0.009302210,0.070711280,0.019885851,0.000936264,0.000737550,0.006328709,0.000905075,0.000528132,-0.226181494,0.331755707,0.575337581,-0.001959234,-0.002904982,0.005014996,0.999980271,0.000000000,0.000000000,0.000000000,0.000000000,0.000000000,0.000000000,0.575360334,0.000000000,4.217595577
1772428120.647698879,0.016575000,0.009299000,0.070692000,-0.003519220,0.003171850,0.007575290,0.999960080,-0.006990000,0.006397000,0.015129000,-0.000003963,-0.000023873,0.000063190,0.004391071,-0.019647409,-0.006337565,0.012863373,-0.003901656,1.002030662,0.003993752,-0.001801092,-0.000213203,0.000000000,0.000000000,0.000000000,0.000000000,0.016754528,0.009307345,0.070706290,0.019922733,0.001010289,0.000752349,0.006902846,0.000585303,0.001082140,-0.226600170,0.331775935,0.575363053,-0.001962886,-0.002905177,0.005015209,0.999980271,0.000000000,0.000000000,0.000000000,0.000000000,0.000000000,0.000000000,0.575219823,0.000000000,4.217595577
1772428120.657698393,0.016557000,0.009304000,0.070692000,-0.003542720,0.003153900,0.007577620,0.999960040,-0.007038000,0.006361000,0.015133000,0.000006993,-0.000240773,0.000128089,0.007053193,-0.000618960,0.002115388,0.011586063,-0.004060660,1.000174283,-0.001854772,-0.000773511,-0.000985008,0.000000000,0.000000000,0.000000000,0.000000000,0.016755108,0.009307444,0.070703359,0.019996983,0.001067870,0.000831446,0.006583252,-0.000372488,0.001226391,-0.225894475,0.331236026,0.574172616,-0.001956782,-0.002900414,0.005004847,0.999980335,0.000000000,0.000000000,0.000000000,0.000000000,0.000000000,0.000000000,0.574202113,0.000000000,4.217595577
1772428120.667697906,0.016567000,0.009294000,0.070700000,-0.003480620,0.003123450,0.007631460,0.999959940,-0.006913000,0.006300000,0.015241000,0.000095552,-0.000283547,0.000089511,0.007810230,0.011667319,0.007189248,0.012012839,-0.004209074,0.999841139,-0.006404849,-0.000994685,-0.000907969,0.000000000,0.000000000,0.000000000,0.000000000,0.016756412,0.009304193,0.070703997,0.020037276,0.001032607,0.000903627,0.005611276,-0.000160859,-0.000247362,-0.227301960,0.329445694,0.572400155,-0.001969187,-0.002884822,0.004989374,0.999980450,0.000000000,0.000000000,0.000000000,0.000000000,0.000000000,0.000000000,0.573000233,0.000000000,4.217595577
1772428120.677697420,0.016566000,0.009284000,0.070704000,-0.003364810,0.003265470,0.007678020,0.999959530,-0.006679000,0.006582000,0.015334000,-0.000073796,0.000101768,-0.000081158,0.005128445,0.024314232,0.009872838,0.010266120,-0.003938353,0.999708541,0.000677017,-0.002051182,0.002008759,0.000000000,0.000000000,0.000000000,0.000000000,0.016761509,0.009305596,0.070704035,0.020048969,0.001000605,0.000869607,0.005062030,-0.000440166,-0.000384038,-0.228792685,0.328244325,0.572149861,-0.001982255,-0.002874399,0.004987174,0.999980463,0.000000000,0.000000000,0.000000000,0.000000000,0.000000000,0.000000000,0.572083520,0.000000000,4.217595577
1772428120.687696695,0.016570000,0.009288000,0.070698000,-0.003350980,0.003281610,0.007724400,0.999959170,-0.006651000,0.006615000,0.015427000,-0.000425156,0.000392211,-0.000220202,0.002421660,0.033643326,0.008634825,0.009635235,-0.003242543,0.999231765,-0.002704605,0.003068167,-0.002731849,0.000000000,0.000000000,0.000000000,0.000000000,0.016758800,0.009304169,0.070705373,0.019936057,0.000970213,0.000814644,0.004154784,0.000257626,-0.000471773,-0.228781505,0.328098155,0.571713711,-0.001982174,-0.002873115,0.004983372,0.999980509,0.000000000,0.000000000,0.000000000,0.000000000,0.000000000,0.000000000,0.571673076,0.000000000,4.217595577
1772428120.697696209,0.016564000,0.009297000,0.070694000,-0.003377900,0.003737900,0.007834830,0.999956620,-0.006697000,0.007528000,0.015645000,-0.000098058,0.000461791,-0.000302370,-0.002826809,0.025910666,0.001468904,0.011238174,-0.003803960,0.999511023,-0.002169164,-0.001197153,0.000422368,0.000000000,0.000000000,0.000000000,0.000000000,0.016759958,0.009304657,0.070704237,0.019827379,0.000977539,0.000744675,0.004929307,0.000814589,-0.000588073,-0.229118026,0.328095106,0.571427118,-0.001985118,-0.002873098,0.004980862,0.999980509,0.000000000,0.000000000,0.000000000,0.000000000,0.000000000,0.000000000,0.571392951,0.000000000,4.217595577
1772428120.707695961,0.016560000,0.009305000,0.070690000,-0.003474470,0.003616900,0.007708600,0.999957710,-0.006893000,0.007287000,0.015392000,-0.000043590,0.000147475,0.000064511,-0.005901592,0.006853519,-0.004269636,0.013004716,-0.003758849,0.998603685,-0.002540113,-0.000810721,0.002758683,0.000000000,0.000000000,0.000000000,0.000000000,0.016761211,0.009306761,0.070701943,0.019732492,0.001001934,0.000665227,0.007701603,0.000854876,-0.000716902,-0.229167484,0.328874494,0.571613129,-0.001985511,-0.002879905,0.004982470,0.999980473,0.000000000,0.000000000,0.000000000,0.000000000,0.000000000,0.000000000,0.571644725,0.000000000,4.217206757
1772428120.717695475,0.016546000,0.009317000,0.070688000,-0.003461340,0.003870520,0.007738320,0.999956580,-0.006863000,0.007794000,0.015450000,0.000278808,-0.000314958,0.000309771,-0.005176622,-0.012637962,-0.007515840,0.013755573,-0.002999259,0.997458051,-0.000511949,-0.000735667,0.003797064,0.000000000,0.000000000,0.000000000,0.000000000,0.016755841,0.009309299,0.070700596,0.019722239,0.001040192,0.000545116,0.008598092,0.000394456,-0.002326411,-0.230193852,0.328702649,0.571621345,-0.001994475,-0.002878450,0.004982519,0.999980450,0.000000000,0.000000000,0.000000000,0.000000000,0.000000000,0.000000000,0.571608726,0.000000000,4.216687393
1772428120.727695465,0.016562000,0.009300000,0.070695000,-0.003469980,0.003493610,0.007663430,0.999958510,-0.006886000,0.007040000,0.015303000,0.000360704,-0.000608528,0.000400525,-0.001017219,-0.021629149,-0.007098314,0.013517216,-0.003249070,0.998336125,0.001354268,-0.001859718,0.001384649,0.000000000,0.000000000,0.000000000,0.000000000,0.016757688,0.009305691,0.070702908,0.019938641,0.001108096,0.000324411,0.008026958,0.000631316,-0.001805331,-0.229693625,0.329017966,0.571547839,-0.001990098,-0.002881178,0.004981885,0.999980492,0.000000000,0.000000000,0.000000000,0.000000000,0.000000000,0.000000000,0.571531934,0.000000000,4.216168005
1772428120.737694740,0.016585000,0.009279000,0.070707000,-0.003468990,0.003422360,0.007629050,0.999959020,-0.006886000,0.006897000,0.015235000,0.000182964,-0.000411830,0.000106915,-0.000918027,-0.019739190,-0.002975823,0.012331702,-0.004508912,1.000446908,0.001938866,0.000084360,0.001899998,0.000000000,0.000000000,0.000000000,0.000000000,0.016760028,0.009301158,0.070703482,0.020131891,0.001163563,0.000115024,0.007346396,-0.000593563,0.000440065,-0.228967579,0.329317785,0.571302717,-0.001983755,-0.002883759,0.004979759,0.999980509,0.000000000,0.000000000,0.000000000,0.000000000,0.000000000,0.000000000,0.571265786,0.000000000,4.215648653
1772428120.747695923,0.016567000,0.009278000,0.070715000,-0.003452310,0.003215080,0.007648470,0.999959620,-0.006855000,0.006483000,0.015275000,-0.000333800,0.000220999,-0.000283042,-0.001078046,-0.000209569,0.005140893,0.012232385,-0.005146433,1.001231404,0.000044826,0.000752217,0.003126880,0.000000000,0.000000000,0.000000000,0.000000000,0.016762443,0.009301359,0.070700721,0.020255483,0.001151052,0.000050723,0.006236529,-0.000689565,0.001808598,-0.227770981,0.329025213,0.571196654,-0.001973329,-0.002881152,0.004978868,0.999980509,0.000000000,0.000000000,0.000000000,0.000000000,0.000000000,0.000000000,0.571187767,0.000000000,4.215129203
1772428120.757695913,0.016567000,0.009294000,0.070690000,-0.003469380,0.003425390,0.007676530,0.999958650,-0.006886000,0.006904000,0.015330000,-0.000728031,0.000726768,-0.000474748,-0.000962379,0.021272077,0.008752045,0.013835738,-0.005296549,1.000658112,-0.003132654,0.000216509,0.001401413,0.000000000,0.000000000,0.000000000,0.000000000,0.016761648,0.009304735,0.070697823,0.020247876,0.001057612,0.000155896,0.007873146,-0.001022080,0.000369365,-0.227562634,0.328647840,0.570652957,-0.001971541,-0.002877841,0.004974136,0.999980535,0.000000000,0.000000000,0.000000000,0.000000000,0.000000000,0.000000000,0.570555037,0.000000000,4.214609814
1772428120.767696381,0.016552000,0.009305000,0.070690000,-0.003472850,0.003601450,0.007745120,0.999957490,-0.006890000,0.007256000,0.015466000,-0.000625292,0.000748913,-0.000336034,0.000969720,0.032860425,0.012795241,0.014555025,-0.005107823,1.000465247,-0.001008481,-0.001762608,0.000089841,0.000000000,0.000000000,0.000000000,0.000000000,0.016759506,0.009309621,0.070695235,0.020344991,0.000966877,0.000263105,0.008375851,-0.000811712,0.000961777,-0.227395313,0.328660913,0.569878968,-0.001970099,-0.002877934,0.004967385,0.999980587,0.000000000,0.000000000,0.000000000,0.000000000,0.000000000,0.000000000,0.569781416,0.000000000,4.214090401
1772428120.777697086,0.016542000,0.009317000,0.070681000,-0.003541680,0.003767310,0.007811240,0.999956120,-0.007024000,0.007590000,0.015596000,-0.000054895,0.000248505,-0.000005497,0.001466372,0.032937173,0.012612386,0.012490798,-0.003155188,1.001592130,0.000362139,-0.002237562,0.000499295,0.000000000,0.000000000,0.000000000,0.000000000,0.016752005,0.009318089,0.070692923,0.020581906,0.000862515,0.000272735,0.007475267,0.000602155,0.001242683,-0.227062036,0.328603949,0.568963779,-0.001967216,-0.002877407,0.004959408,0.999980628,0.000000000,0.000000000,0.000000000,0.000000000,0.000000000,0.000000000,0.568828573,0.000000000,4.213570975
1772428120.787697554,0.016543000,0.009318000,0.070690000,-0.003437940,0.003956920,0.007896850,0.999955080,-0.006813000,0.007968000,0.015767000,0.000525506,-0.000505517,0.000565599,0.005468536,0.026129900,0.011205797,0.011541122,-0.002350730,1.001456780,-0.001519442,0.002006993,0.001658433,0.000000000,0.000000000,0.000000000,0.000000000,0.016757264,0.009313711,0.070695711,0.020659233,0.000856561,0.000437537,0.006153982,0.001891444,0.002125847,-0.227640133,0.327624018,0.568972741,-0.001972303,-0.002868881,0.004959489,0.999980628,0.000000000,0.000000000,0.000000000,0.000000000,0.000000000,0.000000000,0.569093228,0.000000000,4.213051561
1772428120.797698736,0.016563000,0.009295000,0.070705000,-0.003398830,0.004089060,0.007891010,0.999954730,-0.006733000,0.008231000,0.015755000,0.000696077,-0.000838948,0.000837491,0.007644172,0.002013722,0.004628055,0.010336979,-0.005231689,1.001611346,0.000438004,-0.002014176,-0.001867496,0.000000000,0.000000000,0.000000000,0.000000000,0.016772046,0.009299990,0.070704901,0.020709053,0.001030981,0.000604665,0.004654718,-0.001472657,0.001393754,-0.227954672,0.327545543,0.567997927,-0.001975076,-0.002868193,0.004950976,0.999980679,0.000000000,0.000000000,0.000000000,0.000000000,0.000000000,0.000000000,0.567680310,0.000000000,4.212532111
1772428120.807698727,0.016581000,0.009281000,0.070711000,-0.003404530,0.003785220,0.007928160,0.999955610,-0.006749000,0.007624000,0.015831000,0.000451652,-0.000530498,0.000352215,0.007306310,-0.004918515,-0.001665400,0.011037978,-0.004668072,1.000172963,-0.001823146,0.000010041,0.003320732,0.000000000,0.000000000,0.000000000,0.000000000,0.016769304,0.009295201,0.070711658,0.020511088,0.000968776,0.000839741,0.005710254,-0.000797811,0.000483614,-0.227742170,0.327914420,0.567377732,-0.001973221,-0.002871392,0.004945562,0.999980715,0.000000000,0.000000000,0.000000000,0.000000000,0.000000000,0.000000000,0.567445130,0.000000000,4.212503047
1772428120.817698717,0.016568000,0.009288000,0.070707000,-0.003385340,0.004096000,0.007923970,0.999954490,-0.006706000,0.008245000,0.015821000,0.000088384,-0.000109985,0.000004604,0.006706528,-0.015876505,-0.006831792,0.010922303,-0.003454835,0.999480539,-0.002112020,-0.000344882,0.000818861,0.000000000,0.000000000,0.000000000,0.000000000,0.016858191,0.009302593,0.070709129,0.020643424,0.000866941,0.000818703,0.005451942,0.000590662,-0.000843933,-0.228343865,0.327033647,0.568352527,-0.001978485,-0.002863748,0.004954069,0.999980641,0.000000000,0.000000000,0.000000000,0.000000000,0.000000000,0.000000000,0.568815582,0.000000000,4.212820650
1772428120.827698708,0.016564000,0.009286000,0.070714000,-0.003258350,0.003797610,0.007886140,0.999956380,-0.006457000,0.007646000,0.015748000,-0.000420649,0.000432809,-0.000467425,0.005777805,-0.019074370,-0.008958100,0.011786991,-0.003275476,0.999322868,0.001280017,-0.000945049,-0.001625444,0.000000000,0.000000000,0.000000000,0.000000000,0.016855346,0.009311438,0.070701910,0.017861924,0.000786409,0.000327051,0.005277786,-0.001256421,0.000799713,-0.227380766,0.349708990,0.579094315,-0.001968799,-0.003061767,0.005047437,0.999979643,0.000000000,0.000000000,0.000000000,0.000000000,0.000000000,0.000000000,0.580248494,0.000000000,4.213138253
1772428120.837699175,0.016563000,0.009301000,0.070698000,-0.003329660,0.003559180,0.007734510,0.999958210,-0.006604000,0.007170000,0.015446000,-0.000686539,0.000698777,-0.000599165,0.005878885,-0.009774734,-0.008969192,0.011505802,-0.005289521,0.999192938,-0.001890883,-0.000911805,0.000444568,0.000000000,0.000000000,0.000000000,0.000000000,0.016805139,0.009313315,0.070696639,0.016482559,0.000730131,0.000095370,0.004832797,-0.001082358,-0.001572571,-0.226680219,0.365441501,0.586485445,-0.001961797,-0.003199153,0.005111679,0.999978925,0.000000000,0.000000000,0.000000000,0.000000000,0.000000000,0.000000000,0.586485445,0.000000000,4.213455870
1772428120.847699404,0.016546000,0.009310000,0.070686000,-0.003296010,0.003896450,0.007781470,0.999956700,-0.006531000,0.007844000,0.015538000,-0.000695649,0.000577060,-0.000367716,0.001455721,-0.006259217,-0.007931867,0.012075119,-0.004518262,0.999603334,-0.002211012,0.000938126,0.001001318,0.000000000,0.000000000,0.000000000,0.000000000,0.016849612,0.009315243,0.070696325,0.016837077,0.000590590,-0.000033587,0.005974454,-0.001331430,-0.000383391,-0.226125430,0.363797969,0.586698292,-0.001957024,-0.003184790,0.005113581,0.999978960,0.000000000,0.000000000,0.000000000,0.000000000,0.000000000,0.000000000,0.586691236,0.000000000,4.213773480
1772428120.857699871,0.016561000,0.009301000,0.070698000,-0.003235330,0.003502650,0.007734470,0.999958720,-0.006416000,0.007055000,0.015447000,-0.000130866,0.000135762,0.000051049,-0.001928269,-0.009592529,-0.002974511,0.012534326,-0.005291272,1.001264402,0.001146368,0.001788274,-0.000163528,0.000000000,0.000000000,0.000000000,0.000000000,0.016865665,0.009317219,0.070694662,0.017147360,0.000511149,-0.000032579,0.006704361,-0.000541132,0.000383584,-0.224110611,0.364524060,0.585475553,-0.001939443,-0.003191015,0.005102954,0.999979015,0.000000000,0.000000000,0.000000000,0.000000000,0.000000000,0.000000000,0.585315250,0.000000000,4.214091098
1772428120.867699862,0.016544000,0.009309000,0.070690000,-0.003244520,0.003718210,0.007745310,0.999957830,-0.006431000,0.007486000,0.015467000,0.000170105,-0.000102836,0.000209402,-0.004740766,-0.000615907,0.001032297,0.011289249,-0.005045668,0.997713055,0.001294302,-0.000903448,0.002212927,0.000000000,0.000000000,0.000000000,0.000000000,0.016878880,0.009314897,0.070700752,0.017440439,0.000347947,0.000021957,0.005383712,-0.001194091,-0.001425252,-0.223351383,0.362540206,0.583837244,-0.001932951,-0.003173642,0.005088713,0.999979157,0.000000000,0.000000000,0.000000000,0.000000000,0.000000000,0.000000000,0.583640400,0.000000000,4.214408701
1772428120.877700090,0.016548000,0.009306000,0.070698000,-0.003331000,0.003785410,0.007717370,0.999957510,-0.006604000,0.007622000,0.015410000,0.000496485,-0.000367910,0.000317580,-0.002785504,-0.000711996,0.001189965,0.010507253,-0.004144922,0.999431962,-0.001859618,0.000210962,-0.002229433,0.000000000,0.000000000,0.000000000,0.000000000,0.016901340,0.009304522,0.070702527,0.017537250,0.000227883,-0.000175879,0.004284898,0.000148295,-0.000647857,-0.222991227,0.362089341,0.582853434,-0.001929856,-0.003169675,0.005080145,0.999979198,0.000000000,0.000000000,0.000000000,0.000000000,0.000000000,0.000000000,0.582839783,0.000000000,4.214726311
1772428120.887700319,0.016551000,0.009304000,0.070706000,-0.003381490,0.003480480,0.007749950,0.999958190,-0.006709000,0.007013000,0.015477000,0.000696057,-0.000388171,0.000143862,0.000508039,0.002339946,0.000921958,0.009821550,-0.005883802,1.000028636,-0.000761634,0.001796684,-0.001380308,0.000000000,0.000000000,0.000000000,0.000000000,0.016904951,0.009301820,0.070695332,0.017475495,0.000221335,-0.000251315,0.003921177,-0.001577819,0.000186152,-0.223111169,0.361989351,0.581812062,-0.001930935,-0.003168790,0.005071056,0.999979198,0.000000000,0.000000000,0.000000000,0.000000000,0.000000000,0.000000000,0.581620979,0.000000000,4.215043921
1772428120.897700310,0.016582000,0.009289000,0.070707000,-0.003290050,0.003589020,0.007793070,0.999957780,-0.006524000,0.007229000,0.015563000,0.000428458,-0.000305264,0.000023563,0.005567517,0.008936903,0.002770876,0.012241867,-0.007000692,0.999914366,-0.003151753,0.000510407,-0.001119954,0.000000000,0.000000000,0.000000000,0.000000000,0.016906099,0.009298999,0.070695274,0.017421594,0.000116490,-0.000237344,0.004138658,-0.003109805,0.000346766,-0.223240272,0.360239125,0.580566193,-0.001932174,-0.003153501,0.005060210,0.999979319,0.000000000,0.000000000,0.000000000,0.000000000,0.000000000,0.000000000,0.580555931,0.000000000,4.215361523
1772428120.907700300,0.016567000,0.009298000,0.070692000,-0.003320990,0.003754560,0.007745910,0.999957440,-0.006584000,0.007560000,0.015467000,0.000296523,-0.000206741,-0.000051593,0.007410666,-0.000935362,0.001557687,0.012211186,-0.006384726,0.999477169,-0.002186452,0.000535503,-0.000841383,0.000000000,0.000000000,0.000000000,0.000000000,0.016905507,0.009297952,0.070695783,0.017399529,0.000014752,-0.000218774,0.004419975,-0.002998995,0.000244816,-0.223276561,0.359999767,0.580468431,-0.001932504,-0.003151413,0.005059360,0.999979328,0.000000000,0.000000000,0.000000000,0.000000000,0.000000000,0.000000000,0.580457022,0.000000000,4.215679126
1772428120.917700052,0.016571000,0.009291000,0.070699000,-0.003208200,0.003743980,0.007730420,0.999957960,-0.006358000,0.007537000,0.015437000,-0.000204992,0.000013073,-0.000080148,-0.000776040,-0.015423616,-0.001608647,0.012180506,-0.005768775,0.999039983,-0.001221175,0.000560598,-0.000562819,0.000000000,0.000000000,0.000000000,0.000000000,0.016904914,0.009296904,0.070696292,0.017377465,-0.000086984,-0.000200205,0.004701284,-0.002888188,0.000142869,-0.223312850,0.359760415,0.580370671,-0.001932834,-0.003149324,0.005058510,0.999979338,0.000000000,0.000000000,0.000000000,0.000000000,0.000000000,0.000000000,0.580358115,0.000000000,4.215996721
