t,px,py,pz,qx,qy,qz,qw,roll,pitch,yaw,vx,vy,vz,wx_vicon,wy_vicon,wz_vicon,imu_acc_x,imu_acc_y,imu_acc_z,imu_gyro_x,imu_gyro_y,imu_gyro_z,motor_motor_m1,motor_motor_m2,motor_motor_m3,motor_motor_m4,est_stateEstimate_x,est_stateEstimate_y,est_stateEstimate_z,est_stateEstimate_vx,est_stateEstimate_vy,est_stateEstimate_vz,est_stateEstimate_ax,est_stateEstimate_ay,est_stateEstimate_az,att_stateEstimate_roll,att_stateEstimate_pitch,att_stateEstimate_yaw,att_stateEstimate_qx,att_stateEstimate_qy,att_stateEstimate_qz,att_stateEstimate_qw,sp_ctrltarget_x,sp_ctrltarget_y,sp_ctrltarget_z,sp_ctrltarget_yaw,pid_controller_roll,pid_controller_pitch,pid_controller_yaw,pid_controller_cmd_thrust,pwr_pm_vbat
1772689392.205179691,0.013611000,0.005438000,0.054053000,-0.012003600,0.016141250,-0.008141860,0.999764510,-0.024279000,0.032085000,-0.016677000,0.005227083,0.001389725,-0.007488877,0.310070957,-0.370327599,0.112778532,0.009397174,-0.006552522,0.998153125,0.000165175,0.001851482,0.004531668,0.000000000,0.000000000,0.000000000,0.000000000,0.014360604,0.005679716,0.054032370,0.037830019,0.012051378,-0.000869677,0.010938524,0.002330432,-0.001156156,-0.494251084,-0.087876053,-0.649375912,-0.004308721,0.000791286,-0.005663476,0.999973270,0.000000000,0.000000000,0.000000000,0.000000000,0.000000000,0.000000000,-0.203384429,0.000000000,3.969501495
1772689392.215179205,0.013679000,0.005502000,0.053908000,-0.010230410,0.013718060,-0.007604790,0.999824640,-0.020675000,0.027279000,-0.015494000,0.001657500,-0.000257595,-0.000896563,0.096664007,-0.110431190,0.039319125,0.009021791,-0.006358343,1.000068078,-0.000263017,0.003067855,-0.000704557,0.000000000,0.000000000,0.000000000,0.000000000,0.014248714,0.005646326,0.054038811,0.037419279,0.011896461,-0.000922705,0.010211482,0.002244862,-0.000182220,-0.493504384,-0.087975643,-0.648027099,-0.004302209,0.000792068,-0.005651707,0.999973386,0.000000000,0.000000000,0.000000000,0.000000000,0.000000000,0.000000000,-0.203384429,0.000000000,3.969501495
1772689392.225178719,0.013643000,0.005436000,0.054029000,-0.010911060,0.014947960,-0.007715780,0.999798970,-0.022060000,0.029726000,-0.015762000,-0.000427001,-0.001022281,0.002403091,-0.028854618,0.041818600,-0.005766547,0.009898982,-0.007093549,0.999794798,0.002527043,0.002698782,-0.000989410,0.000000000,0.000000000,0.000000000,0.000000000,0.014093780,0.005600901,0.054018955,0.036913095,0.011688981,-0.000988843,0.011505102,0.001477368,0.000043584,-0.493005130,-0.089600614,-0.648997312,-0.004297765,0.000806260,-0.005660116,0.999973416,0.000000000,0.000000000,0.000000000,0.000000000,0.000000000,0.000000000,-0.203384429,0.000000000,3.969501495
1772689392.235178471,0.013641000,0.005422000,0.054056000,-0.011294970,0.015314900,-0.007795900,0.999788530,-0.022837000,0.030452000,-0.015943000,-0.001336909,-0.001127410,0.003219176,-0.085093393,0.109448466,-0.028098653,0.010968051,-0.007198591,0.998458700,0.001606407,-0.003929767,-0.000342197,0.000000000,0.000000000,0.000000000,0.000000000,0.014250472,0.005658332,0.053970572,0.037309776,0.011623176,-0.001144882,0.011946415,0.001086150,-0.000878200,-0.490682704,-0.090994907,-0.648668120,-0.004277432,0.000818300,-0.005657208,0.999973488,0.000000000,0.000000000,0.000000000,0.000000000,0.000000000,0.000000000,-0.203384429,0.000000000,3.969501495
1772689392.245178461,0.013631000,0.005421000,0.054064000,-0.011478310,0.015584570,-0.007940700,0.999781130,-0.023212000,0.030985000,-0.016244000,-0.001382713,-0.000796057,0.002360783,-0.090790966,0.115410033,-0.033200969,0.010617782,-0.006420036,1.000052548,0.000750568,-0.002837260,-0.001084519,0.000000000,0.000000000,0.000000000,0.000000000,0.014000839,0.005562128,0.054002679,0.036563083,0.011296135,-0.001030594,0.011521279,0.002283994,-0.000028290,-0.488545326,-0.090180252,-0.648538873,-0.004258822,0.000811081,-0.005656125,0.999973566,0.000000000,0.000000000,0.000000000,0.000000000,0.000000000,0.000000000,-0.203384429,0.000000000,3.969501495
1772689392.255178213,0.013635000,0.005442000,0.054049000,-0.011559400,0.015707750,-0.007985600,0.999777910,-0.023378000,0.031229000,-0.016339000,-0.000874904,-0.000251302,0.000637005,-0.064624093,0.082701539,-0.026600139,0.009302657,-0.006009613,0.999535003,0.000242107,-0.001084933,-0.000745751,0.000000000,0.000000000,0.000000000,0.000000000,0.013998600,0.005548269,0.054023231,0.036615809,0.011123682,-0.000989354,0.010633099,0.001336307,-0.001130845,-0.488212000,-0.089891923,-0.647751559,-0.004255933,0.000808519,-0.005649268,0.999973618,0.000000000,0.000000000,0.000000000,0.000000000,0.000000000,0.000000000,-0.203384429,0.000000000,3.969501495
1772689392.265178204,0.013620000,0.005436000,0.054048000,-0.012073290,0.016148850,-0.008174460,0.999763290,-0.024420000,0.032098000,-0.016744000,-0.000329818,0.000061480,-0.000447067,-0.046527829,0.060754666,-0.019564696,0.009521050,-0.005656968,0.999967258,0.003509948,0.000590295,-0.002662070,0.000000000,0.000000000,0.000000000,0.000000000,0.013993750,0.005540029,0.054037569,0.036616082,0.011005344,-0.000887777,0.011160701,0.003197895,-0.000315311,-0.487540034,-0.090365375,-0.647608950,-0.004250046,0.000812612,-0.005648011,0.999973672,0.000000000,0.000000000,0.000000000,0.000000000,0.000000000,0.000000000,-0.203384429,0.000000000,3.969501495
1772689392.275177956,0.013613000,0.005439000,0.054039000,-0.011992310,0.016303530,-0.008193930,0.999761590,-0.024261000,0.032408000,-0.016785000,0.000270824,0.000265346,-0.000871116,-0.017933933,0.029744385,-0.005328237,0.010866405,-0.005586983,1.001330602,0.004216546,0.002364794,-0.003181303,0.000000000,0.000000000,0.000000000,0.000000000,0.013992290,0.005544287,0.054039444,0.036522808,0.011007250,-0.000936422,0.012785060,0.003128213,0.001153073,-0.486047883,-0.090714227,-0.647931861,-0.004237006,0.000815595,-0.005650827,0.999973724,0.000000000,0.000000000,0.000000000,0.000000000,0.000000000,0.000000000,-0.203384429,0.000000000,3.969501495
1772689392.285177708,0.013636000,0.005422000,0.054041000,-0.012096250,0.016442840,-0.008156130,0.999758370,-0.024470000,0.032686000,-0.016716000,0.000928323,0.000641978,-0.001266707,0.025060032,-0.032177083,0.012505997,0.011636421,-0.005901449,1.001617189,-0.000248354,0.003299534,-0.000626919,0.000000000,0.000000000,0.000000000,0.000000000,0.013986320,0.005544407,0.054039696,0.036570626,0.011028554,-0.000830934,0.013156074,0.002752532,0.001286715,-0.484991783,-0.091246402,-0.647406652,-0.004227768,0.000820167,-0.005646231,0.999973768,0.000000000,0.000000000,0.000000000,0.000000000,0.000000000,0.000000000,-0.203384429,0.000000000,3.969501495
1772689392.295177221,0.013625000,0.005432000,0.054042000,-0.012113200,0.016430310,-0.008191480,0.999758080,-0.024505000,0.032660000,-0.016787000,0.001155634,0.000777779,-0.001202468,0.063413431,-0.087987168,0.023955745,0.011034992,-0.005864500,1.000057768,0.001622160,-0.000125871,-0.003637048,0.000000000,0.000000000,0.000000000,0.000000000,0.013979655,0.005545157,0.054037314,0.036684154,0.011031396,-0.000690500,0.012701844,0.002226892,0.000587668,-0.484660546,-0.091576935,-0.646865308,-0.004224865,0.000823015,-0.005641497,0.999973823,0.000000000,0.000000000,0.000000000,0.000000000,0.000000000,0.000000000,-0.203384429,0.000000000,3.969501495
1772689392.305176258,0.013638000,0.005431000,0.054052000,-0.012184000,0.016552390,-0.008118980,0.999755800,-0.024647000,0.032905000,-0.016647000,0.001048738,0.000800991,-0.000987064,0.079239932,-0.109189886,0.026608541,0.010522516,-0.006251049,1.001252184,0.001743980,-0.002150139,0.001401123,0.000000000,0.000000000,0.000000000,0.000000000,0.013982272,0.005540892,0.054035438,0.036846341,0.010978034,-0.000610913,0.012282357,0.001753113,0.001426775,-0.483701124,-0.090821577,-0.647810315,-0.004216523,0.000816411,-0.005649778,0.999973784,0.000000000,0.000000000,0.000000000,0.000000000,0.000000000,0.000000000,-0.203384429,0.000000000,3.969501495
1772689392.315176487,0.013689000,0.005503000,0.053934000,-0.010416440,0.014071350,-0.007591440,0.999817920,-0.021053000,0.027983000,-0.015480000,0.000261189,0.000345183,-0.000224301,0.054990222,-0.078919917,0.015848055,0.010041257,-0.007413872,1.002964002,-0.002855519,0.004781547,0.003367613,0.000000000,0.000000000,0.000000000,0.000000000,0.013985890,0.005537943,0.054035674,0.036959246,0.010911367,-0.000518840,0.011970443,0.001224569,0.002105168,-0.483090140,-0.090547455,-0.646991522,-0.004211210,0.000813959,-0.005642648,0.999973863,0.000000000,0.000000000,0.000000000,0.000000000,0.000000000,0.000000000,-0.203384429,0.000000000,3.969501495
1772689392.325176001,0.013655000,0.005457000,0.054019000,-0.010727820,0.014388540,-0.007696100,0.999809310,-0.021684000,0.028610000,-0.015705000,-0.000599068,-0.000154818,0.000641337,0.016041328,-0.022211544,0.004029673,0.010951214,-0.008033403,1.000033335,0.000636695,0.000006356,-0.003449859,0.000000000,0.000000000,0.000000000,0.000000000,0.013988707,0.005538064,0.054039125,0.037024701,0.010805380,-0.000305440,0.011885988,0.000991236,0.000662837,-0.483138471,-0.090693846,-0.646589180,-0.004211628,0.000815224,-0.005639131,0.999973893,0.000000000,0.000000000,0.000000000,0.000000000,0.000000000,0.000000000,-0.203384429,0.000000000,3.969501495
1772689392.335175514,0.013643000,0.005440000,0.054035000,-0.010982400,0.014807420,-0.007832640,0.999799370,-0.022204000,0.029441000,-0.015995000,-0.001043047,-0.000706741,0.001565153,-0.033997103,0.047290887,-0.010792046,0.009442271,-0.006452492,0.998904163,-0.001914005,0.008261417,0.001990255,0.000000000,0.000000000,0.000000000,0.000000000,0.014006266,0.005554565,0.054015447,0.037124755,0.010675249,-0.000263682,0.011182681,0.002223260,-0.000080343,-0.482151662,-0.091075286,-0.645429571,-0.004203006,0.000818462,-0.005629004,0.999973936,0.000000000,0.000000000,0.000000000,0.000000000,0.000000000,0.000000000,-0.203384429,0.000000000,3.969501495
1772689392.345175266,0.013632000,0.005439000,0.054040000,-0.011382910,0.015513470,-0.007952750,0.999783230,-0.023021000,0.030844000,-0.016264000,-0.001581859,-0.001017717,0.002487221,-0.091366555,0.122904662,-0.026746243,0.009548026,-0.005483171,1.000467728,-0.002928609,0.001196314,0.005619110,0.000000000,0.000000000,0.000000000,0.000000000,0.014020450,0.005570162,0.053992468,0.037159834,0.010592841,-0.000376468,0.011005599,0.002756636,-0.000532138,-0.482062381,-0.093234276,-0.642730691,-0.004202141,0.000837198,-0.005605375,0.999974034,0.000000000,0.000000000,0.000000000,0.000000000,0.000000000,0.000000000,-0.203384429,0.000000000,3.969501495
1772689392.355175018,0.013615000,0.005438000,0.054060000,-0.011882420,0.016053930,-0.008048470,0.999768120,-0.024032000,0.031915000,-0.016484000,-0.000605187,0.000156954,0.000597961,-0.074052741,0.090344134,-0.015852038,0.009433566,-0.005773705,0.996138281,0.001008869,0.003052933,-0.002752377,0.000000000,0.000000000,0.000000000,0.000000000,0.014015848,0.005562082,0.054006839,0.037082982,0.010525745,-0.000347761,0.011235505,0.002230224,-0.003072967,-0.481677181,-0.094222350,-0.640701855,-0.004198746,0.000845728,-0.005587636,0.999974147,0.000000000,0.000000000,0.000000000,0.000000000,0.000000000,0.000000000,-0.203384429,0.000000000,3.969501495
1772689392.365174770,0.013617000,0.005445000,0.054061000,-0.012052720,0.016191620,-0.008015880,0.999764130,-0.024374000,0.032188000,-0.016428000,0.000640482,0.001462317,-0.001897127,0.005520010,-0.027606171,0.009140216,0.009244176,-0.006135084,0.998286694,0.000530068,0.002412952,0.001346374,0.000000000,0.000000000,0.000000000,0.000000000,0.014007494,0.005552226,0.054020219,0.037013604,0.010472588,-0.000434285,0.010942747,0.002203549,-0.002260609,-0.481107407,-0.096008133,-0.641067144,-0.004193684,0.000861297,-0.005590763,0.999974191,0.000000000,0.000000000,0.000000000,0.000000000,0.000000000,0.000000000,-0.203384429,0.000000000,3.969501495
1772689392.375174761,0.013624000,0.005450000,0.054060000,-0.012121970,0.016286390,-0.008108420,0.999761000,-0.024518000,0.032374000,-0.016617000,0.001057363,0.000966823,-0.001726187,0.049274326,-0.088497368,0.020769993,0.008806307,-0.006069095,0.997339091,-0.002002715,0.005989847,-0.001619570,0.000000000,0.000000000,0.000000000,0.000000000,0.013995072,0.005546165,0.054033203,0.036934876,0.010414412,-0.000660513,0.010802107,0.002457490,-0.001890247,-0.482174410,-0.097170352,-0.639629978,-0.004202949,0.000871438,-0.005578171,0.999974238,0.000000000,0.000000000,0.000000000,0.000000000,0.000000000,0.000000000,-0.203384429,0.000000000,3.969501495
1772689392.385174513,0.013630000,0.005459000,0.054038000,-0.012078070,0.016026680,-0.007984280,0.999766730,-0.024421000,0.031858000,-0.016361000,0.000940502,0.000229410,-0.001028847,0.067208663,-0.100483965,0.021592574,0.009578513,-0.005093194,1.000165589,0.004144447,-0.000032294,0.000501900,0.000000000,0.000000000,0.000000000,0.000000000,0.013984417,0.005545000,0.054044407,0.036843895,0.010379108,-0.000807510,0.011559596,0.002665819,-0.000471786,-0.482844345,-0.099017274,-0.638677290,-0.004208712,0.000887553,-0.005569784,0.999974202,0.000000000,0.000000000,0.000000000,0.000000000,0.000000000,0.000000000,-0.203384429,0.000000000,3.969501495
1772689392.395174742,0.013682000,0.005518000,0.053920000,-0.010353960,0.013516950,-0.007432580,0.999827410,-0.020914000,0.026879000,-0.015149000,0.000354604,-0.000448213,-0.000002195,0.051715422,-0.061674228,0.017197836,0.010630501,-0.005403038,0.999454107,-0.002007075,-0.000434784,-0.000517516,0.000000000,0.000000000,0.000000000,0.000000000,0.013982158,0.005547927,0.054048877,0.036847438,0.010413125,-0.000841741,0.012361038,0.002369445,-0.000090570,-0.482487145,-0.098977792,-0.637067323,-0.004205610,0.000887132,-0.005555739,0.999974299,0.000000000,0.000000000,0.000000000,0.000000000,0.000000000,0.000000000,-0.203384429,0.000000000,3.969501495
1772689392.405174732,0.013644000,0.005445000,0.054032000,-0.010777000,0.014278090,-0.007649070,0.999810720,-0.021779000,0.028390000,-0.015610000,-0.000244950,-0.001077060,0.001364861,0.008590921,0.007703857,0.007784934,0.010615664,-0.006224274,1.000434660,0.002787696,-0.001928553,-0.001326464,0.000000000,0.000000000,0.000000000,0.000000000,0.013984846,0.005553560,0.054042466,0.036943308,0.010473228,-0.000863241,0.012200074,0.002051669,0.001211965,-0.482900340,-0.097663441,-0.636853110,-0.004209281,0.000875674,-0.005553915,0.999974310,0.000000000,0.000000000,0.000000000,0.000000000,0.000000000,0.000000000,-0.203384429,0.000000000,3.969501495
1772689392.415175200,0.013643000,0.005424000,0.054065000,-0.011219430,0.015127050,-0.007752920,0.999792570,-0.022681000,0.030078000,-0.015850000,-0.000866978,-0.001012083,0.001971175,-0.034708155,0.066155438,-0.003727385,0.010434335,-0.006777291,1.001943091,0.002608927,0.000654938,-0.001316226,0.000000000,0.000000000,0.000000000,0.000000000,0.014003407,0.005575872,0.053999078,0.037080439,0.010526534,-0.001002175,0.012343354,0.001644527,0.001332786,-0.481734330,-0.096683030,-0.637453083,-0.004199149,0.000867084,-0.005559196,0.999974310,0.000000000,0.000000000,0.000000000,0.000000000,0.000000000,0.000000000,-0.203384429,0.000000000,3.969501495
1772689392.425174713,0.013620000,0.005434000,0.054073000,-0.011542290,0.015698810,-0.007820580,0.999779560,-0.023339000,0.031215000,-0.016009000,-0.001075001,-0.000583489,0.001810219,-0.067807708,0.107659458,-0.016920859,0.010863080,-0.006524361,0.999997684,0.002075407,-0.001087832,-0.006433548,0.000000000,0.000000000,0.000000000,0.000000000,0.014012133,0.005578657,0.053985971,0.037163986,0.010454311,-0.000919700,0.011787640,0.001509146,0.000990571,-0.480459796,-0.096760806,-0.637968606,-0.004188019,0.000867720,-0.005563701,0.999974354,0.000000000,0.000000000,0.000000000,0.000000000,0.000000000,0.000000000,-0.203384429,0.000000000,3.969501495
1772689392.435174704,0.013622000,0.005438000,0.054066000,-0.011805640,0.016047870,-0.007761170,0.999771400,-0.023869000,0.031911000,-0.015906000,-0.001120922,-0.000223990,0.001367523,-0.088371810,0.127861530,-0.026065662,0.008873377,-0.006452545,1.002354892,-0.002768226,-0.002364611,-0.003359780,0.000000000,0.000000000,0.000000000,0.000000000,0.014008870,0.005559244,0.054011017,0.037204444,0.010278193,-0.000670949,0.010760119,0.001315433,0.001879641,-0.479786082,-0.096706255,-0.639526066,-0.004182131,0.000867268,-0.005577299,0.999974332,0.000000000,0.000000000,0.000000000,0.000000000,0.000000000,0.000000000,-0.203384429,0.000000000,3.969501495
1772689392.445174694,0.013629000,0.005439000,0.054070000,-0.012022370,0.016272710,-0.007868070,0.999764350,-0.024310000,0.032354000,-0.016133000,0.000063753,0.000737044,-0.000881800,-0.036803057,0.047351046,-0.016088906,0.009396401,-0.006375920,1.001093456,-0.000209040,-0.001372697,-0.003933162,0.000000000,0.000000000,0.000000000,0.000000000,0.014003219,0.005543633,0.054036467,0.037193849,0.010122084,-0.000431772,0.011175278,0.001929451,0.001294320,-0.480650374,-0.096717295,-0.639452530,-0.004189673,0.000867404,-0.005576650,0.999974277,0.000000000,0.000000000,0.000000000,0.000000000,0.000000000,0.000000000,-0.203384429,0.000000000,3.969501495
1772689392.455174208,0.013610000,0.005461000,0.054047000,-0.011998840,0.016086850,-0.007979570,0.999766760,-0.024264000,0.031980000,-0.016351000,0.001196252,0.001227993,-0.002600488,0.040662028,-0.067351105,0.003418552,0.011294383,-0.004745161,1.000181973,0.000668337,0.004750925,-0.000360155,0.000000000,0.000000000,0.000000000,0.000000000,0.013993227,0.005538876,0.054051759,0.037115546,0.010050580,-0.000185930,0.013251258,0.004175726,-0.000579050,-0.480107135,-0.097349576,-0.640264364,-0.004184895,0.000872925,-0.005583716,0.999974251,0.000000000,0.000000000,0.000000000,0.000000000,0.000000000,0.000000000,-0.203384429,0.000000000,3.969501495
1772689392.465173960,0.013626000,0.005449000,0.054052000,-0.012084150,0.016383160,-0.008065290,0.999760230,-0.024442000,0.032569000,-0.016532000,0.001744776,0.001345126,-0.003070166,0.105870859,-0.156502272,0.021550712,0.011092225,-0.004275265,1.001583344,-0.002421237,0.004859293,-0.001091990,0.000000000,0.000000000,0.000000000,0.000000000,0.013989213,0.005537964,0.054058009,0.037184324,0.010099145,-0.000137239,0.013178503,0.004095966,0.001376398,-0.479432267,-0.100198471,-0.640246160,-0.004178868,0.000897752,-0.005583458,0.999974251,0.000000000,0.000000000,0.000000000,0.000000000,0.000000000,0.000000000,-0.203384429,0.000000000,3.969501495
1772689392.475173950,0.013631000,0.005443000,0.054053000,-0.011944070,0.016181900,-0.008066310,0.999765180,-0.024158000,0.032169000,-0.016525000,0.001285685,0.001237414,-0.002450255,0.132142548,-0.187962492,0.031692066,0.010150030,-0.004060079,1.002073839,-0.001522302,0.001476226,-0.002103513,0.000000000,0.000000000,0.000000000,0.000000000,0.013989713,0.005539858,0.054061931,0.037399822,0.010264535,-0.000084118,0.011793873,0.004503843,0.001974607,-0.480484794,-0.103151405,-0.640154408,-0.004187910,0.000923568,-0.005582541,0.999974251,0.000000000,0.000000000,0.000000000,0.000000000,0.000000000,0.000000000,-0.203384429,0.000000000,3.969501495
1772689392.485173464,0.013694000,0.005498000,0.053936000,-0.010203420,0.013546180,-0.007526450,0.999827860,-0.020616000,0.026937000,-0.015333000,0.000552778,0.000635704,-0.001079877,0.109860930,-0.160105741,0.029943763,0.009249629,-0.004309026,1.001372737,0.002496561,-0.002369910,-0.002656060,0.000000000,0.000000000,0.000000000,0.000000000,0.013983284,0.005550887,0.054054314,0.037475829,0.010475076,0.000091782,0.010969693,0.004072184,0.001225225,-0.479790703,-0.102457012,-0.640132055,-0.004181886,0.000917474,-0.005582377,0.999974251,0.000000000,0.000000000,0.000000000,0.000000000,0.000000000,0.000000000,-0.203384429,0.000000000,3.969501495
1772689392.495173693,0.013697000,0.005525000,0.053902000,-0.009028460,0.011786010,-0.007116310,0.999864460,-0.018228000,0.023442000,-0.014448000,-0.000345416,-0.000263054,0.000674612,0.046900707,-0.074020895,0.013755332,0.009471353,-0.005216554,1.000313396,0.001865522,-0.001190898,-0.003934208,0.000000000,0.000000000,0.000000000,0.000000000,0.013987430,0.005551267,0.054053979,0.037505846,0.010627017,0.000222318,0.010849564,0.002627850,-0.000119902,-0.477684833,-0.100900970,-0.640244588,-0.004163584,0.000903797,-0.005583432,0.999974291,0.000000000,0.000000000,0.000000000,0.000000000,0.000000000,0.000000000,-0.203384429,0.000000000,3.969501495
1772689392.505172729,0.013635000,0.005465000,0.054036000,-0.009995450,0.013322220,-0.007516410,0.999833040,-0.020196000,0.026493000,-0.015303000,-0.001456956,-0.000795378,0.002042620,-0.033071531,0.038916582,-0.010840780,0.010060148,-0.005314623,1.000697750,-0.000440853,0.001504155,-0.001015854,0.000000000,0.000000000,0.000000000,0.000000000,0.014017988,0.005558134,0.054051098,0.037549520,0.010730962,0.000269281,0.012064470,0.003468226,0.001162104,-0.476089758,-0.101020891,-0.641346543,-0.004149650,0.000904806,-0.005593057,0.999974351,0.000000000,0.000000000,0.000000000,0.000000000,0.000000000,0.000000000,-0.203384429,0.000000000,3.969501495
1772689392.515171528,0.013621000,0.005459000,0.054046000,-0.010678880,0.014238860,-0.007686470,0.999812050,-0.021583000,0.028312000,-0.015681000,-0.001651109,-0.001478964,0.002972924,-0.104727139,0.148194839,-0.030516743,0.009221936,-0.004938518,1.000940824,0.000972451,0.000540219,-0.000241230,0.000000000,0.000000000,0.000000000,0.000000000,0.014378292,0.005679919,0.053992030,0.038651052,0.011102520,0.000140896,0.010414602,0.003382013,0.001179880,-0.474520690,-0.101245804,-0.641608236,-0.004135945,0.000906701,-0.005595345,0.999974330,0.000000000,0.000000000,0.000000000,0.000000000,0.000000000,0.000000000,-0.203384429,0.000000000,3.969501495
1772689392.525172472,0.013622000,0.005444000,0.054056000,-0.011257240,0.014866580,-0.007872740,0.999795120,-0.022756000,0.029554000,-0.016085000,-0.001157169,-0.001610219,0.002682345,-0.129499884,0.191624128,-0.038536905,0.008909321,-0.004615113,1.000097966,0.001105501,0.002186518,-0.001243268,0.000000000,0.000000000,0.000000000,0.000000000,0.014042093,0.005602610,0.053952905,0.037598964,0.010906145,-0.000029345,0.010685213,0.003747829,-0.000034702,-0.472887390,-0.101300638,-0.641021533,-0.004121694,0.000907079,-0.005590236,0.999974412,0.000000000,0.000000000,0.000000000,0.000000000,0.000000000,0.000000000,-0.203384429,0.000000000,3.969501495
1772689392.535171986,0.013620000,0.005438000,0.054060000,-0.011691900,0.015702410,-0.007969390,0.999776590,-0.023643000,0.031217000,-0.016311000,-0.000289006,-0.001079488,0.001314861,-0.106409004,0.161965136,-0.032021506,0.010457960,-0.005609005,0.999213257,-0.001236769,0.003272767,0.000048140,0.000000000,0.000000000,0.000000000,0.000000000,0.014019528,0.005586546,0.053996470,0.037391853,0.010887592,0.000163463,0.012113268,0.001936510,-0.000884246,-0.472368682,-0.102040809,-0.640686992,-0.004117135,0.000913501,-0.005587293,0.999974489,0.000000000,0.000000000,0.000000000,0.000000000,0.000000000,0.000000000,-0.203384429,0.000000000,3.969501495
1772689392.545172215,0.013616000,0.005447000,0.054061000,-0.011920630,0.016095470,-0.008059590,0.999766910,-0.024110000,0.031997000,-0.016508000,0.000919601,0.000356411,-0.001393513,-0.027297434,0.049014201,-0.007877587,0.011045339,-0.006435220,0.999654385,-0.000334369,0.000312811,-0.002108292,0.000000000,0.000000000,0.000000000,0.000000000,0.014001401,0.005574795,0.054023618,0.037311977,0.010870148,0.000228475,0.013134435,0.001559970,0.000110500,-0.472721556,-0.104186185,-0.640473056,-0.004120110,0.000932231,-0.005585347,0.999974489,0.000000000,0.000000000,0.000000000,0.000000000,0.000000000,0.000000000,-0.203384429,0.000000000,3.969501495
1772689392.555172443,0.013635000,0.005431000,0.054061000,-0.011962350,0.016238090,-0.008019710,0.999764430,-0.024194000,0.032282000,-0.016433000,0.001008295,0.000492755,-0.001688230,0.023555547,-0.017397530,0.006954123,0.010468007,-0.006129893,1.000883199,-0.000786752,0.002115458,-0.002199725,0.000000000,0.000000000,0.000000000,0.000000000,0.013993469,0.005562329,0.054040805,0.037435358,0.010744491,0.000217538,0.012511320,0.002486255,0.000781727,-0.471976285,-0.105340151,-0.641966967,-0.004113538,0.000942319,-0.005598348,0.999974469,0.000000000,0.000000000,0.000000000,0.000000000,0.000000000,0.000000000,-0.203384429,0.000000000,3.969501495
1772689392.565171957,0.013633000,0.005434000,0.054056000,-0.011934470,0.016295400,-0.008121280,0.999763010,-0.024143000,0.032395000,-0.016637000,0.000879002,0.000666842,-0.001812822,0.056480350,-0.067423498,0.017760648,0.010053825,-0.005599301,1.001718817,0.000113952,0.000451122,-0.002819091,0.000000000,0.000000000,0.000000000,0.000000000,0.013989145,0.005553097,0.054052256,0.037551149,0.010660188,0.000302570,0.011907813,0.002431339,0.001856701,-0.472189969,-0.107712795,-0.641411931,-0.004115292,0.000963014,-0.005593417,0.999974456,0.000000000,0.000000000,0.000000000,0.000000000,0.000000000,0.000000000,-0.203384429,0.000000000,3.969501495
1772689392.575171947,0.013627000,0.005439000,0.054048000,-0.012041990,0.016376590,-0.008115360,0.999760440,-0.024359000,0.032556000,-0.016631000,0.000310121,0.000558742,-0.001311384,0.064035749,-0.084388857,0.019657773,0.009686802,-0.004913358,1.001027631,0.000611636,0.000308724,-0.000746788,0.000000000,0.000000000,0.000000000,0.000000000,0.013986741,0.005551203,0.054058836,0.037621229,0.010639948,0.000456205,0.011817907,0.003454209,0.000605340,-0.471376733,-0.107720054,-0.640833312,-0.004108199,0.000963017,-0.005588374,0.999974533,0.000000000,0.000000000,0.000000000,0.000000000,0.000000000,0.000000000,-0.203384429,0.000000000,3.969501495
1772689392.585171700,0.013689000,0.005500000,0.053919000,-0.010341230,0.013947490,-0.007555140,0.999820710,-0.020899000,0.027737000,-0.015403000,-0.000513151,-0.000090696,0.000355692,0.025705361,-0.032403564,0.008012886,0.009842157,-0.004125266,1.000771316,0.002041222,0.001221249,0.000811661,0.000000000,0.000000000,0.000000000,0.000000000,0.013994528,0.005543245,0.054062222,0.037715793,0.010659566,0.000591476,0.011622075,0.004246776,0.001069009,-0.471454885,-0.108680077,-0.638932356,-0.004108851,0.000971330,-0.005571751,0.999974610,0.000000000,0.000000000,0.000000000,0.000000000,0.000000000,0.000000000,-0.203384429,0.000000000,3.969501495
1772689392.595171213,0.013636000,0.005439000,0.054031000,-0.010868400,0.014898690,-0.007693060,0.999800340,-0.021973000,0.029629000,-0.015714000,-0.000371251,0.000227215,0.000014763,0.013735255,-0.029300584,0.004484899,0.009904267,-0.003877347,0.999989663,0.001807773,0.000368324,0.000198447,0.000000000,0.000000000,0.000000000,0.000000000,0.013997078,0.005541700,0.054061268,0.037756293,0.010778579,0.000610674,0.012136874,0.003828270,-0.000468236,-0.470562373,-0.108909004,-0.636299354,-0.004101074,0.000973190,-0.005548774,0.999974687,0.000000000,0.000000000,0.000000000,0.000000000,0.000000000,0.000000000,-0.203384429,0.000000000,3.969501495
1772689392.605171680,0.013624000,0.005449000,0.054043000,-0.011175840,0.015168210,-0.007846900,0.999791700,-0.022597000,0.030159000,-0.016038000,-0.000004118,0.000306644,-0.000346174,0.010747085,-0.032129144,-0.001153817,0.009974521,-0.004204913,0.999680755,-0.000879585,0.003077016,0.000636855,0.000000000,0.000000000,0.000000000,0.000000000,0.014053148,0.005563134,0.054048726,0.037992025,0.010973589,0.000562262,0.012027389,0.003367999,0.000595499,-0.470572123,-0.110707847,-0.634333519,-0.004101089,0.000988818,-0.005531554,0.999974767,0.000000000,0.000000000,0.000000000,0.000000000,0.000000000,0.000000000,-0.203384429,0.000000000,3.969501495
1772689392.615170717,0.013615000,0.005448000,0.054042000,-0.011392070,0.015449320,-0.007933370,0.999784280,-0.023037000,0.030716000,-0.016224000,0.000256430,-0.000024223,-0.000266026,0.004426709,-0.022961089,-0.006126001,0.009471737,-0.004398560,0.999870351,-0.001541225,0.002988227,0.003122417,0.000000000,0.000000000,0.000000000,0.000000000,0.014382825,0.005679317,0.053993153,0.038994091,0.011430923,0.000246086,0.010950580,0.004093949,-0.000224482,-0.470370689,-0.112113704,-0.632489061,-0.004099279,0.001001010,-0.005515410,0.999974850,0.000000000,0.000000000,0.000000000,0.000000000,0.000000000,0.000000000,-0.203384429,0.000000000,3.969501495
1772689392.625171185,0.013635000,0.005440000,0.054046000,-0.011698400,0.015675160,-0.008037530,0.999776390,-0.023657000,0.031160000,-0.016447000,0.000368571,-0.000230925,-0.000064375,-0.002634458,-0.010776269,-0.007125603,0.008629592,-0.005395411,0.999624632,-0.000200627,0.001867634,0.003316803,0.000000000,0.000000000,0.000000000,0.000000000,0.014065311,0.005577277,0.054009234,0.038051040,0.011159272,0.000309844,0.010867888,0.002587424,-0.000139137,-0.469400551,-0.112604483,-0.630903792,-0.004090803,0.001005190,-0.005501567,0.999974936,0.000000000,0.000000000,0.000000000,0.000000000,0.000000000,0.000000000,-0.203384429,0.000000000,3.969501495
1772689392.635170698,0.013685000,0.005502000,0.053912000,-0.010226490,0.013332750,-0.007603230,0.999829910,-0.020661000,0.026509000,-0.015483000,0.000340424,-0.000487666,0.000280245,-0.004971590,0.002223837,-0.002354719,0.008575488,-0.006372689,0.998964144,0.000305162,0.002180081,-0.000652579,0.000000000,0.000000000,0.000000000,0.000000000,0.014006404,0.005560231,0.054026229,0.037825769,0.011152713,0.000355193,0.011129206,0.001722501,-0.001261609,-0.468391351,-0.113555146,-0.630486855,-0.004081954,0.001013422,-0.005497903,0.999975029,0.000000000,0.000000000,0.000000000,0.000000000,0.000000000,0.000000000,-0.203384429,0.000000000,3.969501495
1772689392.645170689,0.013648000,0.005453000,0.054007000,-0.010699240,0.014316380,-0.007880120,0.999809220,-0.021630000,0.028463000,-0.016071000,-0.000023213,-0.000552798,0.000637918,-0.005305468,0.013029692,0.004225350,0.009751615,-0.005219148,0.998918033,0.001379456,0.000985595,-0.003337427,0.000000000,0.000000000,0.000000000,0.000000000,0.013994772,0.005558556,0.054036377,0.037705547,0.011038488,0.000289263,0.011758535,0.002585776,-0.000532278,-0.467809704,-0.114339934,-0.630698850,-0.004076839,0.001020250,-0.005499731,0.999975085,0.000000000,0.000000000,0.000000000,0.000000000,0.000000000,0.000000000,-0.203384429,0.000000000,3.969501495
1772689392.655170679,0.013642000,0.005417000,0.054055000,-0.011223330,0.015105380,-0.007838960,0.999792190,-0.022691000,0.030033000,-0.016022000,-0.000266298,0.000028108,0.000375272,0.003600894,-0.001919586,0.008280750,0.011161875,-0.004435200,1.000409900,0.002424121,0.002448866,-0.002557110,0.000000000,0.000000000,0.000000000,0.000000000,0.013997295,0.005553192,0.054042433,0.037685759,0.010987808,0.000147941,0.013187033,0.003667467,0.000195833,-0.466736782,-0.116210599,-0.630586558,-0.004067387,0.001036519,-0.005498694,0.999975085,0.000000000,0.000000000,0.000000000,0.000000000,0.000000000,0.000000000,-0.203384429,0.000000000,3.969501495
1772689392.665170670,0.013624000,0.005430000,0.054068000,-0.011562390,0.015557090,-0.007955280,0.999780480,-0.023381000,0.030928000,-0.016275000,-0.000509810,0.000089938,0.000255187,0.005756948,-0.009180834,0.010079930,0.010218404,-0.003390172,1.000915551,-0.000834016,0.000025215,-0.000551961,0.000000000,0.000000000,0.000000000,0.000000000,0.014024035,0.005580471,0.053979033,0.037901015,0.011120720,-0.000135888,0.012038398,0.005385094,0.001406196,-0.466828543,-0.117455753,-0.630387359,-0.004068130,0.001047382,-0.005496911,0.999975085,0.000000000,0.000000000,0.000000000,0.000000000,0.000000000,0.000000000,-0.203384429,0.000000000,3.969501495
1772689392.675170422,0.013620000,0.005431000,0.054059000,-0.011676030,0.015733720,-0.007899330,0.999776840,-0.023609000,0.031281000,-0.016171000,-0.000299068,0.000133236,-0.000132595,0.002158030,-0.008193870,0.005857684,0.009244108,-0.004119021,1.000382196,0.000114562,0.000582209,0.000675293,0.000000000,0.000000000,0.000000000,0.000000000,0.014344511,0.005669509,0.053989041,0.038929815,0.011604609,0.000031070,0.011598288,0.003279493,0.000048431,-0.466850239,-0.117636926,-0.628868677,-0.004068325,0.001048910,-0.005483651,0.999975106,0.000000000,0.000000000,0.000000000,0.000000000,0.000000000,0.000000000,-0.203384429,0.000000000,3.969501495
1772689392.685170650,0.013673000,0.005503000,0.053926000,-0.010121700,0.013346150,-0.007437610,0.999832040,-0.020447000,0.026540000,-0.015149000,0.000172086,0.000527623,-0.001084500,0.014857029,-0.027292080,0.003810744,0.009929505,-0.006573405,0.998699666,0.000799703,0.002717365,-0.000777009,0.000000000,0.000000000,0.000000000,0.000000000,0.014126181,0.005587938,0.054014995,0.038301432,0.011434049,0.000162218,0.011838758,0.001624689,-0.001525094,-0.466407413,-0.117904407,-0.627609740,-0.004064459,0.001051179,-0.005472659,0.999975197,0.000000000,0.000000000,0.000000000,0.000000000,0.000000000,0.000000000,-0.203384429,0.000000000,3.969501495
1772689392.695169926,0.013636000,0.005456000,0.054015000,-0.010653290,0.014043250,-0.007683300,0.999815110,-0.021528000,0.027921000,-0.015670000,-0.000211966,-0.000262704,0.000263015,-0.014600861,0.028294565,-0.009003038,0.009527966,-0.006717236,0.998430212,-0.000591851,0.004327321,0.001628149,0.000000000,0.000000000,0.000000000,0.000000000,0.014217261,0.005607178,0.054037049,0.038583077,0.011322396,0.000099499,0.011479791,0.001560198,-0.001624753,-0.465945829,-0.118673336,-0.627174217,-0.004060398,0.001057851,-0.005468836,0.999975204,0.000000000,0.000000000,0.000000000,0.000000000,0.000000000,0.000000000,-0.203384429,0.000000000,3.969501495
1772689392.705169916,0.013625000,0.005422000,0.054046000,-0.011256200,0.015069070,-0.007816120,0.999792540,-0.022755000,0.029960000,-0.015976000,-0.000346795,-0.001064240,0.001611249,-0.050583931,0.087034968,-0.018492646,0.008420680,-0.005092425,0.999627672,-0.000656447,-0.000594934,0.001862074,0.000000000,0.000000000,0.000000000,0.000000000,0.014255529,0.005617663,0.054050016,0.038710004,0.011218852,0.000018877,0.010965352,0.002602625,-0.000323740,-0.465989706,-0.120154926,-0.626503038,-0.004060717,0.001070759,-0.005462926,0.999975240,0.000000000,0.000000000,0.000000000,0.000000000,0.000000000,0.000000000,-0.203384429,0.000000000,3.969501495
1772689392.715169907,0.013626000,0.005431000,0.054049000,-0.011694930,0.015890000,-0.008042100,0.999773000,-0.023654000,0.031590000,-0.016461000,-0.000819562,-0.001478848,0.002873332,-0.093963773,0.154443624,-0.032249711,0.009650235,-0.004561978,1.000769225,0.001649698,0.001583625,0.000688031,0.000000000,0.000000000,0.000000000,0.000000000,0.014093524,0.005577337,0.054037556,0.038236077,0.011143960,-0.000006773,0.012171543,0.003637440,0.000891980,-0.465967087,-0.119670290,-0.625881934,-0.004060548,0.001066507,-0.005457524,0.999975308,0.000000000,0.000000000,0.000000000,0.000000000,0.000000000,0.000000000,-0.203384429,0.000000000,3.969501495
1772689392.725169897,0.013626000,0.005430000,0.054065000,-0.011935380,0.016252220,-0.008090150,0.999763950,-0.024143000,0.032309000,-0.016574000,-0.000169212,-0.000228866,0.000888793,-0.059944412,0.105292907,-0.020559971,0.010042660,-0.005432340,1.001496923,0.000497329,0.002158123,-0.001142504,0.000000000,0.000000000,0.000000000,0.000000000,0.014287943,0.005655234,0.053990359,0.038797321,0.011403738,-0.000108341,0.012067529,0.002236190,0.001099638,-0.465417372,-0.120725555,-0.624164188,-0.004055717,0.001075628,-0.005442502,0.999975391,0.000000000,0.000000000,0.000000000,0.000000000,0.000000000,0.000000000,-0.203384429,0.000000000,3.969501495
1772689392.735169649,0.013623000,0.005425000,0.054064000,-0.012013160,0.016482480,-0.008056390,0.999759520,-0.024302000,0.032769000,-0.016515000,0.000815696,0.001270650,-0.001916202,0.020399091,-0.026438416,0.004569560,0.010342458,-0.006234725,0.999140346,0.000111481,0.006227301,0.000394573,0.000000000,0.000000000,0.000000000,0.000000000,0.014009231,0.005563949,0.054009149,0.037968081,0.011121566,0.000004483,0.012234581,0.001592879,-0.000812917,-0.464423681,-0.121245440,-0.622082927,-0.004047041,0.001080044,-0.005424330,0.999975474,0.000000000,0.000000000,0.000000000,0.000000000,0.000000000,0.000000000,-0.203384429,0.000000000,3.969501495
1772689392.745170116,0.013632000,0.005426000,0.054067000,-0.012041090,0.016432040,-0.008164650,0.999759140,-0.024360000,0.032665000,-0.016731000,0.000909733,0.001190094,-0.002033122,0.060451073,-0.097785946,0.017518529,0.009806288,-0.005261627,1.000181142,0.000755629,0.004761855,0.002751072,0.000000000,0.000000000,0.000000000,0.000000000,0.014001392,0.005546720,0.054032023,0.038025394,0.010920722,0.000092813,0.011452108,0.002894908,0.000027146,-0.462982207,-0.123926995,-0.620771605,-0.004034347,0.001103330,-0.005412806,0.999975554,0.000000000,0.000000000,0.000000000,0.000000000,0.000000000,0.000000000,-0.203384429,0.000000000,3.969501495
1772689392.755170345,0.013626000,0.005438000,0.054053000,-0.012054240,0.016503150,-0.008165770,0.999757800,-0.024388000,0.032807000,-0.016735000,0.000605498,0.000739103,-0.001656412,0.070599820,-0.119302142,0.022728102,0.008888644,-0.004599502,0.999094879,-0.000108349,-0.002045524,0.001019969,0.000000000,0.000000000,0.000000000,0.000000000,0.013998506,0.005540873,0.054049881,0.038073783,0.010871221,0.000142020,0.011826405,0.003228847,-0.001760097,-0.461879819,-0.123998968,-0.620641870,-0.004024725,0.001103902,-0.005411681,0.999975622,0.000000000,0.000000000,0.000000000,0.000000000,0.000000000,0.000000000,-0.203384429,0.000000000,3.969501495
1772689392.765170097,0.013677000,0.005510000,0.053920000,-0.010289100,0.013759640,-0.007608220,0.999823450,-0.020793000,0.027361000,-0.015503000,0.000033897,0.000429119,-0.000554740,0.050005079,-0.090218555,0.016205941,0.010341110,-0.005268482,0.998251781,-0.000145673,0.001138632,0.002748563,0.000000000,0.000000000,0.000000000,0.000000000,0.013996012,0.005536236,0.054058513,0.038032577,0.010967431,0.000081491,0.012720056,0.002700279,-0.001141376,-0.461440792,-0.123517273,-0.621054425,-0.004020913,0.001099692,-0.005415304,0.999975637,0.000000000,0.000000000,0.000000000,0.000000000,0.000000000,0.000000000,-0.203384429,0.000000000,3.969501495
1772689392.775169611,0.013644000,0.005446000,0.054018000,-0.010856690,0.014318260,-0.007732620,0.999808640,-0.021941000,0.028467000,-0.015780000,-0.000594523,-0.000253846,0.000860898,0.012519641,-0.029827021,0.004618652,0.010909769,-0.004523387,0.998976985,0.000472695,0.002406385,-0.000138289,0.000000000,0.000000000,0.000000000,0.000000000,0.013998907,0.005535004,0.054062089,0.038136193,0.010947460,-0.000050598,0.013183953,0.004148389,-0.000957944,-0.460868896,-0.123748306,-0.619663690,-0.004015925,0.001101632,-0.005403164,0.999975707,0.000000000,0.000000000,0.000000000,0.000000000,0.000000000,0.000000000,-0.203384429,0.000000000,3.969501495
1772689392.785169125,0.013639000,0.005439000,0.054043000,-0.011050920,0.014776510,-0.007788590,0.999799410,-0.022339000,0.029379000,-0.015908000,-0.000945358,-0.000786947,0.001576614,-0.027511421,0.040179372,-0.009308656,0.011379287,-0.004071293,0.999860766,0.001671897,0.001897337,-0.003311728,0.000000000,0.000000000,0.000000000,0.000000000,0.013998790,0.005539212,0.054058150,0.038260498,0.011017942,-0.000198219,0.013685124,0.003682642,-0.000153716,-0.459913423,-0.124341240,-0.619495594,-0.004007560,0.001106756,-0.005401686,0.999975798,0.000000000,0.000000000,0.000000000,0.000000000,0.000000000,0.000000000,-0.203384429,0.000000000,3.969501495
1772689392.795168877,0.013614000,0.005442000,0.054052000,-0.011387760,0.015223030,-0.007926060,0.999787860,-0.023025000,0.030264000,-0.016204000,-0.000850117,-0.000950836,0.001737006,-0.057357057,0.095090254,-0.021477025,0.011110295,-0.004243851,1.000606685,0.001914461,-0.000556223,0.000027055,0.000000000,0.000000000,0.000000000,0.000000000,0.014016309,0.005566649,0.054009255,0.038467560,0.011171914,-0.000455297,0.013666083,0.003383297,0.000489730,-0.458588937,-0.124858587,-0.620241540,-0.003995970,0.001111234,-0.005408190,0.999975746,0.000000000,0.000000000,0.000000000,0.000000000,0.000000000,0.000000000,-0.203384429,0.000000000,3.969501495
1772689392.805168390,0.013612000,0.005440000,0.054072000,-0.011723870,0.015792930,-0.008048920,0.999774150,-0.023711000,0.031395000,-0.016473000,-0.000374612,-0.000703653,0.001097243,-0.061393610,0.102927313,-0.021986182,0.010745281,-0.003654062,1.001120806,-0.001050992,0.002192406,0.002987776,0.000000000,0.000000000,0.000000000,0.000000000,0.014255272,0.005640329,0.053991301,0.039373440,0.011483314,-0.000421522,0.012595693,0.004553772,0.001133431,-0.457397938,-0.125232264,-0.619651311,-0.003985565,0.001114418,-0.005403037,0.999975791,0.000000000,0.000000000,0.000000000,0.000000000,0.000000000,0.000000000,-0.203384429,0.000000000,3.969501495
1772689392.815168619,0.013620000,0.005427000,0.054055000,-0.011786540,0.016032370,-0.008123350,0.999769000,-0.023842000,0.031871000,-0.016630000,0.000374981,-0.000434616,0.000384460,-0.045262521,0.069219529,-0.013832854,0.008483739,-0.002667974,1.001306072,-0.001323220,-0.000193209,0.001485807,0.000000000,0.000000000,0.000000000,0.000000000,0.014183884,0.005610032,0.054009808,0.039245768,0.011462206,-0.000258381,0.010976057,0.004675143,0.001253634,-0.457198618,-0.125569053,-0.617669361,-0.003983830,0.001117279,-0.005385732,0.999975898,0.000000000,0.000000000,0.000000000,0.000000000,0.000000000,0.000000000,-0.203384429,0.000000000,3.969501495
1772689392.825168371,0.013632000,0.005437000,0.054037000,-0.011844730,0.016097290,-0.008135140,0.999767170,-0.023960000,0.032000000,-0.016657000,0.000805071,0.000026554,-0.000492891,-0.015651575,0.010014462,-0.001915736,0.009099664,-0.004785013,1.000443411,0.000322130,0.001677189,-0.005448589,0.000000000,0.000000000,0.000000000,0.000000000,0.014010269,0.005557052,0.054029169,0.038642372,0.011433594,-0.000098820,0.011355553,0.003031963,0.001067234,-0.457488179,-0.125502980,-0.616422006,-0.003986372,0.001116672,-0.005374847,0.999975969,0.000000000,0.000000000,0.000000000,0.000000000,0.000000000,0.000000000,-0.203384429,0.000000000,3.969501495
1772689392.835167646,0.013636000,0.005430000,0.054056000,-0.011930650,0.016165150,-0.008080260,0.999765500,-0.024132000,0.032135000,-0.016552000,0.000890929,0.000728672,-0.001366377,0.025338853,-0.062545228,0.011896544,0.010803757,-0.005520638,1.000295092,0.003170542,0.004412027,-0.003730132,0.000000000,0.000000000,0.000000000,0.000000000,0.014230794,0.005623973,0.054047788,0.039291519,0.011666279,0.000085631,0.013421045,0.002865432,0.000174011,-0.457195594,-0.127080456,-0.615850031,-0.003983750,0.001130404,-0.005369804,0.999975979,0.000000000,0.000000000,0.000000000,0.000000000,0.000000000,0.000000000,-0.203384429,0.000000000,3.969501495
1772689392.845167637,0.013641000,0.005421000,0.054070000,-0.012018050,0.015948030,-0.008066890,0.999768050,-0.024302000,0.031700000,-0.016522000,0.000434655,0.000924399,-0.001373933,0.050038234,-0.104563074,0.021853437,0.012055494,-0.004851656,0.998988688,0.000411405,0.002675752,-0.000580494,0.000000000,0.000000000,0.000000000,0.000000000,0.014149284,0.005595450,0.054055758,0.039091032,0.011581539,0.000149149,0.013889578,0.002914015,-0.000876930,-0.456384105,-0.128868861,-0.615414168,-0.003976589,0.001145958,-0.005365946,0.999976030,0.000000000,0.000000000,0.000000000,0.000000000,0.000000000,0.000000000,-0.203384429,0.000000000,3.969501495
1772689392.855167150,0.013635000,0.005425000,0.054072000,-0.012152350,0.016086430,-0.008101070,0.999763930,-0.024575000,0.031974000,-0.016599000,-0.000348369,0.000364278,-0.000222727,0.033772048,-0.070314804,0.015635762,0.010350318,-0.004460315,1.000220111,0.000699865,0.001694414,0.001383492,0.000000000,0.000000000,0.000000000,0.000000000,0.013999382,0.005547348,0.054050469,0.038782365,0.011438345,0.000047794,0.012779431,0.002647402,-0.000204821,-0.456121784,-0.130180004,-0.615038772,-0.003974242,0.001157374,-0.005362627,0.999976039,0.000000000,0.000000000,0.000000000,0.000000000,0.000000000,0.000000000,-0.203384429,0.000000000,3.969501495
1772689392.865167618,0.013664000,0.005509000,0.053927000,-0.010449920,0.013494570,-0.007612070,0.999825360,-0.021111000,0.026829000,-0.015510000,-0.000032226,0.000411481,-0.001164764,0.045034370,-0.068252946,0.016121730,0.009811877,-0.005399993,0.999973981,-0.001214292,0.004380388,-0.003401758,0.000000000,0.000000000,0.000000000,0.000000000,0.014006046,0.005546156,0.054048865,0.038939901,0.011428954,-0.000012394,0.012180229,0.002420899,0.000124631,-0.455262954,-0.131482888,-0.615165632,-0.003966685,0.001168708,-0.005363698,0.999976088,0.000000000,0.000000000,0.000000000,0.000000000,0.000000000,0.000000000,-0.203384429,0.000000000,3.969501495
1772689392.875167847,0.013632000,0.005451000,0.054022000,-0.010920790,0.014116130,-0.007704720,0.999811040,-0.022065000,0.028062000,-0.015722000,0.000495844,0.000183780,-0.001337045,0.049182268,-0.055301069,0.015299313,0.010387135,-0.005688796,1.000824287,-0.001608554,0.004800209,0.002136605,0.000000000,0.000000000,0.000000000,0.000000000,0.014012291,0.005541182,0.054056498,0.038995798,0.011380358,0.000015816,0.012961405,0.001216391,0.000970482,-0.454843886,-0.133404318,-0.616232936,-0.003962927,0.001185492,-0.005372949,0.999976042,0.000000000,0.000000000,0.000000000,0.000000000,0.000000000,0.000000000,-0.203384429,0.000000000,3.969501495
1772689392.885168314,0.013630000,0.005426000,0.054052000,-0.011265330,0.014930040,-0.007741750,0.999795100,-0.022769000,0.029684000,-0.015824000,0.000567386,-0.000361617,-0.000244794,0.033498714,-0.018997994,0.010043903,0.011015419,-0.006657184,1.003114076,0.000633891,0.003479434,0.002972294,0.000000000,0.000000000,0.000000000,0.000000000,0.014367898,0.005637557,0.054068716,0.040221638,0.011326104,0.000394407,0.012351590,0.000817486,0.001586132,-0.454671845,-0.135640849,-0.614605878,-0.003961338,0.001204945,-0.005358675,0.999976069,0.000000000,0.000000000,0.000000000,0.000000000,0.000000000,0.000000000,-0.203384429,0.000000000,3.969501495
1772689392.895169497,0.013631000,0.005428000,0.054041000,-0.011533200,0.015519420,-0.007940220,0.999781520,-0.023321000,0.030854000,-0.016243000,0.000167968,-0.000644348,0.000860160,0.007412444,0.017869672,0.001259344,0.010864335,-0.005771803,1.001791994,0.001014982,0.001774255,0.001999218,0.000000000,0.000000000,0.000000000,0.000000000,0.014101269,0.005591782,0.054009530,0.039422996,0.011201429,0.000162905,0.012489291,0.001866231,0.000334611,-0.453895929,-0.136302921,-0.613032971,-0.003954552,0.001210632,-0.005344934,0.999976102,0.000000000,0.000000000,0.000000000,0.000000000,0.000000000,0.000000000,-0.203384429,0.000000000,3.969501495
1772689392.905169964,0.013695000,0.005481000,0.053925000,-0.010077440,0.013402890,-0.007461410,0.999831550,-0.020360000,0.026654000,-0.015196000,-0.000276710,-0.000484713,0.001274166,-0.017387608,0.044007173,-0.006160222,0.011065025,-0.005479060,1.000371981,0.001908898,0.000633290,0.000882702,0.000000000,0.000000000,0.000000000,0.000000000,0.014023863,0.005571599,0.054005834,0.039158276,0.011029806,0.000108059,0.013700407,0.001922263,-0.000518666,-0.452645071,-0.136093573,-0.612556560,-0.003943651,0.001208730,-0.005340797,0.999976157,0.000000000,0.000000000,0.000000000,0.000000000,0.000000000,0.000000000,-0.203384429,0.000000000,3.969501495
1772689392.915169954,0.013657000,0.005430000,0.054039000,-0.010709800,0.014465750,-0.007670490,0.999808580,-0.021648000,0.028766000,-0.015655000,-0.000906061,0.000077331,0.000971096,-0.031758441,0.054803198,-0.014087184,0.011980406,-0.006546305,0.998947305,0.003861730,0.000541219,-0.000674985,0.000000000,0.000000000,0.000000000,0.000000000,0.014017681,0.005555723,0.054026037,0.039206487,0.010915925,0.000185472,0.014134165,0.001765058,-0.000985600,-0.450578051,-0.136424003,-0.612453535,-0.003925599,0.001211514,-0.005339909,0.999976275,0.000000000,0.000000000,0.000000000,0.000000000,0.000000000,0.000000000,-0.203384429,0.000000000,3.969501495
1772689392.925170898,0.013623000,0.005435000,0.054064000,-0.011174320,0.015146160,-0.007822740,0.999792240,-0.022593000,0.030116000,-0.015989000,-0.000932266,0.000372261,0.000394153,-0.034981561,0.052516048,-0.014268113,0.010467760,-0.004932764,0.998669053,0.001080576,-0.001833990,-0.000895457,0.000000000,0.000000000,0.000000000,0.000000000,0.014015205,0.005543608,0.054036845,0.039408137,0.010733160,0.000141905,0.012754148,0.002427133,-0.001678755,-0.448231091,-0.136377517,-0.612046357,-0.003905126,0.001210985,-0.005336382,0.999976345,0.000000000,0.000000000,0.000000000,0.000000000,0.000000000,0.000000000,-0.203384429,0.000000000,3.969501495
1772689392.935171604,0.013611000,0.005445000,0.054049000,-0.011399230,0.015378400,-0.007894220,0.999785600,-0.023049000,0.030575000,-0.016144000,-0.000303516,0.000349923,-0.000419212,-0.020987384,0.026451464,-0.007920328,0.009624946,-0.004313251,0.998353473,-0.001820037,-0.000868346,0.000468949,0.000000000,0.000000000,0.000000000,0.000000000,0.014039196,0.005558516,0.053994801,0.039570240,0.010722878,-0.000167313,0.012176712,0.002952306,-0.001134576,-0.447172662,-0.135592380,-0.611041641,-0.003895937,0.001204050,-0.005327653,0.999976452,0.000000000,0.000000000,0.000000000,0.000000000,0.000000000,0.000000000,-0.203384429,0.000000000,3.969501495
1772689392.945172071,0.013622000,0.005439000,0.054046000,-0.011688460,0.015733280,-0.007984230,0.999776020,-0.023637000,0.031278000,-0.016341000,0.000294717,0.000287180,-0.000958509,0.001635349,-0.009765686,-0.001677434,0.009998256,-0.003304718,0.999082877,0.000020487,-0.001844344,0.001021346,0.000000000,0.000000000,0.000000000,0.000000000,0.014045576,0.005553950,0.053999720,0.039562036,0.010687428,-0.000288985,0.012330390,0.003898735,-0.001408916,-0.446426974,-0.134553982,-0.610186321,-0.003889487,0.001194925,-0.005320232,0.999976569,0.000000000,0.000000000,0.000000000,0.000000000,0.000000000,0.000000000,-0.203384429,0.000000000,3.969501495
1772689392.955171824,0.013618000,0.005446000,0.054036000,-0.011779090,0.016060640,-0.008125030,0.999768620,-0.023828000,0.031928000,-0.016634000,0.001147631,0.000373310,-0.001556140,0.040488064,-0.068585159,0.012772252,0.009514982,-0.003491352,0.998217271,0.001040976,-0.001942818,0.000465582,0.000000000,0.000000000,0.000000000,0.000000000,0.014347695,0.005633236,0.054027217,0.040418033,0.011132645,-0.000408450,0.011806116,0.004227356,-0.001098861,-0.444835331,-0.133423620,-0.608978033,-0.003875662,0.001184946,-0.005309743,0.999976643,0.000000000,0.000000000,0.000000000,0.000000000,0.000000000,0.000000000,-0.203384429,0.000000000,3.969501495
1772689392.965171814,0.013687000,0.005497000,0.053914000,-0.010193300,0.013599060,-0.007513990,0.999827340,-0.020596000,0.027044000,-0.015309000,0.000356119,-0.000570727,0.000589006,0.009297129,-0.031497478,0.004410203,0.009510267,-0.004752124,1.000440012,0.002367907,0.001117905,-0.005029643,0.000000000,0.000000000,0.000000000,0.000000000,0.014412279,0.005659031,0.054035925,0.040550376,0.011288405,-0.000399992,0.012200345,0.002819097,0.001035785,-0.442788372,-0.133023936,-0.608732257,-0.003857821,0.001181355,-0.005307632,0.999976763,0.000000000,0.000000000,0.000000000,0.000000000,0.000000000,0.000000000,-0.203384429,0.000000000,3.969501495
1772689392.975172043,0.013657000,0.005433000,0.054023000,-0.010703530,0.014064550,-0.007677740,0.999814320,-0.021629000,0.027963000,-0.015660000,0.000031080,-0.000055381,0.000346484,0.008400621,-0.032011418,0.006289287,0.010337484,-0.005396598,1.002042554,-0.000300676,0.002392756,-0.004107578,0.000000000,0.000000000,0.000000000,0.000000000,0.014407433,0.005659276,0.054038250,0.040545260,0.011259226,-0.000237225,0.012469787,0.001763397,0.001785799,-0.441719495,-0.133535895,-0.609234435,-0.003848464,0.001185790,-0.005312009,0.999976812,0.000000000,0.000000000,0.000000000,0.000000000,0.000000000,0.000000000,-0.203384429,0.000000000,3.969501495
1772689392.985172033,0.013627000,0.005430000,0.054064000,-0.011164970,0.014830010,-0.007821610,0.999797100,-0.022569000,0.029484000,-0.015979000,-0.000371076,0.000428031,-0.000194134,0.009747272,-0.032546872,0.005725194,0.009617345,-0.005852219,1.000496979,0.002624073,-0.004744358,-0.005615589,0.000000000,0.000000000,0.000000000,0.000000000,0.014403844,0.005660999,0.054036771,0.040536262,0.011202867,-0.000116469,0.012253357,0.002094694,0.000768068,-0.440968229,-0.133972818,-0.609279842,-0.003841887,0.001189570,-0.005312398,0.999976766,0.000000000,0.000000000,0.000000000,0.000000000,0.000000000,0.000000000,-0.203384429,0.000000000,3.969501495
1772689392.995171547,0.013628000,0.005439000,0.054049000,-0.011449170,0.015126260,-0.007879850,0.999788990,-0.023144000,0.030070000,-0.016111000,-0.000665599,0.000549243,-0.000127603,0.002034948,-0.012566091,0.000013521,0.008749118,-0.006115087,1.000103454,0.000261319,-0.002101699,-0.002971140,0.000000000,0.000000000,0.000000000,0.000000000,0.014431674,0.005684326,0.053979403,0.040587432,0.011144866,-0.000385008,0.011585021,0.001870526,-0.000265469,-0.439915293,-0.133293518,-0.608105722,-0.003832743,0.001183554,-0.005302186,0.999976880,0.000000000,0.000000000,0.000000000,0.000000000,0.000000000,0.000000000,-0.203384429,0.000000000,3.969501495
1772689393.005172014,0.013618000,0.005454000,0.054028000,-0.011586760,0.015079650,-0.007946870,0.999787580,-0.023421000,0.029973000,-0.016248000,-0.000899787,-0.000143998,0.000657732,-0.026286192,0.041740312,-0.010527280,0.008594870,-0.005776223,0.999889490,0.000387452,-0.002413369,-0.001393902,0.000000000,0.000000000,0.000000000,0.000000000,0.014437277,0.005668098,0.053992246,0.040446000,0.010913727,-0.000334741,0.011677655,0.001926689,-0.000151825,-0.440003134,-0.132975452,-0.607015882,-0.003833535,0.001180746,-0.005292685,0.999976933,0.000000000,0.000000000,0.000000000,0.000000000,0.000000000,0.000000000,-0.203384429,0.000000000,3.969501495
1772689393.015172720,0.013668000,0.005508000,0.053920000,-0.010045930,0.013173530,-0.007447640,0.999835020,-0.020293000,0.026196000,-0.015163000,0.000548816,0.000298135,-0.001036811,0.013863202,-0.008030804,0.002280309,0.009847948,-0.005154523,1.001213319,0.002084958,-0.001417622,-0.000834526,0.000000000,0.000000000,0.000000000,0.000000000,0.014419929,0.005653344,0.054029264,0.040306293,0.010791732,-0.000133313,0.012310743,0.001201147,0.001447685,-0.438562871,-0.131649257,-0.606848254,-0.003821030,0.001169101,-0.005291281,0.999976951,0.000000000,0.000000000,0.000000000,0.000000000,0.000000000,0.000000000,-0.203384429,0.000000000,3.969501495
1772689393.025172710,0.013624000,0.005455000,0.054016000,-0.010780380,0.014219940,-0.007770020,0.999810580,-0.021788000,0.028271000,-0.015851000,0.000834752,-0.000397728,-0.000211189,0.018056414,-0.016869973,0.002944267,0.010380784,-0.002682918,1.001595783,0.001199626,0.000832809,0.001885958,0.000000000,0.000000000,0.000000000,0.000000000,0.014409672,0.005653321,0.054037799,0.040307421,0.010866274,0.000127483,0.012768081,0.004865349,0.001499639,-0.437704216,-0.132338981,-0.605962718,-0.003813514,0.001175050,-0.005283540,0.999977057,0.000000000,0.000000000,0.000000000,0.000000000,0.000000000,0.000000000,-0.203384429,0.000000000,3.969501495
1772689393.035172701,0.013621000,0.005431000,0.054064000,-0.011329490,0.015098530,-0.007918160,0.999790470,-0.022906000,0.030016000,-0.016183000,0.000554585,-0.000599321,0.000535490,0.007902384,-0.004384782,0.001112217,0.009517811,-0.005071537,1.000496637,0.000406744,-0.000090832,0.001301622,0.000000000,0.000000000,0.000000000,0.000000000,0.014414219,0.005675728,0.054004409,0.040324931,0.011085096,0.000077416,0.012084408,0.002354988,0.000095194,-0.437110277,-0.133067750,-0.604487178,-0.003808313,0.001181333,-0.005270645,0.999977156,0.000000000,0.000000000,0.000000000,0.000000000,0.000000000,0.000000000,-0.203384429,0.000000000,3.969501495
1772689393.045173407,0.013637000,0.005405000,0.054068000,-0.011768620,0.015723120,-0.007984180,0.999775240,-0.023797000,0.031256000,-0.016344000,0.000302351,-0.000586306,0.000783800,-0.010380856,0.015801575,-0.004796920,0.009774022,-0.007553156,0.998440535,-0.000308676,0.005061038,0.000899749,0.000000000,0.000000000,0.000000000,0.000000000,0.014415798,0.005682940,0.053989792,0.040278141,0.010887616,-0.000113100,0.012105403,0.000168258,-0.000988038,-0.436777565,-0.135714877,-0.602767885,-0.003805305,0.001204361,-0.005255557,0.999977171,0.000000000,0.000000000,0.000000000,0.000000000,0.000000000,0.000000000,-0.203384429,0.000000000,3.969501495
1772689393.055174112,0.013694000,0.005487000,0.053939000,-0.010163530,0.013438200,-0.007588670,0.999829250,-0.020536000,0.026721000,-0.015454000,-0.000137704,-0.000260276,0.000448602,-0.025164252,0.039810490,-0.010885572,0.009897625,-0.006737672,1.000375340,0.001234430,0.001097917,-0.000987191,0.000000000,0.000000000,0.000000000,0.000000000,0.014404619,0.005658424,0.054030431,0.040250193,0.010472774,0.000056039,0.012098085,0.000716029,0.000356050,-0.436045335,-0.137435374,-0.602429151,-0.003798840,0.001219330,-0.005252552,0.999977231,0.000000000,0.000000000,0.000000000,0.000000000,0.000000000,0.000000000,-0.203384429,0.000000000,3.969501495
1772689393.065174103,0.013641000,0.005442000,0.054030000,-0.010925000,0.014370110,-0.007791610,0.999806700,-0.022081000,0.028568000,-0.015901000,-0.000131197,0.000179118,-0.000320552,-0.016045020,0.036919526,-0.005286410,0.010107487,-0.006405878,1.000765984,-0.000303914,0.000848623,0.001421659,0.000000000,0.000000000,0.000000000,0.000000000,0.014410733,0.005632277,0.054049804,0.040305927,0.010285449,0.000187675,0.012803994,0.000994442,0.001138588,-0.435573691,-0.137815239,-0.601367114,-0.003794718,0.001222588,-0.005243276,0.999977252,0.000000000,0.000000000,0.000000000,0.000000000,0.000000000,0.000000000,-0.203384429,0.000000000,3.969501495
1772689393.075173855,0.013630000,0.005440000,0.054040000,-0.011301150,0.015055060,-0.007904930,0.999791550,-0.022848000,0.029930000,-0.016155000,-0.000865890,-0.000358353,0.000874360,-0.045971376,0.075978249,-0.015169609,0.010143025,-0.007018334,1.000530004,0.000886144,-0.001344257,-0.002016935,0.000000000,0.000000000,0.000000000,0.000000000,0.014440317,0.005658032,0.053996020,0.040433550,0.010142115,0.000002658,0.012217111,-0.000033553,-0.000461068,-0.435340092,-0.138981157,-0.600069884,-0.003792640,0.001232709,-0.005231919,0.999977311,0.000000000,0.000000000,0.000000000,0.000000000,0.000000000,0.000000000,-0.203384429,0.000000000,3.969501495
1772689393.085174084,0.013631000,0.005428000,0.054050000,-0.011694960,0.015809290,-0.008108050,0.999773750,-0.023655000,0.031427000,-0.016591000,-0.001237861,-0.001128031,0.002335822,-0.086940929,0.127773908,-0.026512062,0.010079731,-0.005739475,1.000849155,0.001594415,-0.002357118,-0.001777244,0.000000000,0.000000000,0.000000000,0.000000000,0.014418450,0.005645085,0.054013486,0.040379982,0.010003371,0.000135033,0.012546439,0.002951988,0.001372114,-0.434007937,-0.137681163,-0.599342497,-0.003781083,0.001221280,-0.005225629,0.999977384,0.000000000,0.000000000,0.000000000,0.000000000,0.000000000,0.000000000,-0.203384429,0.000000000,3.969501495
1772689393.095173597,0.013622000,0.005427000,0.054049000,-0.011987010,0.016433660,-0.008146360,0.999759910,-0.024251000,0.032670000,-0.016692000,-0.000374418,-0.000289336,0.000636151,-0.054597070,0.076640846,-0.015455840,0.010769338,-0.004934158,1.000206583,0.001062439,-0.002951860,-0.000280068,0.000000000,0.000000000,0.000000000,0.000000000,0.014032430,0.005545063,0.054026842,0.039219287,0.009763745,0.000188869,0.013669637,0.002531104,0.000035540,-0.433754404,-0.137797134,-0.598701357,-0.003778872,0.001222259,-0.005220033,0.999977469,0.000000000,0.000000000,0.000000000,0.000000000,0.000000000,0.000000000,-0.203384429,0.000000000,3.969501495
1772689393.105173826,0.013628000,0.005423000,0.054060000,-0.012085690,0.016263200,-0.008079390,0.999762060,-0.024444000,0.032329000,-0.016557000,0.000741007,0.001121019,-0.001671544,0.024035762,-0.042292631,0.008502366,0.010378496,-0.005222390,0.999137902,0.000146911,-0.002515508,0.000857931,0.000000000,0.000000000,0.000000000,0.000000000,0.014016965,0.005533118,0.054040081,0.039264018,0.009776093,0.000350685,0.012817549,0.002431939,-0.001156623,-0.434150074,-0.136842706,-0.598174153,-0.003782374,0.001213931,-0.005215460,0.999977485,0.000000000,0.000000000,0.000000000,0.000000000,0.000000000,0.000000000,-0.203384429,0.000000000,3.969501495
