t,px,py,pz,qx,qy,qz,qw,roll,pitch,yaw,vx,vy,vz,wx_vicon,wy_vicon,wz_vicon,imu_acc_x,imu_acc_y,imu_acc_z,imu_gyro_x,imu_gyro_y,imu_gyro_z,motor_motor_m1,motor_motor_m2,motor_motor_m3,motor_motor_m4,est_stateEstimate_x,est_stateEstimate_y,est_stateEstimate_z,est_stateEstimate_vx,est_stateEstimate_vy,est_stateEstimate_vz,est_stateEstimate_ax,est_stateEstimate_ay,est_stateEstimate_az,att_stateEstimate_roll,att_stateEstimate_pitch,att_stateEstimate_yaw,att_stateEstimate_qx,att_stateEstimate_qy,att_stateEstimate_qz,att_stateEstimate_qw,sp_ctrltarget_x,sp_ctrltarget_y,sp_ctrltarget_z,sp_ctrltarget_yaw,pid_controller_roll,pid_controller_pitch,pid_controller_yaw,pid_controller_cmd_thrust,pwr_pm_vbat
1772688584.796688318,0.013828000,0.007739000,0.053898000,-0.002027740,0.006270490,0.019122170,0.999795440,-0.003815000,0.012616000,0.038223000,-0.000541861,-0.000907344,0.001531412,-0.007701382,-0.071568207,0.024493673,0.009186119,-0.003292149,1.001812999,0.000987015,0.001852373,-0.000701810,0.000000000,0.000000000,0.000000000,0.000000000,0.014111328,0.007752480,0.053890802,0.014909029,0.000753719,-0.000185562,0.003539308,0.000829411,0.001844246,-0.207206379,0.306972880,1.655673697,-0.001769315,-0.002704684,0.014443044,0.999889467,0.000000000,0.000000000,0.000000000,0.000000000,0.000000000,0.000000000,-0.035158355,0.000000000,3.995894432
1772688584.806687832,0.013830000,0.007731000,0.053895000,-0.002045940,0.006178550,0.019215570,0.999794180,-0.003854000,0.012433000,0.038410000,-0.000457712,0.000003846,0.000142832,-0.000794912,-0.011198234,0.008829259,0.009373767,-0.003398124,1.001837285,0.002071140,0.003442612,0.000123606,0.000000000,0.000000000,0.000000000,0.000000000,0.014111105,0.007752410,0.053892849,0.014913056,0.000764325,-0.000133944,0.003182570,0.000958146,0.001882193,-0.207432931,0.306651744,1.655370269,-0.001771340,-0.002701906,0.014440396,0.999889519,0.000000000,0.000000000,0.000000000,0.000000000,0.000000000,0.000000000,-0.035158355,0.000000000,3.995894432
1772688584.816688061,0.013819000,0.007737000,0.053907000,-0.002037920,0.006363220,0.019225900,0.999792840,-0.003831000,0.012803000,0.038431000,-0.000312607,0.000430420,-0.000509033,0.002436002,0.021002208,-0.001296484,0.009922537,-0.003559499,1.000642283,0.002135751,0.001696579,0.000815141,0.000000000,0.000000000,0.000000000,0.000000000,0.014110881,0.007752339,0.053894896,0.014917083,0.000774931,-0.000082323,0.004378568,0.000166646,0.000174620,-0.207536109,0.305279696,1.654558716,-0.001772432,-0.002689934,0.014433334,0.999889602,0.000000000,0.000000000,0.000000000,0.000000000,0.000000000,0.000000000,-0.035158355,0.000000000,3.995894432
1772688584.826687574,0.013816000,0.007747000,0.053894000,-0.001991080,0.006070260,0.019196130,0.999795330,-0.003749000,0.012215000,0.038373000,-0.000140812,0.000494056,-0.000613695,0.003024528,0.030894783,-0.006792992,0.010638419,-0.003645738,0.999386444,0.001937219,-0.002422785,0.000355630,0.000000000,0.000000000,0.000000000,0.000000000,0.014109712,0.007756392,0.053893612,0.015054706,0.000760240,-0.000133215,0.004823003,0.000197413,-0.000322134,-0.207329621,0.303948462,1.653423338,-0.001770824,-0.002678275,0.014423452,0.999889746,0.000000000,0.000000000,0.000000000,0.000000000,0.000000000,0.000000000,-0.035158355,0.000000000,3.995894432
1772688584.836688280,0.013816000,0.007740000,0.053895000,-0.002037850,0.006349730,0.019137710,0.999794620,-0.003832000,0.012775000,0.038254000,0.000023407,0.000316434,-0.000360665,0.002015980,0.024341955,-0.008559773,0.010938954,-0.003342938,1.001240177,0.003555227,-0.005267208,-0.003560818,0.000000000,0.000000000,0.000000000,0.000000000,0.014110302,0.007756433,0.053893196,0.015208115,0.000782469,-0.000102214,0.005244822,0.000246319,0.001011796,-0.206583595,0.303644171,1.652146996,-0.001764383,-0.002675506,0.014412338,0.999889954,0.000000000,0.000000000,0.000000000,0.000000000,0.000000000,0.000000000,-0.035158355,0.000000000,3.995894432
1772688584.846687555,0.013825000,0.007747000,0.053881000,-0.002062110,0.006578830,0.019160070,0.999792660,-0.003872000,0.013234000,0.038298000,0.000145785,0.000019231,0.000060548,0.000450070,0.007204409,-0.007508942,0.011116317,-0.003963745,1.001381469,0.000805556,0.002116789,-0.001192352,0.000000000,0.000000000,0.000000000,0.000000000,0.014117479,0.007759038,0.053887416,0.015515313,0.000756510,0.000053554,0.005837282,-0.000317393,0.001899690,-0.205018855,0.304176063,1.650034204,-0.001750712,-0.002679918,0.014393932,0.999890184,0.000000000,0.000000000,0.000000000,0.000000000,0.000000000,0.000000000,-0.035158355,0.000000000,3.995894432
1772688584.856687069,0.013818000,0.007748000,0.053889000,-0.001979800,0.006643200,0.019075200,0.999794020,-0.003706000,0.013360000,0.038129000,0.000149728,-0.000232848,0.000236111,0.000919657,-0.017003088,-0.003633504,0.009677038,-0.003488368,1.000474897,0.000333925,-0.000230600,0.001212841,0.000000000,0.000000000,0.000000000,0.000000000,0.014120896,0.007760995,0.053889553,0.015732907,0.000723613,0.000219516,0.005596678,0.000296948,0.001508426,-0.204784927,0.303821119,1.647988428,-0.001748763,-0.002676761,0.014376092,0.999890492,0.000000000,0.000000000,0.000000000,0.000000000,0.000000000,0.000000000,-0.035158355,0.000000000,3.995894432
1772688584.866687059,0.013825000,0.007741000,0.053897000,-0.001972640,0.006357520,0.019064630,0.999796090,-0.003702000,0.012788000,0.038109000,-0.000093318,-0.000205167,0.000378167,0.003897579,-0.030560817,0.000685636,0.008498801,-0.003179261,0.999047065,0.000786474,-0.001103552,0.000361162,0.000000000,0.000000000,0.000000000,0.000000000,0.014126946,0.007757820,0.053896109,0.015857012,0.000760083,0.000291116,0.003779025,0.000353701,-0.000382503,-0.203782532,0.303562085,1.646296549,-0.001740089,-0.002674349,0.014361357,0.999890708,0.000000000,0.000000000,0.000000000,0.000000000,0.000000000,0.000000000,-0.035158355,0.000000000,3.995894432
1772688584.876686811,0.013820000,0.007739000,0.053910000,-0.002021190,0.006247940,0.019101880,0.999795980,-0.003803000,0.012571000,0.038183000,-0.000157207,-0.000078730,0.000111053,0.006265010,-0.038037833,0.001634497,0.008870717,-0.003815856,0.999813487,-0.000409851,0.000437160,-0.001671441,0.000000000,0.000000000,0.000000000,0.000000000,0.014127704,0.007755357,0.053905830,0.015801963,0.000738940,0.000214082,0.003577924,-0.000745890,-0.001352322,-0.202559531,0.303722324,1.644141091,-0.001729447,-0.002675561,0.014342575,0.999891007,0.000000000,0.000000000,0.000000000,0.000000000,0.000000000,0.000000000,-0.035158355,0.000000000,3.995894432
1772688584.886687279,0.013821000,0.007735000,0.053897000,-0.001992640,0.005729790,0.019100190,0.999799170,-0.003766000,0.011534000,0.038182000,-0.000165171,0.000001768,-0.000159266,0.004445138,-0.025585965,0.000527855,0.010236559,-0.004329311,1.000151992,0.000035715,-0.000534953,-0.000956112,0.000000000,0.000000000,0.000000000,0.000000000,0.014127810,0.007752269,0.053902913,0.015822026,0.000647250,0.000147503,0.004382988,-0.000404254,-0.000197567,-0.202400472,0.304279602,1.641830045,-0.001728044,-0.002680369,0.014322404,0.999891278,0.000000000,0.000000000,0.000000000,0.000000000,0.000000000,0.000000000,-0.035158355,0.000000000,3.995894432
1772688584.896687031,0.013813000,0.007741000,0.053894000,-0.001880170,0.005780050,0.019152670,0.999798100,-0.003538000,0.011630000,0.038288000,0.000003788,0.000113462,-0.000579799,-0.000871879,-0.002016946,0.001008822,0.010773806,-0.004312328,0.999159025,-0.001206818,0.001505040,-0.001537143,0.000000000,0.000000000,0.000000000,0.000000000,0.014125064,0.007752891,0.053899147,0.015943553,0.000581252,0.000129892,0.005916022,-0.000635779,-0.000214137,-0.202161038,0.305298772,1.639865331,-0.001725873,-0.002689203,0.014305250,0.999891521,0.000000000,0.000000000,0.000000000,0.000000000,0.000000000,0.000000000,-0.035158355,0.000000000,3.995894432
1772688584.906687021,0.013814000,0.007746000,0.053888000,-0.001882550,0.006071930,0.019128770,0.999796820,-0.003532000,0.012214000,0.038239000,-0.000006702,0.000164064,-0.000598136,-0.005489943,0.018375089,-0.001062875,0.010436539,-0.003333745,0.998526455,-0.002747362,0.004554472,-0.001629893,0.000000000,0.000000000,0.000000000,0.000000000,0.014125626,0.007754755,0.053894789,0.016117136,0.000527772,0.000046295,0.005521783,-0.000049853,-0.001285266,-0.202560275,0.305022519,1.638477746,-0.001729424,-0.002686821,0.014293137,0.999891680,0.000000000,0.000000000,0.000000000,0.000000000,0.000000000,0.000000000,-0.035158355,0.000000000,3.995894432
1772688584.916686773,0.013823000,0.007744000,0.053882000,-0.001961010,0.006156170,0.019050490,0.999797650,-0.003687000,0.012385000,0.038081000,0.000048329,0.000192852,-0.000229585,-0.007721825,0.026225966,-0.002476075,0.010685048,-0.002626631,0.999173079,-0.000435659,0.000223424,-0.001328625,0.000000000,0.000000000,0.000000000,0.000000000,0.014131953,0.007754866,0.053887452,0.016270592,0.000574935,-0.000142185,0.005724715,0.001457435,-0.001027295,-0.204045087,0.303682791,1.636885721,-0.001742584,-0.002675292,0.014279231,0.999891875,0.000000000,0.000000000,0.000000000,0.000000000,0.000000000,0.000000000,-0.035158355,0.000000000,3.995894432
1772688584.926687479,0.013818000,0.007745000,0.053883000,-0.002050690,0.006167520,0.019076680,0.999796900,-0.003866000,0.012411000,0.038133000,0.000013190,0.000098155,0.000195105,-0.006900973,0.023917803,-0.001989428,0.010097247,-0.002645802,0.999837967,0.000274794,-0.002075278,-0.001002184,0.000000000,0.000000000,0.000000000,0.000000000,0.014134075,0.007756248,0.053883387,0.016449733,0.000724240,-0.000180817,0.005256484,0.001014378,-0.000465801,-0.205359459,0.303052014,1.635228236,-0.001754170,-0.002669926,0.014264748,0.999892098,0.000000000,0.000000000,0.000000000,0.000000000,0.000000000,0.000000000,-0.035158355,0.000000000,3.995894432
1772688584.936687708,0.013821000,0.007741000,0.053881000,-0.002126650,0.006329940,0.019122330,0.999794850,-0.004011000,0.012739000,0.038222000,-0.000197805,-0.000010315,0.000271096,0.001052704,0.002348122,0.000373796,0.009539242,-0.002849156,0.999111516,0.001267330,-0.000001564,-0.000718283,0.000000000,0.000000000,0.000000000,0.000000000,0.014137654,0.007755957,0.053880258,0.016520628,0.000770969,-0.000234422,0.004478247,0.000441875,-0.000783145,-0.205605831,0.303246645,1.633674318,-0.001756332,-0.002671631,0.014251181,0.999892267,0.000000000,0.000000000,0.000000000,0.000000000,0.000000000,0.000000000,-0.035158355,0.000000000,3.996190017
1772688584.946686745,0.013813000,0.007747000,0.053892000,-0.002063930,0.006292900,0.019082360,0.999795980,-0.003887000,0.012662000,0.038143000,-0.000225991,-0.000129157,0.000204118,0.007629115,-0.010724086,0.002523187,0.009020937,-0.003449949,0.999866154,-0.001819785,0.005410359,-0.002675028,0.000000000,0.000000000,0.000000000,0.000000000,0.014136214,0.007758975,0.053883229,0.016530249,0.000801249,-0.000289439,0.003803281,0.000651917,-0.000061075,-0.205016010,0.303238289,1.631445099,-0.001751238,-0.002671451,0.014231743,0.999892521,0.000000000,0.000000000,0.000000000,0.000000000,0.000000000,0.000000000,-0.035158355,0.000000000,3.996721008
1772688584.956685543,0.013814000,0.007749000,0.053900000,-0.001931720,0.006263240,0.019079890,0.999796480,-0.003624000,0.012598000,0.038140000,0.000045338,-0.000281411,0.000108275,0.008841029,-0.008583813,0.003296456,0.008983561,-0.003775484,1.000445952,-0.003106521,0.001222356,0.000071134,0.000000000,0.000000000,0.000000000,0.000000000,0.014135691,0.007761857,0.053889122,0.016484464,0.000842969,-0.000195689,0.003574058,0.000110531,0.000276356,-0.205047358,0.302174151,1.629221518,-0.001751696,-0.002662136,0.014212356,0.999892860,0.000000000,0.000000000,0.000000000,0.000000000,0.000000000,0.000000000,-0.035158355,0.000000000,3.997251986
1772688584.966685534,0.013814000,0.007738000,0.053891000,-0.001883970,0.006150700,0.019121930,0.999796460,-0.003532000,0.012371000,0.038225000,0.000292696,-0.000340929,0.000085781,0.004405854,-0.000082126,0.002541832,0.009733656,-0.003984510,0.999461093,-0.001750015,0.000996223,0.001648709,0.000000000,0.000000000,0.000000000,0.000000000,0.014135142,0.007757666,0.053888455,0.016456097,0.000741940,-0.000218452,0.004047719,-0.000187793,0.000230011,-0.206237314,0.300744755,1.627752542,-0.001762290,-0.002649788,0.014199535,0.999893095,0.000000000,0.000000000,0.000000000,0.000000000,0.000000000,0.000000000,-0.035158355,0.000000000,3.997783028
1772688584.976685047,0.013809000,0.007738000,0.053887000,-0.001841470,0.006019150,0.019158400,0.999796650,-0.003452000,0.012107000,0.038299000,0.000308003,-0.000273505,0.000213598,0.000450347,0.004940883,0.001367859,0.010701213,-0.001697897,1.000055696,0.000695414,-0.000819804,0.000483505,0.000000000,0.000000000,0.000000000,0.000000000,0.014132969,0.007754588,0.053885732,0.016507122,0.000769844,-0.000177711,0.005567896,0.001209948,0.000468581,-0.206379506,0.300709814,1.626962028,-0.001763554,-0.002649489,0.014192634,0.999893206,0.000000000,0.000000000,0.000000000,0.000000000,0.000000000,0.000000000,-0.035158355,0.000000000,3.998314044
1772688584.986685038,0.013831000,0.007730000,0.053888000,-0.002007840,0.006203800,0.019117510,0.999795980,-0.003778000,0.012482000,0.038215000,0.000175272,0.000015870,0.000190560,-0.002295747,0.014499008,-0.000280852,0.010781239,-0.000719171,0.999445141,0.002271410,-0.001198356,0.001265481,0.000000000,0.000000000,0.000000000,0.000000000,0.014141842,0.007751059,0.053885351,0.016691063,0.000922187,-0.000169024,0.005657196,0.002688815,-0.000299523,-0.206295687,0.301292737,1.626139811,-0.001762769,-0.002654552,0.014185451,0.999893254,0.000000000,0.000000000,0.000000000,0.000000000,0.000000000,0.000000000,-0.035158355,0.000000000,3.998845086
1772688584.996684790,0.013830000,0.007733000,0.053900000,-0.001992470,0.006479290,0.019152770,0.999793590,-0.003736000,0.013033000,0.038284000,-0.000172883,0.000413035,0.000195571,0.001467534,0.020111090,-0.001593959,0.010006124,-0.001321391,0.999606844,-0.003724033,0.003013046,0.003000001,0.000000000,0.000000000,0.000000000,0.000000000,0.014149228,0.007752250,0.053890700,0.016771589,0.001213776,-0.000211226,0.004868714,0.003063624,-0.000239270,-0.207493502,0.299762123,1.624448600,-0.001773450,-0.002641318,0.014170692,0.999893462,0.000000000,0.000000000,0.000000000,0.000000000,0.000000000,0.000000000,-0.035158355,0.000000000,3.999376115
1772688585.006685019,0.013817000,0.007743000,0.053905000,-0.001955910,0.006512850,0.019121480,0.999794040,-0.003662000,0.013098000,0.038222000,-0.000377059,0.000521251,0.000019503,0.009152676,0.023015210,-0.003043340,0.011301647,-0.003272142,0.999719039,-0.000453753,0.001246965,-0.001965268,0.000000000,0.000000000,0.000000000,0.000000000,0.014146877,0.007760226,0.053896325,0.016879847,0.001422920,-0.000165648,0.005629819,0.001790236,-0.000530235,-0.208400921,0.298689657,1.622394317,-0.001781547,-0.002632041,0.014152764,0.999893724,0.000000000,0.000000000,0.000000000,0.000000000,0.000000000,0.000000000,-0.035158355,0.000000000,3.999907169
1772688585.016684294,0.013813000,0.007747000,0.053903000,-0.001826510,0.006368620,0.019069040,0.999796220,-0.003410000,0.012805000,0.038119000,-0.000300738,0.000236442,-0.000321523,0.011530515,0.017486936,-0.003617947,0.010307949,-0.004055390,0.999453061,-0.000788769,0.004015883,-0.000996080,0.000000000,0.000000000,0.000000000,0.000000000,0.014144787,0.007768178,0.053898071,0.017048377,0.001477688,-0.000232399,0.005384978,0.000050788,-0.000700837,-0.208981479,0.298435393,1.620989544,-0.001786677,-0.002629872,0.014140497,0.999893963,0.000000000,0.000000000,0.000000000,0.000000000,0.000000000,0.000000000,-0.035158355,0.000000000,4.000438173
1772688585.026684761,0.013808000,0.007756000,0.053888000,-0.001820290,0.006585310,0.019095340,0.999794320,-0.003389000,0.013238000,0.038171000,-0.000050389,-0.000094542,-0.000487374,0.007190308,-0.002911923,0.000691404,0.009909158,-0.004156382,1.000223411,-0.001874994,0.001457870,-0.002851448,0.000000000,0.000000000,0.000000000,0.000000000,0.014142340,0.007775897,0.053890333,0.017088622,0.001395778,-0.000287217,0.004203139,-0.000400737,-0.000321516,-0.209881980,0.297542563,1.620232277,-0.001794662,-0.002622181,0.014133883,0.999894007,0.000000000,0.000000000,0.000000000,0.000000000,0.000000000,0.000000000,-0.035158355,0.000000000,4.000969240
1772688585.036684275,0.013810000,0.007747000,0.053886000,-0.001750050,0.006624640,0.019134870,0.999793430,-0.003246000,0.013314000,0.038251000,0.000421620,-0.000491920,-0.000237860,-0.003880128,-0.018853394,0.005899138,0.011133355,-0.003567317,1.001039087,0.001311507,-0.001343355,-0.002275668,0.000000000,0.000000000,0.000000000,0.000000000,0.014142397,0.007774645,0.053885112,0.017104282,0.001332503,-0.000280662,0.005265137,0.000486067,0.000656625,-0.210382375,0.296011861,1.617668953,-0.001799275,-0.002608845,0.014111530,0.999894274,0.000000000,0.000000000,0.000000000,0.000000000,0.000000000,0.000000000,-0.035158355,0.000000000,4.000730049
1772688585.046684265,0.013821000,0.007734000,0.053883000,-0.001788600,0.006581340,0.019084160,0.999794620,-0.003326000,0.013229000,0.038150000,0.000467600,-0.000530731,0.000281313,-0.011718832,-0.025140006,0.010512111,0.010282197,-0.004474253,1.000143184,-0.000644372,-0.001351747,0.002443184,0.000000000,0.000000000,0.000000000,0.000000000,0.014313077,0.007787890,0.053882903,0.017695001,0.001369388,-0.000166077,0.005338087,-0.000336182,0.000107016,-0.210076139,0.295788348,1.614928826,-0.001796693,-0.002606814,0.014087630,0.999894729,0.000000000,0.000000000,0.000000000,0.000000000,0.000000000,0.000000000,-0.035158355,0.000000000,4.000011195
1772688585.056684494,0.013832000,0.007729000,0.053890000,-0.001943610,0.006300670,0.019151400,0.999794850,-0.003645000,0.012674000,0.038283000,0.000275758,-0.000372902,0.000538132,-0.014551778,-0.031060568,0.009281121,0.009073742,-0.003679205,0.998788497,-0.000534718,0.001637524,0.001072186,0.000000000,0.000000000,0.000000000,0.000000000,0.014396346,0.007789923,0.053880973,0.016701139,0.001170072,-0.000193419,0.003406207,0.001639525,-0.000445053,-0.209721889,0.306879319,1.620525252,-0.001792102,-0.002703635,0.014136291,0.999894183,0.000000000,0.000000000,0.000000000,0.000000000,0.000000000,0.000000000,-0.035158355,0.000000000,3.999292325
1772688585.066684484,0.013828000,0.007732000,0.053900000,-0.002013540,0.005892920,0.019319520,0.999793970,-0.003799000,0.011861000,0.038620000,0.000005206,0.000112588,0.000456236,-0.010307923,-0.021078632,0.004360972,0.011330468,-0.003803186,0.998930722,0.002194874,0.000231060,-0.002546599,0.000000000,0.000000000,0.000000000,0.000000000,0.013989295,0.007751672,0.053900930,0.013839631,0.001133836,-0.000132429,0.004794077,0.000193452,-0.000596957,-0.209296894,0.314372952,1.624313765,-0.001787381,-0.002769029,0.014169238,0.999893118,0.000000000,0.000000000,0.000000000,0.000000000,0.000000000,0.000000000,-0.035158355,0.000000000,3.998573471
1772688585.076684713,0.013822000,0.007734000,0.053911000,-0.002026410,0.006003080,0.019300620,0.999793650,-0.003821000,0.012082000,0.038581000,-0.000287665,0.000549670,0.000026981,-0.002665816,-0.002142300,-0.000873527,0.012182453,-0.003733181,0.999344986,0.000908886,0.003467503,0.000819464,0.000000000,0.000000000,0.000000000,0.000000000,0.014054399,0.007763688,0.053890867,0.014576636,0.001102692,-0.000253647,0.007414162,0.000223729,-0.000695344,-0.207562001,0.313679620,1.621910922,-0.001772386,-0.002762728,0.014148325,0.999893452,0.000000000,0.000000000,0.000000000,0.000000000,0.000000000,0.000000000,-0.035158355,0.000000000,3.997854600
1772688585.086684704,0.013815000,0.007744000,0.053904000,-0.002009830,0.006142700,0.019229590,0.999794200,-0.003783000,0.012360000,0.038439000,-0.000430206,0.000628653,-0.000314336,0.005177019,0.011958712,-0.005108259,0.010480641,-0.001328101,1.000639846,-0.003396209,0.005004424,-0.001296337,0.000000000,0.000000000,0.000000000,0.000000000,0.014083580,0.007770089,0.053884860,0.015068873,0.001210566,-0.000263029,0.004782148,0.001928042,0.000535232,-0.206497010,0.312004090,1.620877634,-0.001763325,-0.002747960,0.014139360,0.999893692,0.000000000,0.000000000,0.000000000,0.000000000,0.000000000,0.000000000,-0.035158355,0.000000000,3.997135746
1772688585.096684456,0.013819000,0.007744000,0.053889000,-0.001956630,0.006161910,0.019149360,0.999795730,-0.003677000,0.012397000,0.038279000,-0.000268668,0.000343726,-0.000545086,0.006771547,0.020447971,-0.007251621,0.009076709,-0.003545125,0.999792466,0.001283047,0.000583538,0.001505636,0.000000000,0.000000000,0.000000000,0.000000000,0.014100366,0.007769763,0.053883744,0.015285601,0.001339658,-0.000225567,0.004451182,0.000792443,-0.000110396,-0.206251648,0.310171846,1.619864636,-0.001761435,-0.002731927,0.014130557,0.999893836,0.000000000,0.000000000,0.000000000,0.000000000,0.000000000,0.000000000,-0.035158355,0.000000000,3.996416909
1772688585.106684685,0.013815000,0.007759000,0.053886000,-0.001912620,0.006490800,0.019139190,0.999793930,-0.003576000,0.013053000,0.038258000,0.000120668,-0.000046873,-0.000461558,0.002475597,0.014250426,-0.004347117,0.010506106,-0.003967726,0.999903102,-0.000442984,0.004931338,0.002520057,0.000000000,0.000000000,0.000000000,0.000000000,0.014113040,0.007766041,0.053884741,0.015453148,0.001288227,-0.000220171,0.004421962,-0.000602327,-0.000036842,-0.206153924,0.309318721,1.617654873,-0.001760740,-0.002724437,0.014111289,0.999894141,0.000000000,0.000000000,0.000000000,0.000000000,0.000000000,0.000000000,-0.035158355,0.000000000,3.995894432
1772688585.116683483,0.013815000,0.007747000,0.053884000,-0.001888860,0.006250850,0.019145810,0.999795380,-0.003538000,0.012572000,0.038273000,0.000227040,-0.000276865,-0.000074573,-0.000700459,0.000846200,0.002005207,0.011149613,-0.003376250,0.999468055,0.001701356,-0.000109294,-0.000660642,0.000000000,0.000000000,0.000000000,0.000000000,0.014122500,0.007763612,0.053887106,0.015626694,0.001221992,-0.000194538,0.005210930,-0.000314121,-0.000482887,-0.206526904,0.308933722,1.615586531,-0.001764091,-0.002721091,0.014093238,0.999894326,0.000000000,0.000000000,0.000000000,0.000000000,0.000000000,0.000000000,-0.035158355,0.000000000,3.995894432
1772688585.126683950,0.013817000,0.007743000,0.053889000,-0.001968840,0.006260570,0.019184680,0.999794420,-0.003697000,0.012594000,0.038349000,0.000254507,-0.000320591,0.000210529,-0.004350520,0.001828658,0.003335790,0.009776212,-0.003721564,0.998691818,0.001023563,0.000189755,-0.001342025,0.000000000,0.000000000,0.000000000,0.000000000,0.014124881,0.007765221,0.053889508,0.015831093,0.001193074,-0.000274544,0.005086659,0.000043531,-0.001153469,-0.205997640,0.307700354,1.613579328,-0.001759672,-0.002710233,0.014075758,0.999894683,0.000000000,0.000000000,0.000000000,0.000000000,0.000000000,0.000000000,-0.035158355,0.000000000,3.995894432
1772688585.136683941,0.013825000,0.007735000,0.053890000,-0.002013210,0.006347590,0.019214860,0.999793200,-0.003782000,0.012770000,0.038409000,0.000139472,-0.000201476,0.000252331,-0.002886936,0.000366013,0.000557811,0.009737422,-0.004446317,1.000870545,-0.001506861,-0.001624812,0.001961503,0.000000000,0.000000000,0.000000000,0.000000000,0.014127111,0.007767198,0.053885189,0.015890785,0.001151854,-0.000335125,0.003891342,0.000097236,0.000432302,-0.205711638,0.307577964,1.611918233,-0.001757231,-0.002709105,0.014061272,0.999894918,0.000000000,0.000000000,0.000000000,0.000000000,0.000000000,0.000000000,-0.035158355,0.000000000,3.995894432
1772688585.146683931,0.013829000,0.007737000,0.053894000,-0.001994450,0.006274190,0.019187550,0.999794230,-0.003748000,0.012623000,0.038355000,-0.000028555,-0.000027817,0.000037102,-0.000169345,0.001512743,-0.004382659,0.008474771,-0.003128466,1.001288146,-0.001065277,0.000225454,0.002135465,0.000000000,0.000000000,0.000000000,0.000000000,0.014126027,0.007767469,0.053883553,0.015921094,0.001130281,-0.000191656,0.003403907,0.000082896,0.001855318,-0.206040368,0.308004886,1.611202354,-0.001760064,-0.002712860,0.014055011,0.999894984,0.000000000,0.000000000,0.000000000,0.000000000,0.000000000,0.000000000,-0.035158355,0.000000000,3.995894432
1772688585.156683683,0.013817000,0.007745000,0.053896000,-0.001952440,0.006344840,0.019167800,0.999794240,-0.003661000,0.012762000,0.038315000,-0.000182187,0.000327351,-0.000145183,0.001616969,0.004683610,-0.005920890,0.010065591,-0.004419140,0.999356780,-0.001778546,-0.002649156,-0.002152877,0.000000000,0.000000000,0.000000000,0.000000000,0.014123821,0.007768925,0.053882268,0.015857968,0.001112329,-0.000043340,0.003711655,-0.000610584,-0.000074331,-0.205447632,0.308980085,1.609828020,-0.001754805,-0.002721275,0.014043018,0.999895081,0.000000000,0.000000000,0.000000000,0.000000000,0.000000000,0.000000000,-0.035158355,0.000000000,3.995894432
1772688585.166683435,0.013821000,0.007747000,0.053885000,-0.002003710,0.006473420,0.019097260,0.999794670,-0.003760000,0.013021000,0.038173000,-0.000255342,0.000333489,-0.000235723,0.000839519,-0.003209508,-0.006835676,0.010287002,-0.004424834,0.998945776,-0.000237355,0.000317656,-0.001154172,0.000000000,0.000000000,0.000000000,0.000000000,0.014126071,0.007770857,0.053883173,0.015994303,0.000987360,-0.000172760,0.005714275,-0.001473908,-0.000937727,-0.204925986,0.308246230,1.607501735,-0.001750398,-0.002714772,0.014022743,0.999895394,0.000000000,0.000000000,0.000000000,0.000000000,0.000000000,0.000000000,-0.035158355,0.000000000,3.995894432
1772688585.176682711,0.013814000,0.007745000,0.053888000,-0.001898460,0.006233580,0.019064670,0.999797020,-0.003559000,0.012537000,0.038110000,-0.000265404,0.000301613,-0.000144950,-0.003329594,-0.009516541,-0.004025949,0.009927491,-0.004306034,0.999441494,-0.000023861,0.002290659,-0.002070335,0.000000000,0.000000000,0.000000000,0.000000000,0.014126549,0.007766569,0.053884806,0.016152783,0.000841079,-0.000209727,0.004477101,-0.000726545,0.000140190,-0.204441056,0.308363644,1.605863327,-0.001746191,-0.002715712,0.014008456,0.999895580,0.000000000,0.000000000,0.000000000,0.000000000,0.000000000,0.000000000,-0.035158355,0.000000000,3.995894432
1772688585.186683178,0.013812000,0.007749000,0.053883000,-0.001998280,0.006326410,0.019062580,0.999796280,-0.003755000,0.012727000,0.038104000,-0.000159654,-0.000061461,-0.000015171,-0.004988448,-0.011558858,-0.000208446,0.009826262,-0.004288913,0.998749195,0.001268808,0.004387691,-0.003848767,0.000000000,0.000000000,0.000000000,0.000000000,0.014126559,0.007765901,0.053885086,0.016156750,0.000829727,-0.000209034,0.003709475,-0.000286702,0.000366903,-0.204113691,0.309019486,1.604934655,-0.001743276,-0.002721381,0.014000350,0.999895606,0.000000000,0.000000000,0.000000000,0.000000000,0.000000000,0.000000000,-0.035158355,0.000000000,3.995894432
1772688585.196682692,0.013818000,0.007752000,0.053886000,-0.002036730,0.006195610,0.019113510,0.999796050,-0.003836000,0.012467000,0.038206000,0.000015346,-0.000349515,0.000131935,-0.002087167,-0.009800719,0.000476541,0.009544788,-0.004176581,0.998911748,0.000953440,0.003910710,-0.003559042,0.000000000,0.000000000,0.000000000,0.000000000,0.014126570,0.007765234,0.053885365,0.016160716,0.000818375,-0.000208342,0.003731556,-0.000262729,0.000074857,-0.204039871,0.309025939,1.604623866,-0.001742639,-0.002721424,0.013997640,0.999895632,0.000000000,0.000000000,0.000000000,0.000000000,0.000000000,0.000000000,-0.035158355,0.000000000,3.995894432
1772688585.206682444,0.013814000,0.007745000,0.053890000,-0.002054260,0.006155400,0.019059680,0.999797290,-0.003873000,0.012387000,0.038098000,0.000062510,-0.000428613,0.000161053,0.000699528,-0.000856891,0.001017038,0.009263307,-0.004064247,0.999074304,0.000638065,0.003433718,-0.003269310,0.000000000,0.000000000,0.000000000,0.000000000,0.014126580,0.007764567,0.053885644,0.016164683,0.000807024,-0.000207650,0.003753637,-0.000238755,-0.000217195,-0.203966049,0.309032392,1.604313069,-0.001742001,-0.002721466,0.013994930,0.999895658,0.000000000,0.000000000,0.000000000,0.000000000,0.000000000,0.000000000,-0.035158355,0.000000000,3.995894432
1772688585.216682434,0.013812000,0.007742000,0.053892000,-0.002040920,0.006131170,0.019118590,0.999796340,-0.003847000,0.012338000,0.038217000,0.000279080,-0.000444387,-0.000048407,-0.000229639,0.010974571,-0.002330481,0.008981819,-0.003951911,0.999236864,0.000322683,0.002956714,-0.002979572,0.000000000,0.000000000,0.000000000,0.000000000,0.014126590,0.007763900,0.053885924,0.016168649,0.000795672,-0.000206958,0.003775719,-0.000214781,-0.000509255,-0.203892226,0.309038846,1.604002265,-0.001741364,-0.002721509,0.013992219,0.999895684,0.000000000,0.000000000,0.000000000,0.000000000,0.000000000,0.000000000,-0.035158355,0.000000000,3.995894432
1772688585.226682901,0.013816000,0.007726000,0.053890000,-0.001965820,0.006265020,0.019080360,0.999796390,-0.003692000,0.012603000,0.038141000,0.000250156,-0.000317522,0.000068532,-0.000506241,0.014343386,-0.003344182,0.008700318,-0.003839569,0.999399432,0.000007285,0.002479688,-0.002689819,0.000000000,0.000000000,0.000000000,0.000000000,0.014126601,0.007763233,0.053886203,0.016172616,0.000784320,-0.000206265,0.003797802,-0.000190806,-0.000801329,-0.203818399,0.309045300,1.603691446,-0.001740726,-0.002721551,0.013989509,0.999895710,0.000000000,0.000000000,0.000000000,0.000000000,0.000000000,0.000000000,-0.035158355,0.000000000,3.995894432
1772688585.236682653,0.013823000,0.007733000,0.053888000,-0.001954110,0.006388760,0.019020920,0.999796760,-0.003665000,0.012850000,0.038021000,0.000017366,0.000201457,0.000076904,-0.001832717,0.017696473,-0.001935458,0.008418837,-0.003727235,0.999561988,-0.000308090,0.002002696,-0.002400087,0.000000000,0.000000000,0.000000000,0.000000000,0.014126611,0.007762566,0.053886483,0.016176582,0.000772968,-0.000205573,0.003819884,-0.000166832,-0.001093382,-0.203744577,0.309051753,1.603380650,-0.001740088,-0.002721594,0.013986799,0.999895736,0.000000000,0.000000000,0.000000000,0.000000000,0.000000000,0.000000000,-0.035158355,0.000000000,3.995894432
1772688585.246682644,0.013822000,0.007739000,0.053886000,-0.002060270,0.006451300,0.019057480,0.999795450,-0.003874000,0.012979000,0.038093000,-0.000092483,0.000547844,-0.000003943,-0.001573619,0.012126234,-0.001376847,0.008137349,-0.003614898,0.999724549,-0.000623472,0.001525692,-0.002110349,0.000000000,0.000000000,0.000000000,0.000000000,0.014126816,0.007760903,0.053886655,0.016176898,0.000757108,-0.000213891,0.003841966,-0.000142858,-0.001385442,-0.203670753,0.309058206,1.603069846,-0.001739451,-0.002721636,0.013984089,0.999895833,0.000000000,0.000000000,0.000000000,0.000000000,0.000000000,0.000000000,-0.035158355,0.000000000,3.995894432
1772688585.256682396,0.013824000,0.007741000,0.053887000,-0.002118210,0.006504020,0.018999030,0.999796100,-0.003989000,0.013086000,0.037975000,-0.000293473,0.000636830,-0.000126904,-0.000097405,0.002128541,0.000267894,0.008011384,-0.003416798,0.999905013,-0.001017698,0.000978378,-0.001702521,0.000000000,0.000000000,0.000000000,0.000000000,0.014128090,0.007753747,0.053886235,0.016157091,0.000716394,-0.000271873,0.003569575,0.000512985,-0.000851029,-0.203590421,0.309117767,1.602393149,-0.001738759,-0.002722136,0.013978185,0.999896032,0.000000000,0.000000000,0.000000000,0.000000000,0.000000000,0.000000000,-0.035158355,0.000000000,3.995894432
1772688585.266682625,0.013811000,0.007751000,0.053901000,-0.002064280,0.006451290,0.019090770,0.999794810,-0.003882000,0.012979000,0.038160000,-0.000221737,0.000435121,-0.000235043,0.002065964,-0.004731449,0.002949749,0.009872768,-0.002122661,1.000314333,-0.002419590,-0.000467627,0.000214496,0.000000000,0.000000000,0.000000000,0.000000000,0.014130809,0.007750123,0.053885204,0.016149216,0.000763658,-0.000273612,0.003201325,0.001763306,0.000566577,-0.203492740,0.309318797,1.600741727,-0.001737921,-0.002723853,0.013963773,0.999896212,0.000000000,0.000000000,0.000000000,0.000000000,0.000000000,0.000000000,-0.035158355,0.000000000,3.995894432
1772688585.276682854,0.013805000,0.007763000,0.053885000,-0.001963350,0.006424140,0.019078250,0.999795430,-0.003681000,0.012921000,0.038136000,0.000019289,0.000039200,-0.000309421,0.002292587,-0.007471490,0.003326369,0.011389202,-0.002584034,1.000884250,-0.003393657,-0.002338058,0.002580649,0.000000000,0.000000000,0.000000000,0.000000000,0.014134258,0.007750435,0.053883971,0.016223892,0.000866040,-0.000211872,0.006102216,0.001303856,0.001189478,-0.203768788,0.310195889,1.599845503,-0.001740244,-0.002731527,0.013955933,0.999896348,0.000000000,0.000000000,0.000000000,0.000000000,0.000000000,0.000000000,-0.035158355,0.000000000,3.996375234
1772688585.286682367,0.013817000,0.007747000,0.053876000,-0.001979760,0.006369290,0.019028110,0.999796700,-0.003717000,0.012812000,0.038036000,0.000292560,-0.000350525,-0.000237762,0.000654542,-0.006746952,0.001769854,0.010936321,-0.003847594,1.000414825,-0.004372401,-0.002545342,-0.001519298,0.000000000,0.000000000,0.000000000,0.000000000,0.014137617,0.007753847,0.053883605,0.016465494,0.000926028,-0.000104213,0.005940486,0.000729908,0.000288941,-0.204642615,0.309927623,1.599452320,-0.001747911,-0.002729286,0.013952485,0.999896407,0.000000000,0.000000000,0.000000000,0.000000000,0.000000000,0.000000000,-0.035158355,0.000000000,3.996895374
1772688585.296682358,0.013817000,0.007747000,0.053878000,-0.001997580,0.006313390,0.019126270,0.999795150,-0.003753000,0.012701000,0.038232000,0.000437821,-0.000433839,0.000097009,-0.002642707,-0.000817838,0.000917177,0.009591877,-0.004928679,0.999316055,-0.002105001,0.001881976,-0.001367115,0.000000000,0.000000000,0.000000000,0.000000000,0.014139793,0.007758479,0.053887409,0.016624806,0.000889320,-0.000076643,0.005107824,0.000130841,-0.000945389,-0.205516021,0.310964570,1.597324534,-0.001755457,-0.002738408,0.013933881,0.999896551,0.000000000,0.000000000,0.000000000,0.000000000,0.000000000,0.000000000,-0.035158355,0.000000000,3.997415538
1772688585.306682348,0.013830000,0.007740000,0.053883000,-0.002044280,0.006395710,0.019080870,0.999795400,-0.003844000,0.012867000,0.038140000,0.000353516,-0.000240715,0.000496640,-0.002550329,-0.005551378,-0.001274849,0.008331065,-0.005108718,0.999835379,-0.004039206,0.001526653,-0.002451386,0.000000000,0.000000000,0.000000000,0.000000000,0.014136037,0.007764905,0.053890795,0.016633537,0.000810605,-0.000132282,0.003447641,-0.002183853,-0.000854941,-0.206471795,0.310341751,1.595487683,-0.001763916,-0.002733061,0.013917840,0.999896784,0.000000000,0.000000000,0.000000000,0.000000000,0.000000000,0.000000000,-0.035158355,0.000000000,3.997935703
1772688585.316683292,0.013826000,0.007741000,0.053889000,-0.002093720,0.006311240,0.019082100,0.999795810,-0.003946000,0.012700000,0.038142000,0.000054837,0.000023349,0.000708198,0.004613810,-0.009327862,-0.003493122,0.010120465,-0.004430332,1.000539735,-0.001769661,0.004655682,0.001327068,0.000000000,0.000000000,0.000000000,0.000000000,0.014134073,0.007768327,0.053884144,0.016559831,0.000652217,-0.000153184,0.002873902,-0.000426220,0.001123426,-0.208467927,0.309243182,1.593179178,-0.001781522,-0.002723682,0.013897669,0.999897075,0.000000000,0.000000000,0.000000000,0.000000000,0.000000000,0.000000000,-0.035158355,0.000000000,3.998455917
1772688585.326683521,0.013824000,0.007735000,0.053899000,-0.001999360,0.006326550,0.019047970,0.999796560,-0.003757000,0.012727000,0.038075000,-0.000203108,0.000233508,0.000518318,0.013321679,-0.009210280,-0.006123801,0.011514401,-0.003657378,1.001477813,-0.000256414,0.004456015,0.001065072,0.000000000,0.000000000,0.000000000,0.000000000,0.014137098,0.007763346,0.053879062,0.016634346,0.000579543,-0.000070029,0.005899247,-0.000440139,0.000907550,-0.208738082,0.307214894,1.591628894,-0.001784162,-0.002705993,0.013884165,0.999897300,0.000000000,0.000000000,0.000000000,0.000000000,0.000000000,0.000000000,-0.035158355,0.000000000,3.998976095
1772688585.336683989,0.013822000,0.007755000,0.053908000,-0.001919360,0.006299580,0.019037080,0.999797090,-0.003598000,0.012670000,0.038054000,-0.000322941,0.000400875,0.000039200,0.015905643,-0.012063577,-0.006174303,0.011876426,-0.002141309,0.998550033,0.003087462,0.000996341,0.001904751,0.000000000,0.000000000,0.000000000,0.000000000,0.014141783,0.007759888,0.053879080,0.016834042,0.000584638,-0.000014948,0.006337547,0.000853215,0.000922502,-0.208690929,0.305387088,1.590371932,-0.001784002,-0.002690018,0.013873230,0.999897487,0.000000000,0.000000000,0.000000000,0.000000000,0.000000000,0.000000000,-0.035158355,0.000000000,3.999496284
1772688585.346683979,0.013816000,0.007755000,0.053900000,-0.001807660,0.005940850,0.018997130,0.999800250,-0.003389000,0.011948000,0.037977000,-0.000395105,0.000468959,-0.000252584,0.014679291,-0.012525944,-0.001700015,0.010053375,-0.001781989,0.998703829,0.002789300,0.001560984,0.000750750,0.000000000,0.000000000,0.000000000,0.000000000,0.014149264,0.007756491,0.053881208,0.017008147,0.000674142,-0.000053450,0.004689833,0.001388825,-0.002079999,-0.207825954,0.304605477,1.589256733,-0.001776575,-0.002683076,0.013863532,0.999897676,0.000000000,0.000000000,0.000000000,0.000000000,0.000000000,0.000000000,-0.035158355,0.000000000,4.000016449
1772688585.356683493,0.013819000,0.007746000,0.053891000,-0.001706050,0.006189730,0.018930960,0.999800180,-0.003177000,0.012442000,0.037845000,0.000008333,0.000172164,-0.000276457,0.009050717,-0.005212768,0.001550170,0.010005674,-0.002195521,0.999845252,0.000165481,0.002540600,-0.000447872,0.000000000,0.000000000,0.000000000,0.000000000,0.014152941,0.007755450,0.053884864,0.017024202,0.000829739,-0.000196454,0.004724449,0.001446017,-0.000187500,-0.206936320,0.303396259,1.587694505,-0.001768995,-0.002672393,0.013849941,0.999897884,0.000000000,0.000000000,0.000000000,0.000000000,0.000000000,0.000000000,-0.035158355,0.000000000,4.000536589
1772688585.366683960,0.013816000,0.007753000,0.053894000,-0.001740630,0.006163650,0.019009960,0.999798780,-0.003246000,0.012391000,0.038003000,0.000392230,-0.000104215,-0.000101574,-0.000044522,-0.006210996,0.003640123,0.010755963,-0.003019064,1.000075001,-0.000778268,0.001953255,-0.000357487,0.000000000,0.000000000,0.000000000,0.000000000,0.014154126,0.007755577,0.053891428,0.017108383,0.000922954,-0.000146646,0.005289286,-0.000037548,-0.000047845,-0.206903219,0.302770207,1.585400385,-0.001768836,-0.002666891,0.013829933,0.999898175,0.000000000,0.000000000,0.000000000,0.000000000,0.000000000,0.000000000,-0.035158355,0.000000000,4.001056778
1772688585.376683950,0.013815000,0.007766000,0.053884000,-0.001797750,0.005998530,0.019060260,0.999798730,-0.003366000,0.012063000,0.038103000,0.000618571,-0.000347397,0.000069386,-0.008183761,-0.001654856,0.003906740,0.011202313,-0.003486204,1.000041271,0.000660982,0.002008516,0.001770439,0.000000000,0.000000000,0.000000000,0.000000000,0.014154253,0.007763916,0.053897927,0.017197154,0.000925698,-0.000111652,0.005544913,0.000284645,0.000011331,-0.206996655,0.301656982,1.583361878,-0.001769833,-0.002657157,0.013812161,0.999898453,0.000000000,0.000000000,0.000000000,0.000000000,0.000000000,0.000000000,-0.035158355,0.000000000,4.000808717
1772688585.386684895,0.013826000,0.007748000,0.053899000,-0.001787110,0.006074800,0.019070360,0.999798090,-0.003342000,0.012216000,0.038123000,0.000526399,-0.000089938,0.000165229,-0.012226452,-0.002010248,0.002841912,0.011992696,-0.003578092,0.999863314,0.002134304,0.001957355,0.003697267,0.000000000,0.000000000,0.000000000,0.000000000,0.014153161,0.007767249,0.053898128,0.017295638,0.000949759,-0.000099246,0.006274777,0.000392817,-0.000285177,-0.206926049,0.300674305,1.582379008,-0.001769358,-0.002648558,0.013803601,0.999898612,0.000000000,0.000000000,0.000000000,0.000000000,0.000000000,0.000000000,-0.035158355,0.000000000,4.000339530
1772688585.396685123,0.013845000,0.007740000,0.053903000,-0.001855210,0.006113690,0.019060170,0.999797930,-0.003477000,0.012296000,0.038102000,0.000202797,0.000099573,0.000016861,-0.010952415,-0.004077230,0.000645394,0.011387287,-0.004144525,0.999780384,0.001250638,-0.000665164,-0.000417681,0.000000000,0.000000000,0.000000000,0.000000000,0.014153857,0.007767769,0.053895986,0.017451486,0.000945315,-0.000128174,0.006966755,0.000122265,-0.000670333,-0.206783412,0.300465957,1.582458161,-0.001768136,-0.002646724,0.013804299,0.999898612,0.000000000,0.000000000,0.000000000,0.000000000,0.000000000,0.000000000,-0.035158355,0.000000000,3.999870377
1772688585.406685114,0.013839000,0.007749000,0.053898000,-0.001949800,0.005902980,0.019021670,0.999799740,-0.003675000,0.011878000,0.038025000,-0.000185140,0.000235160,-0.000190327,-0.006404832,0.004380298,-0.004943228,0.010216612,-0.004422482,0.999808426,-0.000957987,0.001009069,-0.001977236,0.000000000,0.000000000,0.000000000,0.000000000,0.014155744,0.007767163,0.053892846,0.017592255,0.000899850,-0.000161946,0.004647419,-0.000494203,0.000609514,-0.205582698,0.298770175,1.581563209,-0.001757884,-0.002631769,0.013796545,0.999898754,0.000000000,0.000000000,0.000000000,0.000000000,0.000000000,0.000000000,-0.035158355,0.000000000,3.999401235
1772688585.416685104,0.013827000,0.007754000,0.053888000,-0.001995650,0.006134760,0.019034420,0.999798020,-0.003757000,0.012343000,0.038049000,-0.000634111,0.000525156,-0.000216006,-0.001876778,0.004773137,-0.004273643,0.011236515,-0.004714540,1.000277180,-0.001957571,0.000761053,-0.000971156,0.000000000,0.000000000,0.000000000,0.000000000,0.014156828,0.007770414,0.053890269,0.017646128,0.000825111,-0.000163642,0.005686985,-0.000518717,-0.000904868,-0.205188206,0.298095243,1.579305193,-0.001754575,-0.002625798,0.013776862,0.999899020,0.000000000,0.000000000,0.000000000,0.000000000,0.000000000,0.000000000,-0.035158355,0.000000000,3.998932093
1772688585.426685095,0.013817000,0.007768000,0.053889000,-0.001924830,0.006037450,0.019025520,0.999798920,-0.003619000,0.012146000,0.038032000,-0.000804799,0.000542056,-0.000135237,0.002433332,0.000055852,-0.000066251,0.010371179,-0.005544340,1.000342925,0.000345996,-0.000240536,0.000064089,0.000000000,0.000000000,0.000000000,0.000000000,0.014159720,0.007772722,0.053887504,0.017789217,0.000694264,-0.000181093,0.006161265,-0.001996261,0.000786409,-0.205489597,0.297034343,1.577272880,-0.001757379,-0.002616546,0.013759137,0.999899281,0.000000000,0.000000000,0.000000000,0.000000000,0.000000000,0.000000000,-0.035158355,0.000000000,3.998462951
1772688585.436685085,0.013815000,0.007765000,0.053889000,-0.001911100,0.006165350,0.019017450,0.999798320,-0.003587000,0.012401000,0.038016000,-0.000320222,0.000067211,0.000104448,0.004608464,0.003629921,0.003541149,0.009160135,-0.004817294,0.999753803,-0.000555982,-0.000933261,0.000751153,0.000000000,0.000000000,0.000000000,0.000000000,0.014168536,0.007764708,0.053892561,0.017856924,0.000475957,-0.000108266,0.003704188,-0.001763339,-0.000166264,-0.205124061,0.296976769,1.576386598,-0.001754217,-0.002615986,0.013751414,0.999899450,0.000000000,0.000000000,0.000000000,0.000000000,0.000000000,0.000000000,-0.035158355,0.000000000,3.997993809
1772688585.446685553,0.013812000,0.007764000,0.053892000,-0.001895070,0.006119610,0.018956360,0.999799790,-0.003558000,0.012309000,0.037894000,0.000288811,-0.000327467,0.000249728,0.002224419,0.004503697,0.008043010,0.010264510,-0.002296035,0.999911741,-0.000324165,-0.003060802,0.001509605,0.000000000,0.000000000,0.000000000,0.000000000,0.014179293,0.007757623,0.053896271,0.017831663,0.000385959,-0.000114531,0.004468291,0.001309274,-0.000597565,-0.206090944,0.296547398,1.575668595,-0.001762721,-0.002612344,0.013745134,0.999899567,0.000000000,0.000000000,0.000000000,0.000000000,0.000000000,0.000000000,-0.035158355,0.000000000,3.997524645
1772688585.456686020,0.013814000,0.007762000,0.053899000,-0.001868810,0.006036090,0.019123460,0.999797160,-0.003506000,0.012142000,0.038229000,0.000571582,-0.000440696,0.000269969,-0.001654709,0.004041630,0.010070838,0.011173705,-0.001452217,1.000611231,0.000330175,-0.002405465,0.000630643,0.000000000,0.000000000,0.000000000,0.000000000,0.014181672,0.007757882,0.053895374,0.017879503,0.000550430,-0.000128847,0.005563465,0.002345992,0.000474663,-0.205760109,0.297064619,1.575387217,-0.001759779,-0.002616813,0.013742679,0.999899626,0.000000000,0.000000000,0.000000000,0.000000000,0.000000000,0.000000000,-0.035158355,0.000000000,3.997055481
1772688585.466686487,0.013827000,0.007748000,0.053901000,-0.001899750,0.006093560,0.019168340,0.999795900,-0.003565000,0.012258000,0.038318000,0.000591220,-0.000429060,0.000167677,-0.003835664,0.002919497,0.006476480,0.011267606,-0.001617368,1.000288373,0.000667624,0.000741466,-0.002156736,0.000000000,0.000000000,0.000000000,0.000000000,0.014177810,0.007763206,0.053890755,0.017988623,0.000782214,-0.000066711,0.006109968,0.002015610,0.000982923,-0.205794911,0.296795886,1.574428339,-0.001760137,-0.002614458,0.013734315,0.999899694,0.000000000,0.000000000,0.000000000,0.000000000,0.000000000,0.000000000,-0.035158355,0.000000000,3.996586317
1772688585.476686239,0.013842000,0.007748000,0.053893000,-0.001965680,0.006263950,0.019149220,0.999795080,-0.003691000,0.012601000,0.038278000,0.000226671,-0.000183023,-0.000054507,-0.000599224,-0.003327033,0.000490878,0.010938252,-0.001881776,0.999927170,-0.000233321,0.002657868,-0.002498783,0.000000000,0.000000000,0.000000000,0.000000000,0.014172228,0.007774360,0.053889489,0.018094697,0.000983696,-0.000016056,0.005903753,0.002196036,-0.000060421,-0.205769975,0.296685071,1.572617331,-0.001759974,-0.002613460,0.013718515,0.999899893,0.000000000,0.000000000,0.000000000,0.000000000,0.000000000,0.000000000,-0.035158355,0.000000000,3.996117186
1772688585.486686230,0.013830000,0.007752000,0.053898000,-0.001955860,0.006156160,0.019198040,0.999794830,-0.003675000,0.012385000,0.038376000,0.000043104,-0.000013869,-0.000226982,0.003220862,-0.004184701,-0.006867105,0.010016186,-0.002598080,1.000452422,-0.001762731,0.001928182,0.000709454,0.000000000,0.000000000,0.000000000,0.000000000,0.014169691,0.007779231,0.053888982,0.018150311,0.001129504,-0.000025515,0.004827790,0.001297747,0.000148990,-0.205624906,0.296236404,1.570555043,-0.001758808,-0.002609496,0.013700530,0.999900135,0.000000000,0.000000000,0.000000000,0.000000000,0.000000000,0.000000000,-0.035158355,0.000000000,3.995894432
1772688585.496685982,0.013829000,0.007752000,0.053899000,-0.001911940,0.006166180,0.019092600,0.999796880,-0.003588000,0.012403000,0.038166000,-0.000106779,-0.000056546,-0.000190152,0.003152571,-0.004213275,-0.015320115,0.008892402,-0.002862446,1.000696054,0.000412514,-0.001188464,0.002492088,0.000000000,0.000000000,0.000000000,0.000000000,0.014166636,0.007782780,0.053890265,0.018084888,0.001177002,0.000032364,0.004025420,0.000569868,0.000698096,-0.205411026,0.295045585,1.569122345,-0.001757117,-0.002599058,0.013688053,0.999900401,0.000000000,0.000000000,0.000000000,0.000000000,0.000000000,0.000000000,-0.035158355,0.000000000,3.995894432
1772688585.506686687,0.013826000,0.007750000,0.053894000,-0.001875560,0.005938300,0.018950600,0.999801030,-0.003526000,0.011946000,0.037883000,-0.000466531,0.000116162,0.000037840,0.004043170,0.001426782,-0.012524642,0.009501099,-0.002151405,1.001124348,0.000983112,0.001012583,-0.002745473,0.000000000,0.000000000,0.000000000,0.000000000,0.014303023,0.007792593,0.053891217,0.018363847,0.001255796,0.000113161,0.004596402,0.001407445,0.000323306,-0.204433686,0.294569677,1.568406545,-0.001748662,-0.002594777,0.013681836,0.999900401,0.000000000,0.000000000,0.000000000,0.000000000,0.000000000,0.000000000,-0.035158355,0.000000000,3.995894432
1772688585.516686916,0.013817000,0.007753000,0.053886000,-0.001815910,0.006079980,0.018967800,0.999799960,-0.003401000,0.012227000,0.037918000,-0.000458159,0.000062723,0.000182051,0.000695832,0.012717867,-0.009199343,0.010907776,-0.002535750,0.999230822,-0.000999823,0.004861819,-0.000535851,0.000000000,0.000000000,0.000000000,0.000000000,0.014266882,0.007788828,0.053894971,0.015516626,0.001193620,0.000054527,0.005761209,0.002305823,-0.000220117,-0.204771464,0.292914244,1.563995601,-0.001751907,-0.002580305,0.013643365,0.999900730,0.000000000,0.000000000,0.000000000,0.000000000,0.000000000,0.000000000,-0.035158355,0.000000000,3.995894432
1772688585.526686668,0.013833000,0.007750000,0.053896000,-0.001878950,0.006198450,0.018901220,0.999800380,-0.003523000,0.012466000,0.037784000,-0.000381119,0.000176476,0.000140404,-0.005755389,0.015594617,-0.006123396,0.010441647,-0.003257457,0.999082952,0.000732039,-0.001346461,0.002463541,0.000000000,0.000000000,0.000000000,0.000000000,0.014067735,0.007772161,0.053896216,0.012291689,0.001080246,-0.000034471,0.006077434,0.001642151,-0.000160876,-0.202825982,0.342429780,1.568437585,-0.001728914,-0.003012203,0.013681389,0.999898880,0.000000000,0.000000000,0.000000000,0.000000000,0.000000000,0.000000000,-0.035158355,0.000000000,3.995894432
1772688585.536687136,0.013819000,0.007745000,0.053903000,-0.001987470,0.006318480,0.018856510,0.999800260,-0.003736000,0.012710000,0.037692000,-0.000096950,0.000165074,0.000114588,-0.007821377,0.009785302,-0.001194314,0.011615842,-0.003154477,1.000832154,0.001309059,0.001491140,-0.005546332,0.000000000,0.000000000,0.000000000,0.000000000,0.013943678,0.007759631,0.053895409,0.012783965,0.001099472,-0.000083741,0.006393682,0.000978431,-0.000101630,-0.202233254,0.336169190,1.575608637,-0.001724306,-0.002957612,0.013744075,0.999898585,0.000000000,0.000000000,0.000000000,0.000000000,0.000000000,0.000000000,-0.035158355,0.000000000,3.995894432
1772688585.546687126,0.013800000,0.007767000,0.053904000,-0.001913360,0.006417720,0.018987910,0.999797290,-0.003583000,0.012906000,0.037956000,0.000136985,-0.000072708,0.000018396,-0.007730052,0.002368929,0.000250913,0.011820717,-0.001988178,0.998529229,-0.003624756,-0.000703493,0.000067424,0.000000000,0.000000000,0.000000000,0.000000000,0.014018778,0.007773429,0.053898997,0.013530832,0.001211119,-0.000147829,0.006086444,0.000555962,-0.000301582,-0.201847234,0.335639291,1.573332825,-0.001721060,-0.002952907,0.013724237,0.999898971,0.000000000,0.000000000,0.000000000,0.000000000,0.000000000,0.000000000,-0.035158355,0.000000000,3.995894432
1772688585.556688309,0.013820000,0.007753000,0.053897000,-0.002035220,0.006309370,0.018883450,0.999799710,-0.003832000,0.012693000,0.037746000,0.000261888,-0.000094522,-0.000068396,-0.008087423,-0.013938079,0.002670876,0.010262315,-0.002479671,0.998755693,-0.001276901,0.002906890,-0.002500663,0.000000000,0.000000000,0.000000000,0.000000000,0.014060624,0.007777507,0.053895889,0.013998532,0.001383283,-0.000304152,0.004964295,0.000448715,-0.000840324,-0.202215536,0.335548669,1.571254751,-0.001724338,-0.002952129,0.013706095,0.999899135,0.000000000,0.000000000,0.000000000,0.000000000,0.000000000,0.000000000,-0.035158355,0.000000000,3.995894432
1772688585.566687822,0.013821000,0.007757000,0.053893000,-0.002056710,0.006023270,0.018882180,0.999801460,-0.003885000,0.012122000,0.037744000,0.000439200,-0.000064705,-0.000099650,-0.005265852,-0.024047996,0.004852461,0.010429761,-0.002261176,0.999627054,-0.000675626,0.003162553,0.000852530,0.000000000,0.000000000,0.000000000,0.000000000,0.014080426,0.007780917,0.053891261,0.014298544,0.001417962,-0.000375112,0.004048050,0.000611711,-0.000545500,-0.202837716,0.334853851,1.569060054,-0.001729906,-0.002946108,0.013686940,0.999899480,0.000000000,0.000000000,0.000000000,0.000000000,0.000000000,0.000000000,-0.035158355,0.000000000,3.995894432
1772688585.576688051,0.013841000,0.007745000,0.053894000,-0.001993520,0.006099360,0.018946270,0.999799910,-0.003755000,0.012272000,0.037873000,0.000341201,0.000055808,0.000122844,-0.001051715,-0.024799461,0.002532049,0.008909717,-0.002064877,0.999723059,-0.000771544,0.000990413,0.000264789,0.000000000,0.000000000,0.000000000,0.000000000,0.014102886,0.007777275,0.053889045,0.014529781,0.001569448,-0.000377816,0.003254993,0.000936621,0.000248710,-0.203614878,0.333521626,1.567398845,-0.001736889,-0.002934551,0.013672446,0.999899656,0.000000000,0.000000000,0.000000000,0.000000000,0.000000000,0.000000000,-0.035158355,0.000000000,3.995894432
1772688585.586688280,0.013822000,0.007746000,0.053898000,-0.002071290,0.006015760,0.018977290,0.999799670,-0.003914000,0.012108000,0.037934000,-0.000136597,0.000275350,0.000051845,0.001161862,-0.018869192,0.004440749,0.008904109,-0.002654647,0.999173147,-0.001926887,-0.001355336,0.000875423,0.000000000,0.000000000,0.000000000,0.000000000,0.014104470,0.007777425,0.053889936,0.014542520,0.001614294,-0.000354540,0.003349374,0.001029018,-0.000607966,-0.204561507,0.332135109,1.565651896,-0.001745360,-0.002922539,0.013657199,0.999899820,0.000000000,0.000000000,0.000000000,0.000000000,0.000000000,0.000000000,-0.035158355,0.000000000,3.995894432
1772688585.596688271,0.013825000,0.007766000,0.053903000,-0.002097050,0.005783090,0.019049840,0.999799610,-0.003973000,0.011644000,0.038080000,-0.000543687,0.000526555,-0.000235315,0.005112370,-0.008428951,0.007563513,0.009419677,-0.002465289,0.998568935,-0.001588355,-0.003446725,0.001426775,0.000000000,0.000000000,0.000000000,0.000000000,0.014104980,0.007779212,0.053890408,0.014554325,0.001631406,-0.000369020,0.003505782,0.001000301,-0.000883185,-0.204984181,0.331551590,1.564888579,-0.001749137,-0.002917486,0.013650536,0.999899860,0.000000000,0.000000000,0.000000000,0.000000000,0.000000000,0.000000000,-0.035158355,0.000000000,3.995894432
1772688585.606688499,0.013827000,0.007762000,0.053900000,-0.001974010,0.005775080,0.018976150,0.999801310,-0.003728000,0.011623000,0.037934000,-0.000324806,0.000329002,-0.000466240,0.004565440,-0.002453854,0.007761718,0.009426016,-0.002766711,0.998726839,-0.001218870,-0.002017964,0.000232604,0.000000000,0.000000000,0.000000000,0.000000000,0.014105490,0.007781000,0.053890880,0.014566131,0.001648518,-0.000383501,0.003587648,0.000957271,-0.000794832,-0.205025534,0.331544017,1.564643755,-0.001749505,-0.002917421,0.013648399,0.999899901,0.000000000,0.000000000,0.000000000,0.000000000,0.000000000,0.000000000,-0.035158355,0.000000000,3.995894432
1772688585.616688728,0.013804000,0.007770000,0.053894000,-0.001916790,0.005905070,0.019005020,0.999800110,-0.003609000,0.011881000,0.037992000,-0.000142114,0.000118629,-0.000378808,0.004883384,0.000213574,0.008699412,0.009432355,-0.003068134,0.998884743,-0.000849385,-0.000589203,-0.000961568,0.000000000,0.000000000,0.000000000,0.000000000,0.014106000,0.007782788,0.053891351,0.014577936,0.001665630,-0.000397981,0.003669515,0.000914240,-0.000706479,-0.205066887,0.331536444,1.564398932,-0.001749873,-0.002917356,0.013646262,0.999899941,0.000000000,0.000000000,0.000000000,0.000000000,0.000000000,0.000000000,-0.035158355,0.000000000,3.995894432
1772688585.626688719,0.013817000,0.007767000,0.053874000,-0.001986710,0.005892530,0.019176730,0.999796770,-0.003747000,0.011859000,0.038334000,0.000492988,-0.000360140,-0.000054079,0.005801471,0.014816761,0.008285993,0.009438693,-0.003369550,0.999042644,-0.000479909,0.000839524,-0.002155711,0.000000000,0.000000000,0.000000000,0.000000000,0.014106510,0.007784576,0.053891823,0.014589742,0.001682742,-0.000412462,0.003751380,0.000871210,-0.000618128,-0.205108239,0.331528872,1.564154114,-0.001750241,-0.002917291,0.013644125,0.999899981,0.000000000,0.000000000,0.000000000,0.000000000,0.000000000,0.000000000,-0.035158355,0.000000000,3.995894432
1772688585.636688709,0.013825000,0.007757000,0.053880000,-0.001945510,0.005974620,0.019133190,0.999797200,-0.003662000,0.012022000,0.038247000,0.000562530,-0.000331702,0.000329798,0.002409969,0.021926424,0.005557846,0.009445032,-0.003670965,0.999200544,-0.000110433,0.002268251,-0.003349855,0.000000000,0.000000000,0.000000000,0.000000000,0.014107019,0.007786364,0.053892295,0.014601547,0.001699854,-0.000426942,0.003833245,0.000828180,-0.000529776,-0.205149591,0.331521300,1.563909297,-0.001750609,-0.002917226,0.013641988,0.999900022,0.000000000,0.000000000,0.000000000,0.000000000,0.000000000,0.000000000,-0.035158355,0.000000000,3.995894432
1772688585.646688700,0.013834000,0.007756000,0.053896000,-0.001932760,0.006007930,0.019204570,0.999795660,-0.003634000,0.012088000,0.038390000,0.000494095,-0.000036713,0.000393551,0.002042681,0.028587442,0.000342015,0.009451371,-0.003972381,0.999358445,0.000259043,0.003696978,-0.004543998,0.000000000,0.000000000,0.000000000,0.000000000,0.014107689,0.007788258,0.053892668,0.014618802,0.001715072,-0.000441754,0.003915110,0.000785150,-0.000441425,-0.205190943,0.331513727,1.563664479,-0.001750977,-0.002917161,0.013639851,0.999900084,0.000000000,0.000000000,0.000000000,0.000000000,0.000000000,0.000000000,-0.035158355,0.000000000,3.995894432
1772688585.656688690,0.013831000,0.007756000,0.053906000,-0.001908420,0.006188620,0.019157060,0.999795510,-0.003579000,0.012448000,0.038295000,0.000300447,0.000132790,0.000150622,0.002358583,0.032181834,-0.008747684,0.009636692,-0.004051126,0.999399176,0.000394820,0.004507200,-0.004734397,0.000000000,0.000000000,0.000000000,0.000000000,0.014110148,0.007791336,0.053891946,0.014696838,0.001709169,-0.000460266,0.004157198,-0.000125657,-0.000764543,-0.204842439,0.331649694,1.562345992,-0.001747953,-0.002918286,0.013628353,0.999900197,0.000000000,0.000000000,0.000000000,0.000000000,0.000000000,0.000000000,-0.035158355,0.000000000,3.995894432
1772688585.666689157,0.013847000,0.007755000,0.053902000,-0.001909070,0.006506160,0.019085700,0.999794860,-0.003569000,0.013083000,0.038151000,-0.000294289,0.000318512,-0.000238423,-0.001451626,0.028891250,-0.010246020,0.010506985,-0.003265997,0.998990683,-0.000370778,0.002932422,-0.001052962,0.000000000,0.000000000,0.000000000,0.000000000,0.014103971,0.007795520,0.053889049,0.014790448,0.001666342,-0.000531482,0.004247620,-0.001020369,-0.000978942,-0.204492201,0.331367728,1.559764852,-0.001744996,-0.002915745,0.013605844,0.999900534,0.000000000,0.000000000,0.000000000,0.000000000,0.000000000,0.000000000,-0.035158355,0.000000000,3.995894432
1772688585.676688910,0.013824000,0.007775000,0.053892000,-0.001936690,0.006476150,0.019046760,0.999795740,-0.003626000,0.013024000,0.038073000,-0.000372300,0.000252156,-0.000436811,-0.005157345,0.014565484,-0.006016308,0.009138199,-0.002186773,0.999838753,-0.000157306,0.004038855,-0.001764240,0.000000000,0.000000000,0.000000000,0.000000000,0.014102930,0.007798257,0.053879528,0.014858860,0.001731414,-0.000625626,0.003942527,-0.000848371,-0.000552579,-0.205446754,0.329884866,1.558305171,-0.001753539,-0.002902897,0.013593106,0.999900788,0.000000000,0.000000000,0.000000000,0.000000000,0.000000000,0.000000000,-0.035158355,0.000000000,3.995894432
1772688585.686687946,0.013822000,0.007765000,0.053876000,-0.001905300,0.006694900,0.018979060,0.999795650,-0.003556000,0.013460000,0.037937000,-0.000330828,-0.000118978,-0.000252545,-0.003508176,-0.003419515,-0.003360216,0.009783942,-0.003880511,0.999931300,-0.002276643,-0.002754465,-0.000877917,0.000000000,0.000000000,0.000000000,0.000000000,0.014107317,0.007796562,0.053872738,0.014928170,0.001720146,-0.000665036,0.003775806,-0.000730055,-0.000005383,-0.205888079,0.329743183,1.557535812,-0.001757426,-0.002901701,0.013586385,0.999900904,0.000000000,0.000000000,0.000000000,0.000000000,0.000000000,0.000000000,-0.035158355,0.000000000,3.995913675
1772688585.696687937,0.013827000,0.007763000,0.053881000,-0.002026530,0.006481510,0.018974100,0.999796910,-0.003807000,0.013038000,0.037927000,-0.000129643,-0.000397941,0.000118765,-0.001496165,-0.018883117,-0.000331190,0.009433223,-0.003557893,1.001058203,-0.002186408,-0.001845635,0.002105712,0.000000000,0.000000000,0.000000000,0.000000000,0.014113290,0.007793111,0.053873531,0.015009059,0.001630736,-0.000600246,0.004368002,-0.000906138,0.001204871,-0.205678833,0.330762851,1.556006210,-0.001755518,-0.002910550,0.013573027,0.999901038,0.000000000,0.000000000,0.000000000,0.000000000,0.000000000,0.000000000,-0.035158355,0.000000000,3.996486105
