t,px,py,pz,qx,qy,qz,qw,roll,pitch,yaw,vx,vy,vz,wx_vicon,wy_vicon,wz_vicon,imu_acc_x,imu_acc_y,imu_acc_z,imu_gyro_x,imu_gyro_y,imu_gyro_z,motor_motor_m1,motor_motor_m2,motor_motor_m3,motor_motor_m4,est_stateEstimate_x,est_stateEstimate_y,est_stateEstimate_z,est_stateEstimate_vx,est_stateEstimate_vy,est_stateEstimate_vz,est_stateEstimate_ax,est_stateEstimate_ay,est_stateEstimate_az,att_stateEstimate_roll,att_stateEstimate_pitch,att_stateEstimate_yaw,att_stateEstimate_qx,att_stateEstimate_qy,att_stateEstimate_qz,att_stateEstimate_qw,sp_ctrltarget_x,sp_ctrltarget_y,sp_ctrltarget_z,sp_ctrltarget_yaw,pid_controller_roll,pid_controller_pitch,pid_controller_yaw,pid_controller_cmd_thrust,pwr_pm_vbat
1772688730.115962744,0.016090000,0.008286000,0.054473000,0.010792400,0.027025210,-0.001299000,0.999575650,0.021539000,0.054082000,-0.002017000,-0.001887026,0.000669562,0.000421387,-0.045247482,0.098052280,-0.004935076,0.011095554,0.001641849,1.000658615,0.000720404,-0.001113090,-0.004921004,0.000000000,0.000000000,0.000000000,0.000000000,0.017149435,0.008005623,0.054465795,0.055348707,-0.015288590,0.000336427,0.014487043,-0.004830332,0.000170943,0.326969411,-0.194508685,-0.108997594,0.002854949,0.001694688,-0.000956021,0.999993026,0.000000000,0.000000000,0.000000000,0.000000000,0.000000000,0.000000000,-0.187860161,0.000000000,3.980058670
1772688730.125962734,0.016097000,0.008285000,0.054465000,0.010818210,0.027023500,-0.001186810,0.999575550,0.021596000,0.054076000,-0.001791000,-0.001394951,0.001212336,-0.000769756,-0.001907934,0.011220396,0.006384965,0.012593801,0.002475252,1.001285096,0.000916427,-0.000693778,-0.001249386,0.000000000,0.000000000,0.000000000,0.000000000,0.017141764,0.007998931,0.054479453,0.055224013,-0.015344452,0.000411397,0.015578382,-0.003040987,0.001606668,0.326152672,-0.194611659,-0.108907006,0.002847821,0.001695595,-0.000955220,0.999993069,0.000000000,0.000000000,0.000000000,0.000000000,0.000000000,0.000000000,-0.187860161,0.000000000,3.980058670
1772688730.135963202,0.016065000,0.008296000,0.054468000,0.010732510,0.027283680,-0.001297440,0.999569270,0.021419000,0.054599000,-0.002011000,-0.000901710,0.001162919,-0.000993416,0.017721139,-0.028589862,0.008409869,0.012720023,0.003521012,1.001297249,0.000077073,-0.000209921,0.000863431,0.000000000,0.000000000,0.000000000,0.000000000,0.017148210,0.008000462,0.054481662,0.055268622,-0.015205387,0.000541340,0.016715506,-0.002372123,0.000229799,0.326596388,-0.193856123,-0.109274529,0.002851693,0.001688989,-0.000958415,0.999993086,0.000000000,0.000000000,0.000000000,0.000000000,0.000000000,0.000000000,-0.187860161,0.000000000,3.980058670
1772688730.145962715,0.016065000,0.008323000,0.054443000,0.010908390,0.026868540,-0.001127270,0.999578820,0.021780000,0.053765000,-0.001670000,-0.000445066,0.000720611,-0.000562180,0.019551101,-0.033266384,0.003729669,0.013057591,0.002662386,1.000106838,-0.000565036,0.001800339,-0.001010365,0.000000000,0.000000000,0.000000000,0.000000000,0.017152568,0.008003901,0.054474881,0.055346045,-0.015013786,0.000524531,0.016352806,-0.002787042,-0.000965136,0.327473211,-0.194127041,-0.110354154,0.002859363,0.001691319,-0.000967857,0.999993048,0.000000000,0.000000000,0.000000000,0.000000000,0.000000000,0.000000000,-0.187860161,0.000000000,3.980058670
1772688730.155962706,0.016047000,0.008323000,0.054451000,0.010922110,0.026889790,-0.001220490,0.999577990,0.021803000,0.053809000,-0.001855000,-0.000062782,0.000084713,0.000211364,0.009494969,-0.014690555,-0.005049545,0.012007872,0.001579723,1.000527125,-0.000122370,0.002471100,-0.002488671,0.000000000,0.000000000,0.000000000,0.000000000,0.017144266,0.008009206,0.054477175,0.055348964,-0.014894827,0.000439094,0.014759518,-0.003900890,0.001005353,0.326996825,-0.194827179,-0.109425468,0.002855197,0.001697456,-0.000959763,0.999993026,0.000000000,0.000000000,0.000000000,0.000000000,0.000000000,0.000000000,-0.187860161,0.000000000,3.980058670
1772688730.165962696,0.016053000,0.008317000,0.054465000,0.010826730,0.027087280,-0.001311020,0.999573580,0.021607000,0.054206000,-0.002037000,0.000207382,-0.000545474,0.001014628,-0.006547986,0.015245376,-0.015332625,0.011317601,0.001924252,1.000928678,0.000068240,-0.000664156,-0.000499202,0.000000000,0.000000000,0.000000000,0.000000000,0.017145057,0.008010590,0.054473300,0.055227835,-0.014909379,0.000529326,0.015230042,-0.003566899,0.000491576,0.326461680,-0.195812552,-0.108875695,0.002850527,0.001706073,-0.000954982,0.999993026,0.000000000,0.000000000,0.000000000,0.000000000,0.000000000,0.000000000,-0.187860161,0.000000000,3.980058670
1772688730.175962210,0.016075000,0.008309000,0.054460000,0.010958150,0.026895670,-0.001373770,0.999577240,0.021867000,0.053825000,-0.002160000,0.000365754,-0.000732110,0.001028847,-0.019715423,0.034400349,-0.024372849,0.012830695,0.001964946,0.998971481,0.001455413,-0.002785479,-0.000163538,0.000000000,0.000000000,0.000000000,0.000000000,0.017130928,0.008020342,0.054473422,0.055143473,-0.014811144,0.000499107,0.015953865,-0.003933288,-0.000852376,0.325827012,-0.195722383,-0.108825773,0.002844987,0.001705293,-0.000954534,0.999993026,0.000000000,0.000000000,0.000000000,0.000000000,0.000000000,0.000000000,-0.187860161,0.000000000,3.980058670
1772688730.185961485,0.016087000,0.008276000,0.054486000,0.010886280,0.027021350,-0.001332320,0.999574690,0.021725000,0.054075000,-0.002078000,-0.000032770,-0.000588967,0.000745494,-0.026973879,0.046943762,-0.028537274,0.012367246,0.000894396,0.997712677,0.001983999,0.002147610,-0.001438623,0.000000000,0.000000000,0.000000000,0.000000000,0.017127525,0.008028373,0.054469552,0.055131506,-0.014783469,0.000342195,0.015810413,-0.004775164,-0.002334864,0.325907314,-0.194963302,-0.108805732,0.002845682,0.001698669,-0.000954342,0.999993059,0.000000000,0.000000000,0.000000000,0.000000000,0.000000000,0.000000000,-0.187860161,0.000000000,3.980058670
1772688730.195961237,0.016060000,0.008294000,0.054496000,0.010527770,0.027621010,-0.001644140,0.999561680,0.020989000,0.055281000,-0.002709000,0.000013928,-0.000055478,-0.000229701,-0.016746170,0.028679146,-0.016194605,0.012385999,-0.001151859,0.998155349,0.002499678,0.001824436,-0.003816694,0.000000000,0.000000000,0.000000000,0.000000000,0.017138642,0.008024623,0.054457539,0.055146513,-0.014885999,0.000012777,0.015142329,-0.006843378,-0.001367937,0.326098729,-0.193999458,-0.108768056,0.002847343,0.001690257,-0.000953992,0.999993086,0.000000000,0.000000000,0.000000000,0.000000000,0.000000000,0.000000000,-0.187860161,0.000000000,3.980058670
1772688730.205961227,0.016050000,0.008307000,0.054491000,0.010320230,0.027988360,-0.001831080,0.999553300,0.020562000,0.056019000,-0.003088000,-0.000609966,0.000037762,-0.000205847,-0.020811642,0.033387044,-0.013237761,0.011797906,-0.000444294,0.999984221,-0.001354839,0.000487823,-0.002681019,0.000000000,0.000000000,0.000000000,0.000000000,0.017185228,0.008003701,0.054459230,0.055222847,-0.015189057,-0.000073663,0.015016828,-0.006235154,-0.000525767,0.325548932,-0.195004018,-0.109006839,0.002842557,0.001699022,-0.000956092,0.999993086,0.000000000,0.000000000,0.000000000,0.000000000,0.000000000,0.000000000,-0.187860161,0.000000000,3.980058670
1772688730.215960741,0.016064000,0.008305000,0.054455000,0.010535300,0.027508530,-0.001754640,0.999564510,0.020998000,0.055058000,-0.002933000,0.000020979,0.000993649,-0.001620087,0.019905707,-0.017917329,-0.001984243,0.011482714,0.001429028,1.000628739,-0.000853538,0.000410371,-0.000914893,0.000000000,0.000000000,0.000000000,0.000000000,0.017189100,0.007997018,0.054459467,0.055119404,-0.015324553,-0.000112213,0.015230124,-0.004498176,-0.000092313,0.325084812,-0.195855230,-0.108838465,0.002838512,0.001706458,-0.000954637,0.999993086,0.000000000,0.000000000,0.000000000,0.000000000,0.000000000,0.000000000,-0.187860161,0.000000000,3.980058670
1772688730.225960255,0.016062000,0.008302000,0.054457000,0.010722600,0.027415150,-0.001601830,0.999565340,0.021382000,0.054868000,-0.002618000,0.000734966,0.001317309,-0.002175352,0.065326197,-0.083140805,0.012544334,0.011570832,0.002328901,1.000755820,-0.001262503,-0.002332155,0.001227138,0.000000000,0.000000000,0.000000000,0.000000000,0.017162797,0.008000912,0.054460459,0.054899604,-0.015299005,-0.000097760,0.015634926,-0.003276031,0.000762819,0.325031712,-0.195810751,-0.107987196,0.002838035,0.001706091,-0.000947207,0.999993086,0.000000000,0.000000000,0.000000000,0.000000000,0.000000000,0.000000000,-0.187860161,0.000000000,3.980058670
1772688730.235959291,0.016078000,0.008313000,0.054440000,0.010964810,0.027087330,-0.001507400,0.999571800,0.021872000,0.054211000,-0.002423000,0.000989278,0.000829993,-0.001432946,0.086708079,-0.114070983,0.024845911,0.011930277,0.002605177,1.000779931,-0.002196507,0.000122263,0.003933372,0.000000000,0.000000000,0.000000000,0.000000000,0.017145170,0.008003649,0.054468377,0.054737905,-0.015165720,0.000011105,0.015515423,-0.002499537,0.001092713,0.325197861,-0.196407497,-0.108139088,0.002839492,0.001711294,-0.000948549,0.999993086,0.000000000,0.000000000,0.000000000,0.000000000,0.000000000,0.000000000,-0.187860161,0.000000000,3.980058670
1772688730.245958805,0.016054000,0.008320000,0.054454000,0.010968610,0.027148620,-0.001731550,0.999569730,0.021868000,0.054339000,-0.002870000,0.000425389,0.000691842,-0.000437005,0.070575738,-0.100558849,0.019793545,0.011858685,0.001432265,0.999011803,-0.001011112,-0.000993708,-0.000618312,0.000000000,0.000000000,0.000000000,0.000000000,0.017136544,0.008006998,0.054471196,0.054607028,-0.015010803,0.000072159,0.014510950,-0.004326219,-0.001140646,0.322804947,-0.196162002,-0.105267206,0.002818565,0.001709242,-0.000923446,0.999993140,0.000000000,0.000000000,0.000000000,0.000000000,0.000000000,0.000000000,-0.187860161,0.000000000,3.980058670
1772688730.255959034,0.016120000,0.008381000,0.054351000,0.012617260,0.024960540,-0.001374720,0.999607870,0.025190000,0.049957000,-0.002121000,-0.000089122,0.000230517,0.000418105,0.036441300,-0.062766211,0.011545580,0.013389422,0.001035987,0.998171652,-0.001769473,-0.000510277,0.000599958,0.000000000,0.000000000,0.000000000,0.000000000,0.017139165,0.008023825,0.054441620,0.054514194,-0.014984162,-0.000226413,0.016455965,-0.005132987,-0.002613348,0.323356898,-0.195857657,-0.104326157,0.002823366,0.001706605,-0.000915235,0.999993145,0.000000000,0.000000000,0.000000000,0.000000000,0.000000000,0.000000000,-0.187860161,0.000000000,3.980058670
1772688730.265959024,0.016077000,0.008322000,0.054452000,0.012028670,0.025494070,-0.001331110,0.999601720,0.024013000,0.051022000,-0.002051000,-0.000413850,-0.000449010,0.000828361,-0.000069345,-0.014409680,0.010343068,0.012673925,0.001572238,0.999095663,-0.003559673,0.001300457,0.001266342,0.000000000,0.000000000,0.000000000,0.000000000,0.017142994,0.008048222,0.054400976,0.054536386,-0.014937204,-0.000614743,0.016407342,-0.003311193,-0.001131848,0.322514692,-0.195446560,-0.104225638,0.002816011,0.001703027,-0.000914335,0.999993151,0.000000000,0.000000000,0.000000000,0.000000000,0.000000000,0.000000000,-0.187860161,0.000000000,3.980058670
1772688730.275958300,0.016066000,0.008312000,0.054466000,0.011673430,0.026008640,-0.001329690,0.999592670,0.023302000,0.052051000,-0.002054000,-0.000800584,-0.001050875,0.001379935,-0.036031780,0.046360156,0.003642693,0.012429732,0.000004519,0.997623798,-0.000605299,0.001343530,-0.001785552,0.000000000,0.000000000,0.000000000,0.000000000,0.017133956,0.008033221,0.054420504,0.054497164,-0.015012506,-0.000648313,0.015412815,-0.005417079,-0.001703360,0.320578354,-0.195970193,-0.105175788,0.002799132,0.001707588,-0.000922610,0.999993205,0.000000000,0.000000000,0.000000000,0.000000000,0.000000000,0.000000000,-0.187860161,0.000000000,3.980058670
1772688730.285958290,0.016057000,0.008323000,0.054456000,0.011292880,0.026300810,-0.001450580,0.999589230,0.022533000,0.052637000,-0.002309000,-0.000645494,-0.001024515,0.001251361,-0.056142779,0.086597782,-0.006359122,0.012213422,-0.000208882,1.000366046,-0.002296578,0.003554960,-0.001667892,0.000000000,0.000000000,0.000000000,0.000000000,0.017131882,0.008013978,0.054439641,0.054438578,-0.015228545,-0.000710481,0.015768286,-0.005696892,-0.000269468,0.319679799,-0.197145307,-0.104943337,0.002791296,0.001717856,-0.000920597,0.999993205,0.000000000,0.000000000,0.000000000,0.000000000,0.000000000,0.000000000,-0.187860161,0.000000000,3.980058670
1772688730.295958519,0.016064000,0.008304000,0.054460000,0.011235650,0.026641530,-0.001371390,0.999580970,0.022423000,0.053317000,-0.002146000,-0.000527603,-0.000490890,0.000675681,-0.054539535,0.094629257,-0.014955226,0.013780466,0.000831143,1.000179077,0.002644173,-0.001306617,-0.008567638,0.000000000,0.000000000,0.000000000,0.000000000,0.017135417,0.008002783,0.054447942,0.054479814,-0.015413235,-0.000601516,0.016929313,-0.004547813,-0.000133940,0.319681889,-0.198270038,-0.105318125,0.002791330,0.001727662,-0.000923895,0.999993205,0.000000000,0.000000000,0.000000000,0.000000000,0.000000000,0.000000000,-0.187860161,0.000000000,3.980058670
1772688730.305958033,0.016059000,0.008304000,0.054464000,0.011109000,0.027121220,-0.001338430,0.999569530,0.022170000,0.054275000,-0.002076000,0.000576205,0.000399592,-0.000741104,-0.011460967,0.037088737,-0.008439953,0.013898924,0.003349052,0.998337585,0.000746773,-0.002480776,-0.000473982,0.000000000,0.000000000,0.000000000,0.000000000,0.017146157,0.008022913,0.054417439,0.054603629,-0.015333206,-0.000787516,0.017295722,-0.002183608,-0.001477142,0.319562185,-0.198231304,-0.106269321,0.002790299,0.001727302,-0.000932193,0.999993205,0.000000000,0.000000000,0.000000000,0.000000000,0.000000000,0.000000000,-0.187860161,0.000000000,3.980058670
1772688730.315957546,0.016059000,0.008305000,0.054472000,0.010991630,0.027288980,-0.001612150,0.999565850,0.021920000,0.054617000,-0.002627000,0.000365929,-0.000046348,-0.000013209,-0.008318042,0.024367216,-0.007534481,0.012675262,0.005564194,1.000267134,-0.000637881,0.003542777,0.000970465,0.000000000,0.000000000,0.000000000,0.000000000,0.017147934,0.008039423,0.054399509,0.054692547,-0.015113275,-0.000932599,0.016475350,-0.000370424,0.000448081,0.319092668,-0.197788225,-0.106823321,0.002786206,0.001723426,-0.000937010,0.999993205,0.000000000,0.000000000,0.000000000,0.000000000,0.000000000,0.000000000,-0.187860161,0.000000000,3.980058670
1772688730.325957298,0.016076000,0.008318000,0.054456000,0.011032200,0.027202060,-0.001558900,0.999567860,0.022004000,0.054442000,-0.002520000,0.000318551,-0.000215754,0.000362782,-0.010674803,0.018863397,-0.007312115,0.012290854,0.001972322,1.001172043,-0.003216556,-0.001851690,0.002775473,0.000000000,0.000000000,0.000000000,0.000000000,0.017135736,0.008031460,0.054420037,0.054679104,-0.014849841,-0.000757165,0.015638739,-0.002725088,0.001887838,0.318572864,-0.198982686,-0.106610149,0.002781677,0.001733858,-0.000935171,0.999993205,0.000000000,0.000000000,0.000000000,0.000000000,0.000000000,0.000000000,-0.187860161,0.000000000,3.980058670
1772688730.335957050,0.016070000,0.008314000,0.054456000,0.010989030,0.027181190,-0.001477870,0.999569030,0.021922000,0.054398000,-0.002361000,0.000434441,-0.000243804,0.000229798,-0.012491561,0.010112922,-0.003595120,0.013125961,0.001592302,1.000826527,-0.001885212,-0.004663412,0.000036583,0.000000000,0.000000000,0.000000000,0.000000000,0.016994743,0.008061271,0.054429708,0.054256338,-0.014670092,-0.000588568,0.016774759,-0.005129537,0.000711810,0.316786688,-0.199034047,-0.105979304,0.002766081,0.001734337,-0.000929640,0.999993253,0.000000000,0.000000000,0.000000000,0.000000000,0.000000000,0.000000000,-0.187860161,0.000000000,3.980058670
1772688730.345956326,0.016084000,0.008301000,0.054466000,0.010981830,0.027173160,-0.001532790,0.999569240,0.021905000,0.054383000,-0.002471000,0.000294309,-0.000367561,0.000272980,-0.008276306,0.008767029,0.002370241,0.013677392,0.002458283,1.000528750,0.000286906,-0.002818195,-0.001720601,0.000000000,0.000000000,0.000000000,0.000000000,0.016603528,0.008163088,0.054438676,0.053129662,-0.014398785,-0.000554000,0.017071593,-0.002808649,0.000696786,0.315690213,-0.198946326,-0.105856749,0.002756510,0.001733583,-0.000928551,0.999993302,0.000000000,0.000000000,0.000000000,0.000000000,0.000000000,0.000000000,-0.187860161,0.000000000,3.980058670
1772688730.355956316,0.016062000,0.008288000,0.054486000,0.010698150,0.027645070,-0.001592490,0.999559280,0.021333000,0.055328000,-0.002596000,0.000246387,-0.000404352,0.000163442,-0.003941217,0.009377099,0.008258595,0.013258378,0.002567545,1.000093710,0.001952988,0.001612434,-0.000675017,0.000000000,0.000000000,0.000000000,0.000000000,0.016572335,0.008176802,0.054451162,0.053125181,-0.014433847,-0.000423873,0.016814369,-0.002921472,-0.000429971,0.315431088,-0.198096248,-0.105962064,0.002754243,0.001726164,-0.000929446,0.999993295,0.000000000,0.000000000,0.000000000,0.000000000,0.000000000,0.000000000,-0.187860161,0.000000000,3.980058670
1772688730.365955591,0.016085000,0.008298000,0.054477000,0.010759670,0.027531270,-0.001526780,0.999561870,0.021460000,0.055099000,-0.002464000,-0.000124922,-0.000129954,0.000062180,-0.003006940,0.007959240,0.002658272,0.012083236,0.002424741,0.998677777,0.004191355,0.002650327,-0.001896118,0.000000000,0.000000000,0.000000000,0.000000000,0.016574435,0.008174106,0.054461917,0.053267384,-0.014339335,-0.000312083,0.015875772,-0.002838458,-0.001469179,0.315596995,-0.197658537,-0.106469165,0.002755695,0.001722331,-0.000933863,0.999993265,0.000000000,0.000000000,0.000000000,0.000000000,0.000000000,0.000000000,-0.187860161,0.000000000,3.980058670
1772688730.375955105,0.016088000,0.008300000,0.054458000,0.010911980,0.027348720,-0.001405500,0.999565410,0.021772000,0.054732000,-0.002216000,-0.000450583,0.000447475,-0.000211694,-0.003965199,-0.001950780,-0.002546405,0.010767141,0.002668129,0.999037519,0.003687034,-0.001660021,0.004263353,0.000000000,0.000000000,0.000000000,0.000000000,0.016578735,0.008170557,0.054465727,0.053381279,-0.014276718,-0.000337805,0.014540642,-0.002845054,-0.000890935,0.316472903,-0.197872871,-0.105986070,0.002763333,0.001724206,-0.000929666,0.999993265,0.000000000,0.000000000,0.000000000,0.000000000,0.000000000,0.000000000,-0.187860161,0.000000000,3.980058670
1772688730.385955095,0.016065000,0.008305000,0.054471000,0.010892860,0.027417270,-0.001489630,0.999563610,0.021729000,0.054871000,-0.002384000,-0.000589433,0.000748039,-0.000578905,-0.001300447,-0.017393528,-0.003840165,0.010980093,0.000526923,1.001471236,0.000533826,0.001186885,0.003415298,0.000000000,0.000000000,0.000000000,0.000000000,0.016581392,0.008171143,0.054465483,0.053392275,-0.014173001,-0.000449960,0.014355514,-0.004488573,0.000948364,0.317205036,-0.197912318,-0.104714641,0.002769703,0.001724575,-0.000918583,0.999993265,0.000000000,0.000000000,0.000000000,0.000000000,0.000000000,0.000000000,-0.187860161,0.000000000,3.980058670
1772688730.395955086,0.016078000,0.008300000,0.054460000,0.010841770,0.027296540,-0.001443180,0.999567540,0.021629000,0.054628000,-0.002297000,-0.000124514,0.000398796,-0.000464997,0.002497392,-0.027610023,-0.002847379,0.012268913,0.000658104,1.001851677,0.002397668,0.005134763,0.002283011,0.000000000,0.000000000,0.000000000,0.000000000,0.016582949,0.008169766,0.054461229,0.053295468,-0.014127188,-0.000488110,0.015769905,-0.005296327,0.001249040,0.317399029,-0.197643621,-0.104666715,0.002771393,0.001722230,-0.000918161,0.999993265,0.000000000,0.000000000,0.000000000,0.000000000,0.000000000,0.000000000,-0.187860161,0.000000000,3.980058670
1772688730.405955315,0.016047000,0.008319000,0.054465000,0.010683790,0.027347330,-0.001648960,0.999567540,0.021302000,0.054734000,-0.002716000,0.000054934,-0.000020998,-0.000263093,-0.000971044,-0.019303638,0.003798566,0.012594948,0.002057253,0.999355246,-0.003608231,-0.001618099,-0.003163584,0.000000000,0.000000000,0.000000000,0.000000000,0.016584291,0.008169941,0.054456182,0.053242133,-0.014206735,-0.000387815,0.016000733,-0.003728889,-0.000345056,0.317445720,-0.197288593,-0.105750144,0.002771814,0.001719105,-0.000927608,0.999993265,0.000000000,0.000000000,0.000000000,0.000000000,0.000000000,0.000000000,-0.187860161,0.000000000,3.980058670
1772688730.415955544,0.016060000,0.008322000,0.054458000,0.010701410,0.027072240,-0.001624460,0.999574880,0.021339000,0.054183000,-0.002672000,0.000434519,-0.000250971,-0.000081488,-0.001812976,-0.013970232,0.006972821,0.013643669,0.001357625,0.999141733,-0.000514603,0.000274293,0.001118971,0.000000000,0.000000000,0.000000000,0.000000000,0.016583169,0.008170763,0.054457420,0.053268284,-0.014270605,-0.000289783,0.017105284,-0.003721417,-0.000753711,0.317282792,-0.196877760,-0.106033841,0.002770393,0.001715514,-0.000930071,0.999993265,0.000000000,0.000000000,0.000000000,0.000000000,0.000000000,0.000000000,-0.187860161,0.000000000,3.980058670
1772688730.425955296,0.016085000,0.008308000,0.054443000,0.010940300,0.026871740,-0.001410660,0.999578030,0.021829000,0.053778000,-0.002235000,0.000466356,-0.000371135,0.000139355,-0.004145965,-0.005083983,0.006901987,0.013387735,0.000504549,0.999606952,-0.001194129,0.000085014,0.000006040,0.000000000,0.000000000,0.000000000,0.000000000,0.016580747,0.008167643,0.054463630,0.053316339,-0.014261937,-0.000275457,0.017296522,-0.005271182,-0.000327346,0.317826117,-0.197669074,-0.105753286,0.002775136,0.001722422,-0.000927650,0.999993265,0.000000000,0.000000000,0.000000000,0.000000000,0.000000000,0.000000000,-0.187860161,0.000000000,3.980058670
1772688730.435955286,0.016095000,0.008288000,0.054465000,0.010880400,0.026998050,-0.001314370,0.999575410,0.021714000,0.054028000,-0.002043000,0.000020998,-0.000886520,0.001184597,-0.023433692,0.032058633,0.000340478,0.012845794,0.001156141,1.000450447,-0.000791355,0.000686180,-0.001524823,0.000000000,0.000000000,0.000000000,0.000000000,0.016585389,0.008168286,0.054466848,0.053487739,-0.014247060,-0.000341713,0.016267406,-0.003845062,0.000770336,0.316665781,-0.196935221,-0.105763501,0.002765005,0.001716027,-0.000927704,0.999993303,0.000000000,0.000000000,0.000000000,0.000000000,0.000000000,0.000000000,-0.187860161,0.000000000,3.980058670
1772688730.445955276,0.016073000,0.008301000,0.054459000,0.010717320,0.027202520,-0.001302910,0.999571640,0.021388000,0.054437000,-0.002025000,0.000270843,-0.000008061,-0.000096465,0.000573962,0.006595144,0.003427996,0.013000301,0.002578400,1.001043165,0.003024751,0.003494149,0.000722143,0.000000000,0.000000000,0.000000000,0.000000000,0.016583523,0.008173687,0.054463370,0.053628773,-0.014361187,-0.000377487,0.016057409,-0.003023413,0.001361164,0.316889795,-0.197294280,-0.106280600,0.002766970,0.001719146,-0.000932228,0.999993293,0.000000000,0.000000000,0.000000000,0.000000000,0.000000000,0.000000000,-0.187860161,0.000000000,3.980058670
1772688730.455955505,0.016069000,0.008300000,0.054477000,0.010618800,0.027223950,-0.001568310,0.999571730,0.021176000,0.054485000,-0.002561000,-0.000027156,0.001012122,-0.001141338,0.031702985,-0.039836464,0.006917640,0.012668248,0.001382344,1.000204139,0.001942757,0.002535607,0.001673973,0.000000000,0.000000000,0.000000000,0.000000000,0.016579749,0.008175835,0.054470843,0.053679840,-0.014313805,-0.000253932,0.015770650,-0.004524734,-0.000069566,0.318061939,-0.197952140,-0.104863658,0.002777183,0.001724912,-0.000919897,0.999993233,0.000000000,0.000000000,0.000000000,0.000000000,0.000000000,0.000000000,-0.187860161,0.000000000,3.980058670
1772688730.465955496,0.016072000,0.008303000,0.054475000,0.010620160,0.027262740,-0.001493520,0.999570770,0.021183000,0.054561000,-0.002410000,-0.000002700,0.001324516,-0.001562841,0.056253941,-0.076661100,0.013928440,0.012460749,-0.000467547,0.999303194,-0.001608569,0.001585058,0.000026014,0.000000000,0.000000000,0.000000000,0.000000000,0.016602556,0.008211629,0.054406586,0.053809976,-0.014152088,-0.000421872,0.016246693,-0.006533074,-0.000983888,0.317856208,-0.198782181,-0.104533918,0.002775390,0.001732165,-0.000917036,0.999993250,0.000000000,0.000000000,0.000000000,0.000000000,0.000000000,0.000000000,-0.187860161,0.000000000,3.980058670
1772688730.475955486,0.016077000,0.008298000,0.054465000,0.010822430,0.027194550,-0.001341770,0.999570670,0.021596000,0.054422000,-0.002097000,0.000173368,0.000792988,-0.001322631,0.065436540,-0.080613303,0.023084716,0.012481641,-0.001060290,1.001740345,0.001329737,-0.001259180,-0.001692255,0.000000000,0.000000000,0.000000000,0.000000000,0.016599039,0.008199545,0.054417040,0.053801806,-0.014406945,-0.000458650,0.016106954,-0.006361177,0.002822139,0.317343266,-0.200225978,-0.105656992,0.002770942,0.001744741,-0.000926864,0.999993207,0.000000000,0.000000000,0.000000000,0.000000000,0.000000000,0.000000000,-0.187860161,0.000000000,3.980058670
1772688730.485955477,0.016108000,0.008383000,0.054338000,0.012407870,0.024996180,-0.001027550,0.999610010,0.024788000,0.050019000,-0.001436000,0.000089025,-0.000573835,0.000297203,0.028313121,-0.025963748,0.019590257,0.013098331,-0.000207567,1.002005434,-0.001457383,0.003663392,0.001614241,0.000000000,0.000000000,0.000000000,0.000000000,0.016596233,0.008183251,0.054437015,0.053853200,-0.014753571,-0.000323288,0.017129987,-0.006100791,0.002317219,0.318000411,-0.199523735,-0.106945929,0.002776691,0.001738577,-0.000938105,0.999993205,0.000000000,0.000000000,0.000000000,0.000000000,0.000000000,0.000000000,-0.187860161,0.000000000,3.980058670
1772688730.495955467,0.016074000,0.008325000,0.054430000,0.011893150,0.025525410,-0.001021100,0.999602900,0.023758000,0.051077000,-0.001436000,0.000331605,-0.000375758,-0.000021368,0.015659359,-0.011010557,0.016163571,0.013184920,0.002304305,1.000849036,0.000273307,0.001248275,-0.002008165,0.000000000,0.000000000,0.000000000,0.000000000,0.016598300,0.008169006,0.054449536,0.053956627,-0.015057907,-0.000013480,0.016574446,-0.003455853,0.000592950,0.316768205,-0.201182283,-0.106219108,0.002765940,0.001753078,-0.000931784,0.999993205,0.000000000,0.000000000,0.000000000,0.000000000,0.000000000,0.000000000,-0.187860161,0.000000000,3.980058670
1772688730.505954742,0.016075000,0.008300000,0.054463000,0.011531470,0.026321630,-0.001095240,0.999586410,0.023030000,0.052671000,-0.001585000,0.000144095,-0.000209946,0.000387627,0.001564569,0.005354064,0.001301716,0.014876304,0.004191079,0.997651046,-0.002257146,0.004086834,-0.001608225,0.000000000,0.000000000,0.000000000,0.000000000,0.016597308,0.008161567,0.054458376,0.054063302,-0.015165453,0.000187871,0.018057036,-0.002078002,-0.002112805,0.316002363,-0.202161465,-0.106012324,0.002759261,0.001761634,-0.000929991,0.999993217,0.000000000,0.000000000,0.000000000,0.000000000,0.000000000,0.000000000,-0.187860161,0.000000000,3.980058670
1772688730.515954733,0.016080000,0.008288000,0.054469000,0.011264960,0.026788260,-0.001103200,0.999577050,0.022495000,0.053604000,-0.001604000,0.000130808,-0.000179138,0.000548893,-0.010167113,0.015910047,-0.006494385,0.013177526,0.002823259,0.998403125,-0.000157132,-0.002203109,0.001201935,0.000000000,0.000000000,0.000000000,0.000000000,0.016602977,0.008180764,0.054429850,0.054230994,-0.014990276,0.000001781,0.016864680,-0.002661524,-0.001502045,0.315002485,-0.202446394,-0.105907773,0.002750537,0.001764131,-0.000929070,0.999993265,0.000000000,0.000000000,0.000000000,0.000000000,0.000000000,0.000000000,-0.187860161,0.000000000,3.980058670
1772688730.525954247,0.016088000,0.008291000,0.054467000,0.011004930,0.026962650,-0.001210490,0.999575130,0.021969000,0.053955000,-0.001829000,0.000016434,-0.000119289,0.000081119,-0.008801900,0.010223605,-0.005624608,0.011361128,0.000938461,1.000128042,-0.001226482,0.002950020,0.003029761,0.000000000,0.000000000,0.000000000,0.000000000,0.016609562,0.008194258,0.054407211,0.054421883,-0.014780595,-0.000282268,0.015036017,-0.004553340,0.000459432,0.313444563,-0.202523179,-0.105583677,0.002736937,0.001764821,-0.000926220,0.999993271,0.000000000,0.000000000,0.000000000,0.000000000,0.000000000,0.000000000,-0.187860161,0.000000000,3.980058670
1772688730.535954475,0.016116000,0.008377000,0.054353000,0.012424360,0.025015470,-0.001006640,0.999609350,0.024822000,0.050057000,-0.001393000,-0.000314977,0.000845591,-0.000964453,0.010242541,-0.021703069,-0.008852412,0.011427509,0.000797439,0.999372027,-0.001282226,0.001150616,0.002225365,0.000000000,0.000000000,0.000000000,0.000000000,0.016606189,0.008185511,0.054424399,0.054469792,-0.014736221,-0.000307667,0.015024212,-0.004621694,-0.000971965,0.311774714,-0.202511369,-0.104036530,0.002722341,0.001764769,-0.000912692,0.999993324,0.000000000,0.000000000,0.000000000,0.000000000,0.000000000,0.000000000,-0.187860161,0.000000000,3.980058670
1772688730.545953512,0.016063000,0.008321000,0.054457000,0.011668840,0.026094720,-0.001258100,0.999590580,0.023296000,0.052221000,-0.001909000,-0.000990929,0.000306449,0.000268765,-0.016193154,0.010711158,-0.020768367,0.011103061,0.001516462,0.999447065,0.000358858,-0.001224025,0.000804805,0.000000000,0.000000000,0.000000000,0.000000000,0.016603609,0.008177935,0.054443727,0.054407097,-0.014816013,-0.000216194,0.014765473,-0.004056938,-0.000572281,0.310928298,-0.202007743,-0.102908450,0.002714933,0.001760407,-0.000902823,0.999993324,0.000000000,0.000000000,0.000000000,0.000000000,0.000000000,0.000000000,-0.187860161,0.000000000,3.980058670
1772688730.555953503,0.016077000,0.008303000,0.054449000,0.011377550,0.026300410,-0.001244440,0.999588560,0.022714000,0.052632000,-0.001892000,-0.001090774,-0.000368085,0.001224749,-0.044777145,0.059527559,-0.030946800,0.011447763,0.001789605,0.999940239,0.000324743,-0.002761093,-0.002288948,0.000000000,0.000000000,0.000000000,0.000000000,0.016608687,0.008178425,0.054445439,0.054365428,-0.014870239,-0.000266926,0.014966774,-0.003831035,0.000199640,0.311206013,-0.200352477,-0.103314465,0.002717350,0.001745950,-0.000906331,0.999993368,0.000000000,0.000000000,0.000000000,0.000000000,0.000000000,0.000000000,-0.187860161,0.000000000,3.980058670
1772688730.565953493,0.016053000,0.008307000,0.054451000,0.011110150,0.026740260,-0.001378210,0.999579720,0.022171000,0.053514000,-0.002164000,-0.000819270,-0.000671737,0.001642348,-0.061708454,0.094585144,-0.034551938,0.012289788,0.002182116,0.999706076,-0.000885753,-0.000178436,-0.002977164,0.000000000,0.000000000,0.000000000,0.000000000,0.016592138,0.008259213,0.054374646,0.054166060,-0.014611762,-0.000604102,0.015574313,-0.003154140,-0.000290419,0.311356415,-0.199660428,-0.104628116,0.002718677,0.001739879,-0.000917781,0.999993384,0.000000000,0.000000000,0.000000000,0.000000000,0.000000000,0.000000000,-0.187860161,0.000000000,3.980058670
1772688730.575953960,0.016041000,0.008328000,0.054471000,0.010777410,0.027265390,-0.001806890,0.999568500,0.021481000,0.054573000,-0.003029000,-0.000249903,-0.000626768,0.001153614,-0.056048023,0.089772194,-0.025594944,0.012496942,0.002185699,0.999772253,0.000548591,-0.002172881,0.000761320,0.000000000,0.000000000,0.000000000,0.000000000,0.016591296,0.008229006,0.054400589,0.054095578,-0.014719484,-0.000456895,0.015644983,-0.003396163,0.000179592,0.310955897,-0.199150507,-0.105368616,0.002715189,0.001735415,-0.000924225,0.999993384,0.000000000,0.000000000,0.000000000,0.000000000,0.000000000,0.000000000,-0.187860161,0.000000000,3.980058670
1772688730.585953236,0.016061000,0.008308000,0.054479000,0.010553510,0.027622180,-0.001778850,0.999561140,0.021033000,0.055286000,-0.002978000,0.000484266,0.000323990,-0.000483819,-0.011229970,0.021920760,-0.007109570,0.013303259,0.002410365,0.998958868,0.000990124,-0.000576085,0.002705420,0.000000000,0.000000000,0.000000000,0.000000000,0.016590442,0.008217870,0.054415026,0.054093613,-0.014700421,-0.000415262,0.017203259,-0.002804141,-0.000382277,0.310422162,-0.197559619,-0.104612695,0.002710507,0.001721554,-0.000917583,0.999993430,0.000000000,0.000000000,0.000000000,0.000000000,0.000000000,0.000000000,-0.187860161,0.000000000,3.980058670
1772688730.595953941,0.016064000,0.008305000,0.054471000,0.010647880,0.027599830,-0.001720540,0.999560860,0.021225000,0.055240000,-0.002856000,0.000224243,-0.000066259,-0.000135101,-0.004953557,0.008886753,-0.001557782,0.012968352,0.001857607,0.998026533,-0.000236416,0.004347293,0.001635257,0.000000000,0.000000000,0.000000000,0.000000000,0.016578329,0.008275327,0.054377764,0.054058387,-0.014472358,-0.000571830,0.015859718,-0.002832146,-0.002154874,0.310644380,-0.197657827,-0.103877034,0.002712436,0.001722426,-0.000911168,0.999993443,0.000000000,0.000000000,0.000000000,0.000000000,0.000000000,0.000000000,-0.187860161,0.000000000,3.980058670
1772688730.605953932,0.016063000,0.008314000,0.054468000,0.010717370,0.027555510,-0.001673400,0.999561420,0.021367000,0.055151000,-0.002759000,0.000411034,-0.000301049,-0.000249748,0.000364716,-0.008122434,0.006935659,0.012375520,0.000193698,0.998716910,-0.000870084,0.003763889,0.000909630,0.000000000,0.000000000,0.000000000,0.000000000,0.016581453,0.008234258,0.054411079,0.054192923,-0.014541090,-0.000514557,0.016154531,-0.005140816,-0.000593971,0.309914470,-0.199876661,-0.101852713,0.002706053,0.001741843,-0.000893544,0.999993443,0.000000000,0.000000000,0.000000000,0.000000000,0.000000000,0.000000000,-0.187860161,0.000000000,3.980058670
1772688730.615954399,0.016065000,0.008301000,0.054456000,0.010731100,0.027313060,-0.001519340,0.999568170,0.021404000,0.054662000,-0.002455000,0.000136694,-0.000133314,-0.000329196,0.008818808,-0.021017280,0.011326036,0.013201838,0.000202249,0.999802062,-0.002303734,0.003721007,0.001233082,0.000000000,0.000000000,0.000000000,0.000000000,0.016586651,0.008198588,0.054436210,0.054247635,-0.014657745,-0.000580831,0.016355846,-0.005622269,0.000123299,0.309017911,-0.200495368,-0.102116814,0.002698238,0.001747243,-0.000895850,0.999993443,0.000000000,0.000000000,0.000000000,0.000000000,0.000000000,0.000000000,-0.187860161,0.000000000,3.980058670
1772688730.625954390,0.016067000,0.008316000,0.054454000,0.010738350,0.027121930,-0.001661980,0.999573070,0.021411000,0.054283000,-0.002744000,-0.000447650,-0.000200738,0.000825020,-0.012508158,0.013305703,-0.000634379,0.014121013,0.002076217,1.000210094,-0.002243469,0.003699974,0.000036244,0.000000000,0.000000000,0.000000000,0.000000000,0.016585561,0.008175788,0.054452888,0.054307920,-0.014884340,-0.000548923,0.018288581,-0.003054327,0.000234777,0.308168806,-0.202364965,-0.101831997,0.002690838,0.001763571,-0.000893395,0.999993443,0.000000000,0.000000000,0.000000000,0.000000000,0.000000000,0.000000000,-0.187860161,0.000000000,3.980058670
1772688730.635954618,0.016055000,0.008302000,0.054474000,0.010556360,0.027626670,-0.001736400,0.999561060,0.021041000,0.055294000,-0.002892000,-0.000007964,0.000493707,-0.000047805,0.004736389,-0.007275760,0.006392992,0.013321444,0.003073616,1.001079171,0.001296683,0.003203342,-0.000781110,0.000000000,0.000000000,0.000000000,0.000000000,0.016592786,0.008162159,0.054460029,0.054462051,-0.015033402,-0.000497699,0.016936725,-0.002545020,0.001257831,0.308420480,-0.201548808,-0.101104706,0.002693017,0.001756464,-0.000887033,0.999993443,0.000000000,0.000000000,0.000000000,0.000000000,0.000000000,0.000000000,-0.187860161,0.000000000,3.980058670
1772688730.645955086,0.016070000,0.008308000,0.054474000,0.010715980,0.027321120,-0.001543520,0.999568080,0.021372000,0.054679000,-0.002504000,0.000292599,0.001060646,-0.001089939,0.038582192,-0.053178052,0.013415027,0.011498789,0.001772010,1.001329490,0.000201987,0.002484012,-0.001299768,0.000000000,0.000000000,0.000000000,0.000000000,0.016598370,0.008162719,0.054460610,0.054734188,-0.014891323,-0.000442008,0.015043668,-0.003934575,0.001233714,0.308693767,-0.201719737,-0.100708516,0.002695397,0.001757963,-0.000883584,0.999993443,0.000000000,0.000000000,0.000000000,0.000000000,0.000000000,0.000000000,-0.187860161,0.000000000,3.980058670
1772688730.655954838,0.016059000,0.008319000,0.054463000,0.010944790,0.027091670,-0.001473460,0.999571950,0.021834000,0.054219000,-0.002356000,0.000394076,0.001227624,-0.001539512,0.060740654,-0.089955663,0.018263691,0.010738128,0.000196830,0.999166373,-0.002487555,0.000069389,-0.001154004,0.000000000,0.000000000,0.000000000,0.000000000,0.016596096,0.008163248,0.054472547,0.054809190,-0.014756863,-0.000259565,0.014056561,-0.005001774,-0.001389578,0.308004290,-0.202183900,-0.101907304,0.002689403,0.001761991,-0.000894046,0.999993443,0.000000000,0.000000000,0.000000000,0.000000000,0.000000000,0.000000000,-0.187860161,0.000000000,3.980058670
1772688730.665955067,0.016052000,0.008318000,0.054482000,0.010649420,0.027467420,-0.001580790,0.999564720,0.021236000,0.054972000,-0.002579000,0.000346446,0.000742969,-0.001362142,0.061788601,-0.095998312,0.015915431,0.011007464,-0.000558985,0.998825253,0.001905497,-0.002618314,-0.000407838,0.000000000,0.000000000,0.000000000,0.000000000,0.016607344,0.008163881,0.054474098,0.054748448,-0.014787897,-0.000170813,0.014319910,-0.005805747,-0.001248359,0.308016117,-0.201017250,-0.102167118,0.002689501,0.001751804,-0.000896286,0.999993485,0.000000000,0.000000000,0.000000000,0.000000000,0.000000000,0.000000000,-0.187860161,0.000000000,3.980058670
1772688730.675955534,0.016102000,0.008388000,0.054346000,0.012295460,0.024985410,-0.001157990,0.999611530,0.024557000,0.050001000,-0.001703000,0.000374884,0.000105672,-0.000736403,0.041790388,-0.071968512,0.006277531,0.012134267,0.000736207,1.000629724,0.001450269,0.000271966,-0.001480160,0.000000000,0.000000000,0.000000000,0.000000000,0.016606440,0.008170089,0.054466790,0.054597056,-0.014910392,-0.000389954,0.015419859,-0.004215863,0.000992697,0.308610432,-0.201323294,-0.101180640,0.002694674,0.001754493,-0.000887694,0.999993460,0.000000000,0.000000000,0.000000000,0.000000000,0.000000000,0.000000000,-0.187860161,0.000000000,3.980058670
1772688730.685955524,0.016073000,0.008334000,0.054421000,0.011963600,0.025359700,-0.001399980,0.999605820,0.023880000,0.050755000,-0.002195000,-0.000091725,-0.001216143,0.001128245,-0.011345414,0.013116633,-0.007624510,0.013097582,0.002408853,1.000695863,0.000977819,0.000657422,0.001528046,0.000000000,0.000000000,0.000000000,0.000000000,0.016606806,0.008170186,0.054457376,0.054518648,-0.015066685,-0.000476272,0.016656301,-0.002993185,0.000518602,0.308336981,-0.200655812,-0.100787380,0.002692277,0.001748680,-0.000884242,0.999993443,0.000000000,0.000000000,0.000000000,0.000000000,0.000000000,0.000000000,-0.187860161,0.000000000,3.980058670
1772688730.695955515,0.016068000,0.008317000,0.054453000,0.011544230,0.025950020,-0.001427420,0.999595560,0.023038000,0.051935000,-0.002258000,0.000020338,-0.000889220,0.000794484,-0.021450126,0.033267513,-0.006469379,0.012206382,0.003491488,0.999655712,0.003222686,-0.000068070,0.003476599,0.000000000,0.000000000,0.000000000,0.000000000,0.016601017,0.008164614,0.054454130,0.054539219,-0.015068071,-0.000379591,0.015592538,-0.002766983,-0.000208436,0.308657308,-0.199980432,-0.100351014,0.002695061,0.001742794,-0.000880423,0.999993443,0.000000000,0.000000000,0.000000000,0.000000000,0.000000000,0.000000000,-0.187860161,0.000000000,3.980058670
1772688730.705955982,0.016070000,0.008305000,0.054464000,0.011296940,0.026550510,-0.001526380,0.999582470,0.022537000,0.053138000,-0.002455000,0.000014433,-0.000390871,0.000138870,-0.007501539,0.024315048,0.004480280,0.011450344,0.003415840,0.999884777,0.001052273,0.001048116,0.002692951,0.000000000,0.000000000,0.000000000,0.000000000,0.016596977,0.008172197,0.054452607,0.054629729,-0.014917640,-0.000344298,0.014809722,-0.002334628,-0.001215416,0.309487383,-0.200536951,-0.099727985,0.002702299,0.001747658,-0.000875012,0.999993443,0.000000000,0.000000000,0.000000000,0.000000000,0.000000000,0.000000000,-0.187860161,0.000000000,3.980058670
1772688730.715956211,0.016079000,0.008301000,0.054458000,0.011131340,0.026669310,-0.001418230,0.999581330,0.022211000,0.053373000,-0.002245000,-0.000168745,0.000194406,-0.000156100,0.005382191,0.012818720,0.012229705,0.011480612,0.001913774,1.000797361,-0.000693385,-0.000802120,-0.000552504,0.000000000,0.000000000,0.000000000,0.000000000,0.016596524,0.008174212,0.054453698,0.054605323,-0.014735812,-0.000383371,0.014636257,-0.004037384,0.001745035,0.309576286,-0.200110664,-0.099048879,0.002703061,0.001743954,-0.000869077,0.999993443,0.000000000,0.000000000,0.000000000,0.000000000,0.000000000,0.000000000,-0.187860161,0.000000000,3.980058670
1772688730.725956678,0.016062000,0.008304000,0.054470000,0.011043080,0.027006290,-0.001437060,0.999573230,0.022033000,0.054048000,-0.002280000,0.000520164,-0.000120610,-0.000318512,0.016130216,-0.005146027,0.027804130,0.012590804,-0.000253897,0.998864286,0.000981698,-0.003928779,-0.002743555,0.000000000,0.000000000,0.000000000,0.000000000,0.016606355,0.008166990,0.054458830,0.054579264,-0.014607914,-0.000411547,0.015894478,-0.005872886,-0.001733789,0.309261591,-0.199589654,-0.100500945,0.002700333,0.001739375,-0.000881731,0.999993443,0.000000000,0.000000000,0.000000000,0.000000000,0.000000000,0.000000000,-0.187860161,0.000000000,3.980058670
1772688730.735956430,0.016095000,0.008383000,0.054343000,0.012540230,0.024849330,-0.001092960,0.999611950,0.025050000,0.049727000,-0.001564000,0.000050369,0.001226963,-0.001020844,0.035856569,-0.050660087,0.009959694,0.014135245,-0.001966129,0.997233494,0.002343138,-0.004033050,-0.001656717,0.000000000,0.000000000,0.000000000,0.000000000,0.016611376,0.008166674,0.054458525,0.054536241,-0.014625084,-0.000275050,0.017211189,-0.006382032,-0.002040923,0.308567322,-0.198375561,-0.099407026,0.002694249,0.001728811,-0.000872146,0.999993476,0.000000000,0.000000000,0.000000000,0.000000000,0.000000000,0.000000000,-0.187860161,0.000000000,3.980058670
1772688730.745955944,0.016078000,0.008324000,0.054429000,0.012217980,0.025441900,-0.001002660,0.999601130,0.024409000,0.050910000,-0.001385000,-0.000316589,0.001871078,-0.001180013,0.048298297,-0.080109270,-0.010026152,0.013756568,-0.001070193,0.999456254,0.001606259,-0.000664721,0.001301370,0.000000000,0.000000000,0.000000000,0.000000000,0.016613987,0.008164241,0.054455730,0.054618891,-0.014852109,-0.000490803,0.017512757,-0.006943620,-0.000963861,0.308261738,-0.198417617,-0.099659903,0.002691586,0.001729175,-0.000874349,0.999993503,0.000000000,0.000000000,0.000000000,0.000000000,0.000000000,0.000000000,-0.187860161,0.000000000,3.980058670
1772688730.755955935,0.016062000,0.008317000,0.054469000,0.011595220,0.026253830,-0.001269580,0.999587250,0.023148000,0.052540000,-0.001932000,-0.000297494,0.000440676,0.000101845,0.024714208,-0.049256241,-0.022130204,0.014161742,-0.000266025,0.999331114,0.001318997,-0.001565344,-0.000390263,0.000000000,0.000000000,0.000000000,0.000000000,0.016613354,0.008159438,0.054455344,0.054778794,-0.015104486,-0.000635037,0.016927798,-0.004883571,-0.000845319,0.308665538,-0.198799907,-0.099435007,0.002695110,0.001732513,-0.000872402,0.999993503,0.000000000,0.000000000,0.000000000,0.000000000,0.000000000,0.000000000,-0.187860161,0.000000000,3.980058670
1772688730.765956402,0.016088000,0.008307000,0.054465000,0.011342660,0.026373480,-0.001385460,0.999586850,0.022636000,0.052781000,-0.002175000,-0.000540599,0.001490639,-0.000583314,0.028832185,-0.059572956,-0.036940804,0.012233270,0.002626803,0.999780593,0.000498854,-0.000966312,-0.005002270,0.000000000,0.000000000,0.000000000,0.000000000,0.016611857,0.008155998,0.054448360,0.054936698,-0.015378684,-0.000719131,0.016039638,-0.003323906,-0.000892370,0.309362804,-0.198740110,-0.100390888,0.002701208,0.001731963,-0.000880753,0.999993479,0.000000000,0.000000000,0.000000000,0.000000000,0.000000000,0.000000000,-0.187860161,0.000000000,3.980058670
1772688730.775956392,0.016046000,0.008495000,0.054300000,0.013264550,0.023332810,-0.002007140,0.999637740,0.026458000,0.046719000,-0.003398000,-0.000770261,0.001835375,-0.000796951,0.033417953,-0.064286045,-0.046923079,0.012005168,0.000429206,0.999214105,-0.002555058,-0.002309783,0.000109966,0.000000000,0.000000000,0.000000000,0.000000000,0.016608490,0.008163361,0.054444017,0.055018916,-0.015330972,-0.000784791,0.015171820,-0.004368448,-0.000609931,0.309872380,-0.197822166,-0.100736055,0.002705653,0.001723941,-0.000883751,0.999993443,0.000000000,0.000000000,0.000000000,0.000000000,0.000000000,0.000000000,-0.187860161,0.000000000,3.980058670
1772688730.785956383,0.016062000,0.008348000,0.054426000,0.012575750,0.024599640,-0.001763610,0.999616730,0.025088000,0.049245000,-0.002911000,-0.000279390,0.001575681,-0.001292367,0.045812539,-0.079283627,-0.033326913,0.012102968,0.001160859,0.998757778,-0.005016381,-0.001445725,0.000810391,0.000000000,0.000000000,0.000000000,0.000000000,0.016598641,0.008175103,0.054448549,0.054975764,-0.015269965,-0.000796234,0.015477257,-0.004641251,-0.001254499,0.308805108,-0.196888634,-0.100294870,0.002696326,0.001715813,-0.000879863,0.999993486,0.000000000,0.000000000,0.000000000,0.000000000,0.000000000,0.000000000,-0.187860161,0.000000000,3.980058670
1772688730.795955658,0.016067000,0.008322000,0.054454000,0.012036700,0.025310510,-0.001742680,0.999605650,0.024009000,0.050665000,-0.002878000,-0.000292444,-0.000504021,0.000606411,0.002466747,-0.010838240,-0.017712051,0.012054995,0.001874216,0.998000748,-0.002221511,-0.002606284,-0.000813088,0.000000000,0.000000000,0.000000000,0.000000000,0.016602623,0.008171431,0.054455882,0.054939865,-0.015307992,-0.000804504,0.015875590,-0.003822135,-0.001303014,0.307995207,-0.195824142,-0.100254237,0.002689250,0.001706531,-0.000879471,0.999993563,0.000000000,0.000000000,0.000000000,0.000000000,0.000000000,0.000000000,-0.187860161,0.000000000,3.980058670
1772688730.805955887,0.016037000,0.008499000,0.054328000,0.013188590,0.023532790,-0.002331240,0.999633350,0.026290000,0.047127000,-0.004045000,-0.000134130,-0.002319777,0.002203479,-0.058310440,0.084941105,-0.002120933,0.011827072,0.002628853,0.999406021,-0.001918938,0.000988729,-0.001378444,0.000000000,0.000000000,0.000000000,0.000000000,0.016610359,0.008164461,0.054459161,0.054938049,-0.015348310,-0.000878195,0.015174324,-0.002438063,-0.000079904,0.307451717,-0.194991722,-0.099927305,0.002684496,0.001699278,-0.000876590,0.999993563,0.000000000,0.000000000,0.000000000,0.000000000,0.000000000,0.000000000,-0.187860161,0.000000000,3.980058670
1772688730.815956354,0.016055000,0.008344000,0.054444000,0.012205970,0.024865860,-0.002158870,0.999613950,0.024328000,0.049786000,-0.003714000,0.000419853,-0.002957773,0.002267912,-0.089595993,0.134920530,0.012923159,0.010799973,0.001793695,1.000840991,0.000496988,-0.000004027,0.002782708,0.000000000,0.000000000,0.000000000,0.000000000,0.016612804,0.008160022,0.054458292,0.054918532,-0.015291670,-0.000976882,0.014565387,-0.004314776,0.000623975,0.306013479,-0.195201158,-0.098668518,0.002671927,0.001701146,-0.000865589,0.999993565,0.000000000,0.000000000,0.000000000,0.000000000,0.000000000,0.000000000,-0.187860161,0.000000000,3.980058670
1772688730.825957060,0.016065000,0.008310000,0.054463000,0.011632220,0.025771000,-0.001839380,0.999598500,0.023193000,0.051587000,-0.003082000,0.000108547,-0.001534267,0.001016260,-0.074112590,0.117759531,0.015110331,0.012149756,0.003730817,1.001816857,-0.000067842,-0.001024616,-0.001108655,0.000000000,0.000000000,0.000000000,0.000000000,0.016605671,0.008163390,0.054455231,0.054768601,-0.015173488,-0.000954665,0.014736015,-0.002226542,0.001508893,0.305239408,-0.195573226,-0.097898944,0.002665164,0.001704417,-0.000858870,0.999993622,0.000000000,0.000000000,0.000000000,0.000000000,0.000000000,0.000000000,-0.187860161,0.000000000,3.980058670
1772688730.835956335,0.016053000,0.008298000,0.054476000,0.011085800,0.026669630,-0.001774170,0.999581260,0.022101000,0.053382000,-0.002960000,0.000450758,-0.002316047,0.001822554,-0.086103394,0.143147223,0.021138775,0.012155085,0.002641280,0.999427833,0.001014726,-0.000537300,0.000469038,0.000000000,0.000000000,0.000000000,0.000000000,0.016599128,0.008166122,0.054451264,0.054608830,-0.015040393,-0.000807538,0.015393860,-0.002419881,-0.000185410,0.304826653,-0.195673993,-0.097960890,0.002661564,0.001705298,-0.000859407,0.999993622,0.000000000,0.000000000,0.000000000,0.000000000,0.000000000,0.000000000,-0.187860161,0.000000000,3.980058670
1772688730.845956326,0.016069000,0.008293000,0.054473000,0.010890480,0.027210280,-0.001580920,0.999569160,0.021719000,0.054458000,-0.002572000,0.000482265,-0.001311870,0.001313171,-0.073888327,0.122646066,0.017828857,0.012059330,0.001738815,1.000168341,-0.002649001,-0.002635896,-0.001513027,0.000000000,0.000000000,0.000000000,0.000000000,0.016602976,0.008165400,0.054449769,0.054563296,-0.014863703,-0.000702889,0.015098348,-0.003193875,-0.000778915,0.304754871,-0.194947883,-0.098174095,0.002660935,0.001698957,-0.000861250,0.999993635,0.000000000,0.000000000,0.000000000,0.000000000,0.000000000,0.000000000,-0.187860161,0.000000000,3.980058670
1772688730.855956316,0.016072000,0.008310000,0.054463000,0.010862160,0.027217490,-0.001617660,0.999569210,0.021661000,0.054474000,-0.002647000,0.000270066,0.001296971,-0.000566823,-0.024223469,0.039796104,0.003192483,0.011661102,0.000688001,1.000221896,0.001794903,0.004473687,-0.000309986,0.000000000,0.000000000,0.000000000,0.000000000,0.016606475,0.008164235,0.054452164,0.054534515,-0.014745696,-0.000694030,0.015319317,-0.004278497,0.000102374,0.304794937,-0.194881512,-0.098314421,0.002661286,0.001698374,-0.000862473,0.999993678,0.000000000,0.000000000,0.000000000,0.000000000,0.000000000,0.000000000,-0.187860161,0.000000000,3.980058670
1772688730.865956068,0.016058000,0.008309000,0.054489000,0.010501700,0.027722580,-0.001688140,0.999559060,0.020934000,0.055485000,-0.002797000,0.000285665,0.000549729,-0.000343338,-0.013309495,0.011564351,0.003967660,0.012682307,0.001661912,1.000401677,-0.001637733,-0.003121919,-0.002615502,0.000000000,0.000000000,0.000000000,0.000000000,0.016608148,0.008162652,0.054457317,0.054477904,-0.014709182,-0.000679668,0.016082102,-0.003977200,0.000703829,0.304437612,-0.196113668,-0.098766530,0.002658184,0.001709119,-0.000866442,0.999993625,0.000000000,0.000000000,0.000000000,0.000000000,0.000000000,0.000000000,-0.187860161,0.000000000,3.980058670
1772688730.875956774,0.016084000,0.008308000,0.054478000,0.010495050,0.027624360,-0.001651220,0.999561920,0.020923000,0.055287000,-0.002725000,0.000120940,0.000348932,-0.000518143,-0.004784028,-0.003634720,0.010447095,0.013579049,0.002314080,0.999911881,0.000169262,-0.000839852,0.004810821,0.000000000,0.000000000,0.000000000,0.000000000,0.016608150,0.008164760,0.054462858,0.054431573,-0.014719228,-0.000586225,0.016980359,-0.002509279,-0.000076437,0.303582006,-0.194402369,-0.098246097,0.002650697,0.001694204,-0.000861848,0.999993682,0.000000000,0.000000000,0.000000000,0.000000000,0.000000000,0.000000000,-0.187860161,0.000000000,3.980058670
1772688730.885956287,0.016071000,0.008321000,0.054464000,0.010629470,0.027389860,-0.001517210,0.999567160,0.021200000,0.054816000,-0.002455000,-0.000353205,0.000327642,-0.000613715,0.001295830,-0.014466078,0.010204983,0.014309300,0.001470541,1.001286435,-0.001406283,0.000758929,-0.000554046,0.000000000,0.000000000,0.000000000,0.000000000,0.016599683,0.008169116,0.054468422,0.054445090,-0.014615832,-0.000520281,0.017274802,-0.003660384,0.000635523,0.303447063,-0.192958504,-0.097866693,0.002649503,0.001681614,-0.000858502,0.999993696,0.000000000,0.000000000,0.000000000,0.000000000,0.000000000,0.000000000,-0.187860161,0.000000000,3.980058670
1772688730.895956755,0.016076000,0.008319000,0.054453000,0.010657020,0.027282610,-0.001452830,0.999569900,0.021259000,0.054600000,-0.002326000,-0.000284538,0.000099922,-0.000518454,0.012987395,-0.018267068,0.012167217,0.013924273,0.001277436,0.998483862,-0.003464449,-0.004610108,-0.000995137,0.000000000,0.000000000,0.000000000,0.000000000,0.016614778,0.008165320,0.054465954,0.054536610,-0.014500939,-0.000456991,0.016744244,-0.004080327,-0.000638812,0.302695127,-0.191871364,-0.097953785,0.002642934,0.001672130,-0.000859226,0.999993742,0.000000000,0.000000000,0.000000000,0.000000000,0.000000000,0.000000000,-0.187860161,0.000000000,3.980058670
1772688730.905957460,0.016063000,0.008304000,0.054455000,0.010582860,0.027464900,-0.001335110,0.999565860,0.021117000,0.054962000,-0.002091000,-0.000115210,0.000041201,-0.000285101,0.023079897,-0.026389071,0.007093778,0.012909043,0.001645590,1.000088464,-0.002140182,0.001716431,-0.001641444,0.000000000,0.000000000,0.000000000,0.000000000,0.016618006,0.008165939,0.054455785,0.054587161,-0.014453488,-0.000484746,0.016438143,-0.003489765,0.000107049,0.301045126,-0.191437365,-0.098488578,0.002628540,0.001668343,-0.000863859,0.999993759,0.000000000,0.000000000,0.000000000,0.000000000,0.000000000,0.000000000,-0.187860161,0.000000000,3.980058670
1772688730.915957689,0.016060000,0.008326000,0.054454000,0.010747740,0.027325350,-0.001403490,0.999567830,0.021443000,0.054685000,-0.002222000,0.000089044,-0.000124320,0.000164588,0.022563658,-0.017777720,0.001305001,0.011816624,0.001542709,1.001764584,-0.000197647,0.000649325,0.001089524,0.000000000,0.000000000,0.000000000,0.000000000,0.016616038,0.008165689,0.054449341,0.054603056,-0.014429431,-0.000575776,0.015279779,-0.003427713,0.001162140,0.299827771,-0.191963663,-0.098931821,0.002617927,0.001672935,-0.000867721,0.999993801,0.000000000,0.000000000,0.000000000,0.000000000,0.000000000,0.000000000,-0.187860161,0.000000000,3.980058670
1772688730.925958395,0.016060000,0.008324000,0.054457000,0.010923580,0.026966520,-0.001499230,0.999575530,0.021790000,0.053969000,-0.002412000,0.000533878,-0.000302700,0.000351127,0.019019666,-0.012657533,-0.000459023,0.010705954,0.001890775,0.999124690,-0.002618922,0.001375173,0.003678380,0.000000000,0.000000000,0.000000000,0.000000000,0.016611920,0.008162526,0.054455746,0.054580835,-0.014389142,-0.000457417,0.014090594,-0.003707551,-0.000286394,0.298886371,-0.192340956,-0.098745792,0.002609712,0.001676239,-0.000866092,0.999993801,0.000000000,0.000000000,0.000000000,0.000000000,0.000000000,0.000000000,-0.187860161,0.000000000,3.980058670
1772688730.935959578,0.016084000,0.008303000,0.054468000,0.011077990,0.027102910,-0.001385630,0.999570300,0.022106000,0.054240000,-0.002173000,0.000545144,-0.000449223,0.000146387,0.015066065,-0.012249742,0.003410110,0.012036192,0.002195184,0.998760356,-0.000813092,0.002288049,0.004055658,0.000000000,0.000000000,0.000000000,0.000000000,0.016618946,0.008184892,0.054428378,0.054442394,-0.014275042,-0.000511212,0.015165021,-0.003467878,-0.001413434,0.298024092,-0.192806494,-0.098092253,0.002602181,0.001680322,-0.000860387,0.999993816,0.000000000,0.000000000,0.000000000,0.000000000,0.000000000,0.000000000,-0.187860161,0.000000000,3.980058670
1772688730.945960045,0.016085000,0.008309000,0.054461000,0.011087770,0.026909320,-0.001419890,0.999575380,0.022124000,0.053853000,-0.002245000,0.000506566,-0.000456178,-0.000237335,0.011185719,-0.008225649,0.011167018,0.012960087,0.001766111,0.997623027,0.001263066,0.000151023,-0.005778296,0.000000000,0.000000000,0.000000000,0.000000000,0.016617753,0.008192457,0.054420342,0.054226338,-0.014209536,-0.000598881,0.016766197,-0.002935029,-0.002193086,0.297737899,-0.193334181,-0.098277812,0.002599690,0.001684925,-0.000862014,0.999993844,0.000000000,0.000000000,0.000000000,0.000000000,0.000000000,0.000000000,-0.187860161,0.000000000,3.980058670
1772688730.955961227,0.016084000,0.008306000,0.054456000,0.011059810,0.027100460,-0.001335000,0.999570640,0.022072000,0.054234000,-0.002072000,-0.000244872,0.000021737,-0.000398602,0.000757673,0.000877394,0.006645302,0.014803355,0.002449129,0.998299504,-0.004117845,-0.001411092,0.000423068,0.000000000,0.000000000,0.000000000,0.000000000,0.016608748,0.008187954,0.054433016,0.054124340,-0.014172635,-0.000696645,0.017747299,-0.002690484,-0.001086495,0.297423372,-0.193639881,-0.099030357,0.002596959,0.001687578,-0.000868584,0.999993801,0.000000000,0.000000000,0.000000000,0.000000000,0.000000000,0.000000000,-0.187860161,0.000000000,3.980058670
1772688730.965961695,0.016078000,0.008300000,0.054461000,0.010973850,0.027092570,-0.001297550,0.999571850,0.021902000,0.054217000,-0.002002000,-0.000631275,0.000534713,-0.000187238,-0.004818930,0.005404715,-0.003684510,0.013623312,0.002340705,1.000083433,-0.001107117,0.009791880,0.002948667,0.000000000,0.000000000,0.000000000,0.000000000,0.016600541,0.008182594,0.054435132,0.054195588,-0.014093080,-0.000852352,0.017018481,-0.003033844,-0.000407517,0.296726657,-0.195143904,-0.098881812,0.002590888,0.001700712,-0.000867311,0.999993801,0.000000000,0.000000000,0.000000000,0.000000000,0.000000000,0.000000000,-0.187860161,0.000000000,3.980058670
1772688730.975962639,0.016074000,0.008302000,0.054444000,0.011090730,0.026946570,-0.001256290,0.999574560,0.022138000,0.053924000,-0.001917000,-0.000487025,0.000557246,0.000087529,-0.005530763,0.002653736,-0.009550535,0.012590093,0.001181235,1.001062594,0.002881058,-0.000843965,0.002299314,0.000000000,0.000000000,0.000000000,0.000000000,0.016593429,0.008175516,0.054436384,0.054296599,-0.014039343,-0.000895066,0.016416701,-0.003780889,0.000531848,0.297244337,-0.196532685,-0.098744512,0.002595414,0.001712831,-0.000866152,0.999993784,0.000000000,0.000000000,0.000000000,0.000000000,0.000000000,0.000000000,-0.187860161,0.000000000,3.980058670
1772688730.985962868,0.016067000,0.008326000,0.054448000,0.011134510,0.027022370,-0.001310660,0.999571960,0.022223000,0.054077000,-0.002021000,-0.000047086,0.000133178,0.000468415,-0.004488101,0.004897676,-0.010507050,0.012270021,-0.000000555,1.000855993,-0.004355749,0.001047381,-0.002001445,0.000000000,0.000000000,0.000000000,0.000000000,0.016594132,0.008171219,0.054441589,0.054364917,-0.013992927,-0.000855954,0.016036582,-0.005093443,0.001326857,0.296942820,-0.197496779,-0.098647253,0.002592788,0.001721248,-0.000865321,0.999993753,0.000000000,0.000000000,0.000000000,0.000000000,0.000000000,0.000000000,-0.187860161,0.000000000,3.980058670
1772688730.995964289,0.016048000,0.008339000,0.054464000,0.010888110,0.027103590,-0.001703800,0.999571880,0.021708000,0.054248000,-0.002820000,0.000130653,0.000050214,0.000479119,-0.007648312,0.004960444,-0.011750191,0.013005916,0.000913118,1.000021927,0.003144533,-0.001564658,0.000935632,0.000000000,0.000000000,0.000000000,0.000000000,0.016592202,0.008172681,0.054452127,0.054370707,-0.014054555,-0.000653926,0.016001674,-0.004391558,-0.000138930,0.296018721,-0.197953024,-0.098995332,0.002584733,0.001725229,-0.000868355,0.999993801,0.000000000,0.000000000,0.000000000,0.000000000,0.000000000,0.000000000,-0.187860161,0.000000000,3.980058670
1772688731.005965233,0.016082000,0.008306000,0.054477000,0.010922900,0.027196440,-0.001526440,0.999569260,0.021787000,0.054430000,-0.002461000,-0.000004817,-0.000139006,0.000312782,-0.011471625,0.013219799,-0.013560328,0.012250096,0.000891816,1.000001322,0.000892970,-0.003593672,-0.003305634,0.000000000,0.000000000,0.000000000,0.000000000,0.016601839,0.008167034,0.054464725,0.054407528,-0.014183920,-0.000540723,0.015894086,-0.004263024,-0.000430522,0.296349767,-0.196802043,-0.100159895,0.002587631,0.001715156,-0.000878496,0.999993801,0.000000000,0.000000000,0.000000000,0.000000000,0.000000000,0.000000000,-0.187860161,0.000000000,3.980058670
1772688731.015965700,0.016086000,0.008305000,0.054465000,0.010940480,0.027122060,-0.001433870,0.999571230,0.021828000,0.054279000,-0.002276000,0.000050019,-0.000300059,-0.000009615,-0.009827965,0.010732899,-0.007733824,0.012723043,0.001289314,0.998745586,-0.000511208,-0.001739368,-0.003587924,0.000000000,0.000000000,0.000000000,0.000000000,0.016595733,0.008164006,0.054478800,0.054400194,-0.014225441,-0.000445408,0.016077616,-0.004474896,-0.001155348,0.296267557,-0.195407861,-0.100953831,0.002586914,0.001702972,-0.000885392,0.999993832,0.000000000,0.000000000,0.000000000,0.000000000,0.000000000,0.000000000,-0.187860161,0.000000000,3.980058670
