t,px,py,pz,qx,qy,qz,qw,roll,pitch,yaw,vx,vy,vz,wx_vicon,wy_vicon,wz_vicon,imu_acc_x,imu_acc_y,imu_acc_z,imu_gyro_x,imu_gyro_y,imu_gyro_z,motor_motor_m1,motor_motor_m2,motor_motor_m3,motor_motor_m4,est_stateEstimate_x,est_stateEstimate_y,est_stateEstimate_z,est_stateEstimate_vx,est_stateEstimate_vy,est_stateEstimate_vz,est_stateEstimate_ax,est_stateEstimate_ay,est_stateEstimate_az,att_stateEstimate_roll,att_stateEstimate_pitch,att_stateEstimate_yaw,att_stateEstimate_qx,att_stateEstimate_qy,att_stateEstimate_qz,att_stateEstimate_qw,sp_ctrltarget_x,sp_ctrltarget_y,sp_ctrltarget_z,sp_ctrltarget_yaw,pid_controller_roll,pid_controller_pitch,pid_controller_yaw,pid_controller_cmd_thrust,pwr_pm_vbat
1772428021.476987839,0.017445000,0.007425000,0.070974000,-0.007640310,0.001829070,0.000457310,0.999969040,-0.015279000,0.003665000,0.000887000,-0.002345865,-0.000251127,-0.001042250,0.005126423,0.030319807,0.013425841,0.016327010,-0.011249917,0.998390233,-0.000946730,-0.000806212,-0.002059671,0.000000000,0.000000000,0.000000000,0.000000000,0.017890067,0.007382859,0.070960808,0.022935314,-0.001482408,-0.000601635,0.008151579,0.000040937,-0.001052287,-0.620105940,0.484944326,0.047978158,-0.005409593,-0.004234133,0.000395777,0.999975324,0.000000000,0.000000000,0.000000000,0.000000000,0.000000000,0.000000000,0.047019857,0.000000000,4.233431339
1772428021.486988068,0.017436000,0.007423000,0.070976000,-0.007640780,0.001914670,0.000473270,0.999968860,-0.015280000,0.003836000,0.000917000,-0.000172436,-0.000352292,-0.000327215,0.004307665,0.039224859,-0.002644966,0.014967381,-0.012310315,0.998356157,-0.000791110,-0.001488714,-0.001315200,0.000000000,0.000000000,0.000000000,0.000000000,0.017885672,0.007390871,0.070961792,0.022956622,-0.001378534,-0.000684078,0.007708361,-0.001336425,-0.002484326,-0.620328284,0.484261713,0.047072418,-0.005411569,-0.004228134,0.000387897,0.999975324,0.000000000,0.000000000,0.000000000,0.000000000,0.000000000,0.000000000,0.048199587,0.000000000,4.233431339
1772428021.496988058,0.017438000,0.007415000,0.070966000,-0.007601630,0.002196290,0.000454780,0.999968590,-0.015202000,0.004399000,0.000876000,0.000876866,-0.000346698,0.000070688,0.002804395,0.037070364,-0.008147623,0.015233876,-0.015053987,1.000566742,0.000611057,-0.003322348,-0.001007744,0.000000000,0.000000000,0.000000000,0.000000000,0.017880807,0.007392387,0.070958844,0.022876726,-0.001433813,-0.000836858,0.006689985,-0.003119477,-0.000197686,-0.619788529,0.484724435,0.046029075,-0.005406897,-0.004232121,0.000378791,0.999975366,0.000000000,0.000000000,0.000000000,0.000000000,0.000000000,0.000000000,0.046777995,0.000000000,4.233431339
1772428021.506988287,0.017446000,0.007421000,0.070962000,-0.007582420,0.002325070,0.000445500,0.999968450,-0.015163000,0.004657000,0.000856000,0.001081062,-0.000265113,0.000224884,0.001026122,0.027307501,-0.006189265,0.016377833,-0.014453700,0.999804803,0.002895056,-0.001825764,-0.000502351,0.000000000,0.000000000,0.000000000,0.000000000,0.017881170,0.007391018,0.070953338,0.022817102,-0.001671194,-0.000811181,0.007604937,-0.003912942,0.000960870,-0.618411277,0.485649420,0.045335084,-0.005394900,-0.004240155,0.000372742,0.999975383,0.000000000,0.000000000,0.000000000,0.000000000,0.000000000,0.000000000,0.045937012,0.000000000,4.233431339
1772428021.516989946,0.017461000,0.007411000,0.070978000,-0.007591260,0.002489610,0.000328190,0.999968030,-0.015181000,0.004984000,0.000619000,0.000719173,-0.000138306,0.000208800,-0.000616281,0.013387167,0.000122212,0.016641775,-0.010805327,0.999063890,0.001428456,-0.002204085,0.002400223,0.000000000,0.000000000,0.000000000,0.000000000,0.017887771,0.007387013,0.070954563,0.022888847,-0.001834069,-0.000738270,0.008201751,-0.001306866,-0.000270037,-0.616028392,0.485837958,0.045654199,-0.005374093,-0.004241808,0.000375606,0.999975427,0.000000000,0.000000000,0.000000000,0.000000000,0.000000000,0.000000000,0.045274493,0.000000000,4.233431339
1772428021.526989937,0.017462000,0.007412000,0.070978000,-0.007634600,0.002486970,0.000411570,0.999967680,-0.015267000,0.004980000,0.000785000,0.000070222,0.000002953,0.000095863,-0.001704001,-0.001240393,0.007677633,0.018655042,-0.010130340,1.001330880,-0.000240492,-0.000865528,-0.002051674,0.000000000,0.000000000,0.000000000,0.000000000,0.017898571,0.007379577,0.070961573,0.023057060,-0.001853657,-0.000693430,0.009801079,0.000182363,0.001434640,-0.614084257,0.485859142,0.045516073,-0.005357132,-0.004241980,0.000374472,0.999975572,0.000000000,0.000000000,0.000000000,0.000000000,0.000000000,0.000000000,0.045531617,0.000000000,4.233431339
1772428021.536989689,0.017458000,0.007410000,0.070974000,-0.007577750,0.002399120,0.000464510,0.999968300,-0.015154000,0.004805000,0.000893000,-0.000334091,0.000139142,0.000110334,-0.000655002,-0.011542600,0.009784658,0.018193703,-0.010722425,1.000580101,-0.002937373,0.000309867,-0.001755049,0.000000000,0.000000000,0.000000000,0.000000000,0.017901459,0.007378943,0.070962198,0.023339250,-0.001701851,-0.000486147,0.009733957,0.000812876,0.000630361,-0.613717925,0.485511931,0.044538134,-0.005353973,-0.004238903,0.000365968,0.999975622,0.000000000,0.000000000,0.000000000,0.000000000,0.000000000,0.000000000,0.045212045,0.000000000,4.233431339
1772428021.546989918,0.017455000,0.007417000,0.070969000,-0.007604230,0.002347700,0.000592800,0.999968160,-0.015206000,0.004704000,0.001150000,-0.000564919,0.000139919,-0.000066919,0.000595286,-0.012929151,0.007625436,0.017374117,-0.012997499,0.999835445,-0.000853967,-0.000710418,-0.000478060,0.000000000,0.000000000,0.000000000,0.000000000,0.017902508,0.007383402,0.070962093,0.023568633,-0.001580914,-0.000396485,0.008777196,-0.001958069,0.000572612,-0.614610873,0.484449185,0.044224925,-0.005361781,-0.004229617,0.000363251,0.999975622,0.000000000,0.000000000,0.000000000,0.000000000,0.000000000,0.000000000,0.044349211,0.000000000,4.233431339
1772428021.556989908,0.017438000,0.007424000,0.070972000,-0.007677640,0.002149820,0.000559800,0.999968060,-0.015353000,0.004308000,0.001087000,-0.000353594,0.000163229,-0.000131061,0.003428596,-0.005055802,0.000701591,0.017062270,-0.013998795,0.998117476,0.000173281,-0.003404820,-0.000276060,0.000000000,0.000000000,0.000000000,0.000000000,0.017898628,0.007384274,0.070964716,0.023666023,-0.001726514,-0.000378680,0.008383955,-0.003246301,-0.001343159,-0.613999750,0.483928567,0.043583906,-0.005356473,-0.004225042,0.000357704,0.999975645,0.000000000,0.000000000,0.000000000,0.000000000,0.000000000,0.000000000,0.044236196,0.000000000,4.233431339
1772428021.566989899,0.017440000,0.007411000,0.070975000,-0.007531960,0.002380970,0.000570560,0.999968640,-0.015061000,0.004770000,0.001105000,0.000018240,-0.000046018,0.000034751,0.006047923,0.001979880,-0.008799915,0.015892036,-0.011701625,0.997323007,0.000457386,0.001444834,-0.002469352,0.000000000,0.000000000,0.000000000,0.000000000,0.017898131,0.007385244,0.070966212,0.023763116,-0.001844640,-0.000455339,0.008446669,-0.000975470,-0.002664034,-0.613362788,0.484250044,0.042909507,-0.005350939,-0.004227814,0.000351828,0.999975681,0.000000000,0.000000000,0.000000000,0.000000000,0.000000000,0.000000000,0.043326171,0.000000000,4.233431339
1772428021.576989889,0.017449000,0.007421000,0.070975000,-0.007547180,0.002253750,0.000460470,0.999968870,-0.015093000,0.004514000,0.000887000,0.000264899,-0.000150544,0.000110237,0.005592803,0.005515729,-0.009937292,0.017239694,-0.012258289,0.999701086,-0.000197369,-0.002309052,0.000978544,0.000000000,0.000000000,0.000000000,0.000000000,0.017902278,0.007384903,0.070964611,0.023836738,-0.001897386,-0.000655482,0.007937758,-0.001211219,-0.000304953,-0.612851089,0.482829525,0.042140453,-0.005346507,-0.004215380,0.000345202,0.999975751,0.000000000,0.000000000,0.000000000,0.000000000,0.000000000,0.000000000,0.042936889,0.000000000,4.233431339
1772428021.586989880,0.017448000,0.007414000,0.070970000,-0.007559080,0.002346970,0.000420630,0.999968590,-0.015116000,0.004700000,0.000806000,0.000290754,-0.000157285,-0.000033061,0.002900206,0.005321353,-0.007487537,0.018104997,-0.012331363,0.998887406,-0.000615090,-0.000468589,0.002412573,0.000000000,0.000000000,0.000000000,0.000000000,0.017907925,0.007381364,0.070960756,0.023931157,-0.001917254,-0.000713070,0.009240087,-0.001222992,0.000176884,-0.611931342,0.482904124,0.042418017,-0.005338470,-0.004216042,0.000347654,0.999975801,0.000000000,0.000000000,0.000000000,0.000000000,0.000000000,0.000000000,0.042015566,0.000000000,4.233431339
1772428021.596989870,0.017459000,0.007414000,0.070973000,-0.007480320,0.002480070,0.000363020,0.999968880,-0.014959000,0.004965000,0.000689000,0.000056294,0.000059538,-0.000277254,-0.003318245,0.007165479,0.000404715,0.019352942,-0.011818480,0.998426127,0.000468734,-0.003475763,0.001464206,0.000000000,0.000000000,0.000000000,0.000000000,0.017913390,0.007378608,0.070959916,0.024186993,-0.001978056,-0.000752617,0.010787369,-0.001312227,-0.001694752,-0.611344071,0.480978051,0.043803337,-0.005333302,-0.004199297,0.000359855,0.999975891,0.000000000,0.000000000,0.000000000,0.000000000,0.000000000,0.000000000,0.042694004,0.000000000,4.233431339
1772428021.606989861,0.017450000,0.007412000,0.070973000,-0.007511750,0.002289690,0.000404090,0.999969080,-0.015022000,0.004585000,0.000774000,-0.000374981,0.000223874,-0.000269056,-0.007815032,0.004615495,0.004434009,0.018253972,-0.011876831,1.000280034,-0.002607528,0.002446030,-0.002516916,0.000000000,0.000000000,0.000000000,0.000000000,0.017914976,0.007378914,0.070957743,0.024468240,-0.001993508,-0.000830019,0.009803968,-0.001164883,0.000277475,-0.610861199,0.481765886,0.044795610,-0.005329049,-0.004206217,0.000368495,0.999975920,0.000000000,0.000000000,0.000000000,0.000000000,0.000000000,0.000000000,0.044003934,0.000000000,4.233431339
1772428021.616990089,0.017447000,0.007418000,0.070970000,-0.007610670,0.002376670,0.000511730,0.999968080,-0.015219000,0.004761000,0.000987000,-0.000339219,0.000304449,-0.000228827,-0.008342271,-0.000294735,0.008039186,0.014976164,-0.012112663,1.000142919,0.000027173,0.004686467,-0.000753724,0.000000000,0.000000000,0.000000000,0.000000000,0.017914730,0.007382443,0.070951249,0.024663128,-0.001982199,-0.000776628,0.007681875,-0.001231067,0.000536947,-0.611755542,0.480703564,0.043822189,-0.005336892,-0.004196904,0.000360017,0.999975862,0.000000000,0.000000000,0.000000000,0.000000000,0.000000000,0.000000000,0.044513268,0.000000000,4.233431339
1772428021.626990318,0.017440000,0.007423000,0.070959000,-0.007676490,0.002415250,0.000502580,0.999967490,-0.015351000,0.004838000,0.000968000,-0.000154701,0.000406683,-0.000068823,-0.006672097,-0.008502367,0.006740483,0.015560997,-0.012958804,1.000111190,0.000958382,0.000195619,-0.000713557,0.000000000,0.000000000,0.000000000,0.000000000,0.017912501,0.007386429,0.070948918,0.024568205,-0.001990256,-0.000703403,0.006650540,-0.001800065,0.000559717,-0.611294512,0.480997216,0.043782596,-0.005332869,-0.004199463,0.000359675,0.999975917,0.000000000,0.000000000,0.000000000,0.000000000,0.000000000,0.000000000,0.043697370,0.000000000,4.233431339
1772428021.636990070,0.017436000,0.007427000,0.070961000,-0.007677080,0.002486050,0.000562030,0.999967280,-0.015352000,0.004981000,0.001086000,-0.000074184,0.000133955,0.000133664,-0.002434948,-0.008268007,0.007687362,0.016276561,-0.011215191,1.000721335,-0.000236911,-0.003396877,0.001746970,0.000000000,0.000000000,0.000000000,0.000000000,0.017813990,0.007392715,0.070960472,0.023630112,-0.002048852,-0.000500669,0.007242163,-0.001149094,0.000649548,-0.610032866,0.488299719,0.043497470,-0.005321845,-0.004263170,0.000356893,0.999975613,0.000000000,0.000000000,0.000000000,0.000000000,0.000000000,0.000000000,0.043437126,0.000000000,4.233431339
1772428021.646990299,0.017442000,0.007424000,0.070972000,-0.007634900,0.002272640,0.000513230,0.999968140,-0.015268000,0.004553000,0.000992000,0.000223504,-0.000181799,0.000339181,0.003928846,-0.011930470,0.005237553,0.016813162,-0.011768608,1.000580363,0.000942598,0.000008963,0.000204802,0.000000000,0.000000000,0.000000000,0.000000000,0.017882879,0.007382969,0.070964700,0.024028829,-0.002115766,-0.000360720,0.007593200,-0.000924654,0.000033926,-0.609070994,0.489463291,0.044166531,-0.005313422,-0.004273352,0.000362714,0.999975681,0.000000000,0.000000000,0.000000000,0.000000000,0.000000000,0.000000000,0.043531266,0.000000000,4.233431339
1772428021.656990290,0.017456000,0.007428000,0.070969000,-0.007664550,0.002069480,0.000588860,0.999968310,-0.015327000,0.004148000,0.001146000,0.000236908,-0.000402875,0.000303769,0.005555692,-0.016513430,0.002692303,0.015969911,-0.012085864,0.999626043,-0.000661184,0.000715257,-0.001110360,0.000000000,0.000000000,0.000000000,0.000000000,0.017900228,0.007374213,0.070967699,0.024176803,-0.002145352,-0.000278335,0.007683049,-0.002020935,0.000091286,-0.608669579,0.489851594,0.044869196,-0.005309890,-0.004276772,0.000368842,0.999975706,0.000000000,0.000000000,0.000000000,0.000000000,0.000000000,0.000000000,0.044771668,0.000000000,4.233431339
1772428021.666990519,0.017446000,0.007416000,0.070978000,-0.007559790,0.002222890,0.000599810,0.999968770,-0.015117000,0.004455000,0.001166000,0.000342968,-0.000449826,0.000175350,0.005459513,-0.008951419,0.001945941,0.015299716,-0.011153714,0.999877833,0.000159011,0.000267990,-0.000235323,0.000000000,0.000000000,0.000000000,0.000000000,0.017911456,0.007371651,0.070965224,0.024219954,-0.002192724,-0.000288547,0.007746900,-0.000783516,-0.000014781,-0.608489360,0.488839741,0.043800960,-0.005308362,-0.004267892,0.000359574,0.999975772,0.000000000,0.000000000,0.000000000,0.000000000,0.000000000,0.000000000,0.043595655,0.000000000,4.233431339
1772428021.676990747,0.017444000,0.007407000,0.070977000,-0.007575900,0.002208700,0.000683880,0.999968630,-0.015149000,0.004428000,0.001334000,0.000229895,-0.000460218,-0.000129487,0.001995375,0.000514890,0.000606748,0.017752814,-0.009527767,1.000902216,-0.002000317,0.001024148,0.001638691,0.000000000,0.000000000,0.000000000,0.000000000,0.017916755,0.007370822,0.070963549,0.024228988,-0.002120165,-0.000232867,0.008245906,0.000018882,0.001300067,-0.607421703,0.489369607,0.044090596,-0.005299032,-0.004272526,0.000362117,0.999975837,0.000000000,0.000000000,0.000000000,0.000000000,0.000000000,0.000000000,0.044124061,0.000000000,4.233431339
1772428021.686991453,0.017456000,0.007409000,0.070971000,-0.007580370,0.002011230,0.000556460,0.999969090,-0.015159000,0.004031000,0.001082000,0.000024573,-0.000224340,-0.000326457,-0.002257872,0.009614695,-0.002188885,0.018990019,-0.011197165,1.002040459,-0.000523907,0.000131848,0.001073415,0.000000000,0.000000000,0.000000000,0.000000000,0.017918611,0.007370838,0.070963828,0.024368066,-0.001966343,-0.000092423,0.010570648,0.000660654,0.001767952,-0.605965220,0.489202421,0.044201018,-0.005286320,-0.004271067,0.000360848,0.999975860,0.000000000,0.000000000,0.000000000,0.000000000,0.000000000,0.000000000,0.044220562,0.000000000,4.233431339
1772428021.696991205,0.017451000,0.007412000,0.070965000,-0.007616510,0.002195770,0.000550700,0.999968430,-0.015231000,0.004400000,0.001068000,-0.000104371,0.000137529,-0.000253322,-0.005487226,0.002303616,-0.005368827,0.015924096,-0.012376831,1.001448125,-0.000207549,-0.001779902,0.001163545,0.000000000,0.000000000,0.000000000,0.000000000,0.017916591,0.007375395,0.070964617,0.024603229,-0.001859978,0.000108772,0.009905907,-0.002141006,0.002253276,-0.606759735,0.488300623,0.043948929,-0.005293266,-0.004263189,0.000360496,0.999975894,0.000000000,0.000000000,0.000000000,0.000000000,0.000000000,0.000000000,0.043903129,0.000000000,4.233431339
1772428021.706991434,0.017459000,0.007409000,0.070970000,-0.007581240,0.002296590,0.000586690,0.999968450,-0.015160000,0.004602000,0.001139000,-0.000192560,0.000391201,-0.000081585,-0.008376382,-0.006015061,-0.004558500,0.014243108,-0.012195149,1.000165754,-0.000330610,-0.001211907,-0.001048345,0.000000000,0.000000000,0.000000000,0.000000000,0.017915558,0.007383183,0.070970907,0.024653129,-0.001897671,0.000306310,0.005890389,-0.001586511,0.000619825,-0.605758878,0.487646278,0.044314820,-0.005284520,-0.004257493,0.000364215,0.999975957,0.000000000,0.000000000,0.000000000,0.000000000,0.000000000,0.000000000,0.044383887,0.000000000,4.233431339
1772428021.716990709,0.017445000,0.007409000,0.070964000,-0.007700260,0.002211150,0.000568580,0.999967750,-0.015398000,0.004431000,0.001103000,-0.000423058,0.000350214,0.000246290,-0.005951853,-0.009114518,-0.001617853,0.016455212,-0.011182243,1.001126003,-0.000667066,0.002955602,-0.001723969,0.000000000,0.000000000,0.000000000,0.000000000,0.017914283,0.007384000,0.070979479,0.024485305,-0.001919780,0.000389480,0.006764851,-0.000880100,0.000547685,-0.605151768,0.487254299,0.044004718,-0.005279235,-0.004254056,0.000361550,0.999975979,0.000000000,0.000000000,0.000000000,0.000000000,0.000000000,0.000000000,0.043972330,0.000000000,4.233431339
1772428021.726991415,0.017441000,0.007424000,0.070967000,-0.007715090,0.002146540,0.000481170,0.999967820,-0.015428000,0.004300000,0.000929000,-0.000334557,0.000112898,0.000455517,-0.001296878,-0.008854743,0.001675728,0.016312950,-0.012631940,0.999992226,0.001030449,0.001736664,-0.001862492,0.000000000,0.000000000,0.000000000,0.000000000,0.017914342,0.007381485,0.070984884,0.024477659,-0.001906234,0.000478443,0.009534552,-0.001147633,0.001400417,-0.604471517,0.487530128,0.043827839,-0.005273304,-0.004256453,0.000360019,0.999976052,0.000000000,0.000000000,0.000000000,0.000000000,0.000000000,0.000000000,0.043830734,0.000000000,4.233431339
1772428021.736991644,0.017440000,0.007425000,0.070978000,-0.007700470,0.001901130,0.000534910,0.999968400,-0.015399000,0.003810000,0.001041000,0.000016783,0.000030051,0.000346329,0.004554818,-0.001908238,-0.003263149,0.016720364,-0.012823797,1.001472974,0.001540827,0.000214186,0.000090509,0.000000000,0.000000000,0.000000000,0.000000000,0.017917801,0.007379169,0.070987385,0.024573366,-0.001935973,0.000560212,0.008257636,-0.002136152,0.000905738,-0.603838136,0.486205737,0.043911884,-0.005267779,-0.004244897,0.000360836,0.999976129,0.000000000,0.000000000,0.000000000,0.000000000,0.000000000,0.000000000,0.043929308,0.000000000,4.233431339
1772428021.746991634,0.017440000,0.007415000,0.070982000,-0.007682960,0.002064050,0.000547580,0.999968210,-0.015364000,0.004136000,0.001063000,0.000103924,-0.000113093,0.000107556,0.007655025,0.012521098,-0.005545691,0.017925082,-0.012987814,1.001290633,-0.000395611,0.002278295,0.000010278,0.000000000,0.000000000,0.000000000,0.000000000,0.017923102,0.007377451,0.070986811,0.024643970,-0.002061180,0.000635614,0.008555116,-0.003125387,0.002609511,-0.602710671,0.485880690,0.043656419,-0.005257950,-0.004242045,0.000358664,0.999976212,0.000000000,0.000000000,0.000000000,0.000000000,0.000000000,0.000000000,0.043608009,0.000000000,4.233431339
1772428021.756992102,0.017445000,0.007414000,0.070981000,-0.007595410,0.002129900,0.000550450,0.999968730,-0.015189000,0.004268000,0.001069000,0.000465366,-0.000243843,-0.000047242,0.009297560,0.022881339,-0.006520669,0.017508129,-0.011778389,1.000386246,0.000695286,0.003670730,0.000243340,0.000000000,0.000000000,0.000000000,0.000000000,0.017925037,0.007376463,0.070984790,0.024800704,-0.002205605,0.000779525,0.010192762,-0.001367015,0.000578096,-0.601297874,0.484631890,0.043322954,-0.005245638,-0.004231128,0.000355863,0.999976277,0.000000000,0.000000000,0.000000000,0.000000000,0.000000000,0.000000000,0.043270400,0.000000000,4.233431339
1772428021.766991854,0.017455000,0.007410000,0.070978000,-0.007523160,0.002380630,0.000454370,0.999968760,-0.015044000,0.004768000,0.000873000,0.000373602,-0.000223504,-0.000190016,0.004338279,0.024218527,-0.004687024,0.017091120,-0.011338249,0.998535023,-0.000307641,0.000490913,0.000095309,0.000000000,0.000000000,0.000000000,0.000000000,0.017929886,0.007373818,0.070987339,0.024965309,-0.002221588,0.000805240,0.007510651,-0.000258380,0.000102116,-0.601270106,0.483648380,0.042834590,-0.005245418,-0.004222523,0.000351648,0.999976350,0.000000000,0.000000000,0.000000000,0.000000000,0.000000000,0.000000000,0.042767603,0.000000000,4.233431339
1772428021.776991844,0.017453000,0.007418000,0.070968000,-0.007542580,0.002516780,0.000334720,0.999968330,-0.015084000,0.005038000,0.000631000,0.000184674,0.000013462,-0.000121950,0.000673048,0.013911151,-0.003267198,0.017064693,-0.011281091,0.998041226,-0.001351304,0.000677541,0.000306344,0.000000000,0.000000000,0.000000000,0.000000000,0.017934736,0.007373980,0.070989290,0.025001616,-0.002180341,0.000776166,0.007783304,-0.000400384,-0.000488186,-0.601109250,0.483177493,0.042643044,-0.005244023,-0.004218405,0.000350004,0.999976405,0.000000000,0.000000000,0.000000000,0.000000000,0.000000000,0.000000000,0.042623422,0.000000000,4.233431339
1772428021.786991835,0.017447000,0.007411000,0.070972000,-0.007587770,0.002422900,0.000424730,0.999968190,-0.015174000,0.004852000,0.000813000,-0.000014841,0.000228769,0.000021698,-0.000178538,-0.003937595,-0.002189980,0.016995084,-0.011123160,0.998196741,-0.001765048,0.002314127,0.000856894,0.000000000,0.000000000,0.000000000,0.000000000,0.017933702,0.007374381,0.070989631,0.025015198,-0.002169130,0.000727071,0.008055956,-0.000542387,-0.001078489,-0.600886403,0.482757447,0.042499363,-0.005242085,-0.004214732,0.000348777,0.999976420,0.000000000,0.000000000,0.000000000,0.000000000,0.000000000,0.000000000,0.042479242,0.000000000,4.233431339
1772428021.796991587,0.017464000,0.007415000,0.070977000,-0.007573040,0.002408770,0.000433080,0.999968330,-0.015144000,0.004824000,0.000830000,-0.000150078,0.000182673,-0.000044542,-0.001071347,-0.008110461,0.000001914,0.016925476,-0.010965233,0.998352252,-0.002178783,0.003950674,0.001407431,0.000000000,0.000000000,0.000000000,0.000000000,0.017932667,0.007374781,0.070989971,0.025028780,-0.002157919,0.000677978,0.008328603,-0.000684388,-0.001668777,-0.600663561,0.482337412,0.042355686,-0.005240147,-0.004211059,0.000347551,0.999976434,0.000000000,0.000000000,0.000000000,0.000000000,0.000000000,0.000000000,0.042335065,0.000000000,4.233431339
1772428021.806991100,0.017445000,0.007417000,0.070979000,-0.007603820,0.002365590,0.000502260,0.999968170,-0.015206000,0.004739000,0.000969000,-0.000171057,0.000082090,-0.000019755,0.002431105,-0.003805589,0.001955054,0.016855869,-0.010807310,0.998507760,-0.002592509,0.005587181,0.001957956,0.000000000,0.000000000,0.000000000,0.000000000,0.017931633,0.007375182,0.070990312,0.025042361,-0.002146709,0.000628885,0.008644138,-0.000798753,-0.002171411,-0.600440724,0.481917386,0.042212012,-0.005238209,-0.004207387,0.000346325,0.999976448,0.000000000,0.000000000,0.000000000,0.000000000,0.000000000,0.000000000,0.042190891,0.000000000,4.233431339
1772428021.816990614,0.017447000,0.007420000,0.070977000,-0.007523820,0.002234400,0.000408490,0.999969120,-0.015046000,0.004475000,0.000783000,-0.000134402,0.000085082,-0.000075525,0.005288436,0.004601112,-0.001124674,0.018047927,-0.011317162,0.999200659,-0.001955171,0.003386566,0.001479180,0.000000000,0.000000000,0.000000000,0.000000000,0.017930920,0.007376101,0.070990142,0.025090197,-0.002123415,0.000565790,0.009519687,-0.000552381,-0.001529882,-0.600164532,0.481176185,0.041870379,-0.005235814,-0.004200902,0.000343387,0.999976476,0.000000000,0.000000000,0.000000000,0.000000000,0.000000000,0.000000000,0.041753302,0.000000000,4.233431339
1772428021.826990843,0.017449000,0.007423000,0.070969000,-0.007484510,0.002325710,0.000340340,0.999969230,-0.014968000,0.004656000,0.000646000,-0.000102875,0.000002564,-0.000065016,0.005957220,0.006275718,-0.002313708,0.019283979,-0.012270798,0.999586018,-0.000661564,-0.000933908,0.000762505,0.000000000,0.000000000,0.000000000,0.000000000,0.017931097,0.007378456,0.070988559,0.025232880,-0.002066661,0.000463922,0.010122114,-0.001520560,-0.000742981,-0.600061529,0.479829320,0.041718123,-0.005234926,-0.004189142,0.000342124,0.999976516,0.000000000,0.000000000,0.000000000,0.000000000,0.000000000,0.000000000,0.041814722,0.000000000,4.233431339
1772428021.836991072,0.017449000,0.007413000,0.070965000,-0.007528700,0.002550350,0.000442710,0.999968310,-0.015055000,0.005107000,0.000847000,-0.000113306,-0.000158372,0.000135490,0.004638832,0.001077604,0.001796995,0.017660356,-0.013090267,0.997897367,-0.000429303,-0.001346368,0.000934023,0.000000000,0.000000000,0.000000000,0.000000000,0.017934323,0.007381077,0.070982912,0.025491677,-0.002114074,0.000382433,0.009554086,-0.002864163,-0.001261744,-0.600176812,0.478186503,0.042181438,-0.005235920,-0.004174827,0.000346238,0.999976516,0.000000000,0.000000000,0.000000000,0.000000000,0.000000000,0.000000000,0.042243574,0.000000000,4.233431339
1772428021.846991301,0.017447000,0.007415000,0.070980000,-0.007441810,0.002544590,0.000434310,0.999968980,-0.014882000,0.005096000,0.000831000,0.000177836,-0.000192910,0.000182751,0.003458793,-0.002823719,0.000992903,0.018384772,-0.013893879,0.999393640,-0.001651531,0.001437384,-0.001747496,0.000000000,0.000000000,0.000000000,0.000000000,0.017938313,0.007376719,0.070976475,0.025646110,-0.002314557,0.000168213,0.009494579,-0.003525838,-0.000985965,-0.599971079,0.477898217,0.042898860,-0.005234099,-0.004172343,0.000352519,0.999976521,0.000000000,0.000000000,0.000000000,0.000000000,0.000000000,0.000000000,0.043044985,0.000000000,4.233431339
1772428021.856991291,0.017446000,0.007421000,0.070976000,-0.007478520,0.002340240,0.000386810,0.999969220,-0.014955000,0.004686000,0.000739000,-0.000062082,-0.000034887,0.000067580,-0.001784808,-0.007484696,0.000508362,0.017606345,-0.013123040,1.000182308,0.000275858,-0.000121107,0.002185940,0.000000000,0.000000000,0.000000000,0.000000000,0.017940712,0.007372668,0.070979773,0.025852876,-0.002566592,0.000127719,0.008890528,-0.002878332,0.000267056,-0.599876941,0.477700596,0.043311353,-0.005233264,-0.004170637,0.000356131,0.999976575,0.000000000,0.000000000,0.000000000,0.000000000,0.000000000,0.000000000,0.043199866,0.000000000,4.233431339
1772428021.866991520,0.017450000,0.007408000,0.070983000,-0.007462840,0.002227230,0.000479270,0.999969560,-0.014924000,0.004461000,0.000925000,-0.000030614,0.000007246,-0.000021018,-0.005785466,-0.009686213,-0.002488604,0.018557080,-0.011415311,0.998287294,0.000090002,0.000359290,0.000559640,0.000000000,0.000000000,0.000000000,0.000000000,0.017942428,0.007372320,0.070979462,0.025918156,-0.002678647,0.000162563,0.010114612,-0.001679038,-0.000676045,-0.599308428,0.478105586,0.043223120,-0.005228305,-0.004174166,0.000355364,0.999976575,0.000000000,0.000000000,0.000000000,0.000000000,0.000000000,0.000000000,0.043358216,0.000000000,4.233431339
1772428021.876991510,0.017447000,0.007415000,0.070978000,-0.007496180,0.002278230,0.000429680,0.999969220,-0.014991000,0.004563000,0.000825000,0.000149845,0.000008508,-0.000166103,-0.010026555,-0.003142534,-0.006930223,0.018019673,-0.010924928,0.998269497,0.000886670,0.000056168,0.002778901,0.000000000,0.000000000,0.000000000,0.000000000,0.017946993,0.007365151,0.070982390,0.026187116,-0.002688519,0.000044290,0.010254230,-0.000856808,-0.001654092,-0.598577000,0.478253601,0.043778180,-0.005221901,-0.004175481,0.000360227,0.999976584,0.000000000,0.000000000,0.000000000,0.000000000,0.000000000,0.000000000,0.043675175,0.000000000,4.233431339
1772428021.886991978,0.017455000,0.007416000,0.070966000,-0.007542710,0.002349240,0.000284530,0.999968750,-0.015084000,0.004703000,0.000534000,0.000324340,-0.000055672,-0.000224631,-0.012119686,0.005257288,-0.008989599,0.014992516,-0.012200338,0.999289245,-0.000051416,-0.004324030,0.003746770,0.000000000,0.000000000,0.000000000,0.000000000,0.017949824,0.007365284,0.070979825,0.026312955,-0.002629553,-0.000126662,0.007636456,-0.001375448,-0.000676938,-0.597972793,0.477558452,0.042885595,-0.005216663,-0.004169372,0.000352492,0.999976695,0.000000000,0.000000000,0.000000000,0.000000000,0.000000000,0.000000000,0.042762973,0.000000000,4.233431339
1772428021.896991491,0.017442000,0.007421000,0.070969000,-0.007675370,0.002339550,0.000348830,0.999967750,-0.015349000,0.004684000,0.000662000,0.000428847,0.000024495,0.000130575,-0.006670965,0.002256026,-0.007903674,0.016894136,-0.012475619,1.001504785,-0.003366390,0.002056321,0.000232891,0.000000000,0.000000000,0.000000000,0.000000000,0.017955248,0.007366154,0.070971248,0.026162647,-0.002676245,-0.000169024,0.008489674,-0.001748345,0.000533807,-0.596459188,0.477793600,0.042810317,-0.005203457,-0.004171416,0.000351879,0.999976702,0.000000000,0.000000000,0.000000000,0.000000000,0.000000000,0.000000000,0.042995536,0.000000000,4.233431339
1772428021.906991959,0.017461000,0.007408000,0.070979000,-0.007668990,0.002382880,0.000318560,0.999967700,-0.015337000,0.004771000,0.000601000,0.000254546,0.000118648,0.000224437,0.001696167,-0.000872930,-0.004662970,0.018532165,-0.011644366,1.001993304,-0.000449684,-0.001462262,0.002526556,0.000000000,0.000000000,0.000000000,0.000000000,0.017951190,0.007368228,0.070969125,0.026207241,-0.002714116,-0.000065315,0.010222713,-0.001567324,0.001576437,-0.595950069,0.478143745,0.043965426,-0.005198970,-0.004174522,0.000361962,0.999976754,0.000000000,0.000000000,0.000000000,0.000000000,0.000000000,0.000000000,0.044068110,0.000000000,4.233431339
1772428021.916992426,0.017466000,0.007414000,0.070976000,-0.007654850,0.002360770,0.000218040,0.999967890,-0.015309000,0.004725000,0.000400000,0.000167133,-0.000009751,0.000205964,0.011030705,-0.005280407,0.002814460,0.016993840,-0.011282025,1.001546738,-0.000948896,-0.002013936,-0.000461660,0.000000000,0.000000000,0.000000000,0.000000000,0.017957377,0.007364258,0.070973363,0.026379065,-0.002725003,0.000115150,0.009954390,-0.001292041,0.001911730,-0.596449844,0.476738598,0.044580208,-0.005203314,-0.004162290,0.000367372,0.999976754,0.000000000,0.000000000,0.000000000,0.000000000,0.000000000,0.000000000,0.044596310,0.000000000,4.233431339
1772428021.926992893,0.017463000,0.007418000,0.070978000,-0.007558370,0.002246830,0.000249690,0.999968880,-0.015116000,0.004497000,0.000465000,-0.000132459,0.000028186,-0.000043260,0.013267579,-0.003270896,0.004930422,0.015810741,-0.011793435,1.001084612,-0.001577444,-0.003623268,-0.002075067,0.000000000,0.000000000,0.000000000,0.000000000,0.017964468,0.007362970,0.070976854,0.026470111,-0.002713439,0.000261215,0.008199160,-0.000955086,0.001199836,-0.595615924,0.476911413,0.044672652,-0.005196033,-0.004163800,0.000368201,0.999976754,0.000000000,0.000000000,0.000000000,0.000000000,0.000000000,0.000000000,0.044714870,0.000000000,4.233431339
1772428021.936993122,0.017458000,0.007419000,0.070986000,-0.007436290,0.002171480,0.000385510,0.999969920,-0.014871000,0.004349000,0.000739000,-0.000326399,0.000015288,-0.000389122,0.009934390,-0.000216295,0.006489515,0.015196290,-0.010579219,0.999865703,0.001104528,0.000140363,-0.000919018,0.000000000,0.000000000,0.000000000,0.000000000,0.017968876,0.007364358,0.070979972,0.026430971,-0.002680218,0.000366961,0.006806741,-0.000456760,0.000662899,-0.595719460,0.477246979,0.044890979,-0.005196927,-0.004166738,0.000370088,0.999976793,0.000000000,0.000000000,0.000000000,0.000000000,0.000000000,0.000000000,0.044901047,0.000000000,4.233431339
1772428021.946993113,0.017446000,0.007417000,0.070968000,-0.007386460,0.002397390,0.000382900,0.999969770,-0.014771000,0.004800000,0.000730000,-0.000533703,0.000029332,-0.000445241,0.000366672,-0.005062343,0.011130445,0.016674765,-0.010451083,0.999570912,0.000978652,-0.002900146,-0.004040017,0.000000000,0.000000000,0.000000000,0.000000000,0.017968283,0.007367056,0.070985077,0.026298794,-0.002560946,0.000404366,0.007018019,0.000676461,-0.000323845,-0.596369094,0.475403059,0.044837651,-0.005202605,-0.004150647,0.000369682,0.999976852,0.000000000,0.000000000,0.000000000,0.000000000,0.000000000,0.000000000,0.044851044,0.000000000,4.233431339
1772428021.956993580,0.017455000,0.007413000,0.070964000,-0.007448070,0.002244840,0.000426420,0.999969650,-0.014894000,0.004496000,0.000819000,-0.000317036,-0.000032809,-0.000189414,-0.007453537,-0.006251840,0.009190325,0.018480607,-0.010157057,0.997399075,0.000345976,0.002033297,-0.001504079,0.000000000,0.000000000,0.000000000,0.000000000,0.017962508,0.007369496,0.070984258,0.026270422,-0.002416383,0.000343840,0.009187459,-0.000443472,-0.000870803,-0.595130072,0.474318213,0.045474922,-0.005191774,-0.004141205,0.000375338,0.999976873,0.000000000,0.000000000,0.000000000,0.000000000,0.000000000,0.000000000,0.045392094,0.000000000,4.233431339
1772428021.966994286,0.017442000,0.007416000,0.070965000,-0.007575680,0.002314850,0.000401360,0.999968540,-0.015150000,0.004636000,0.000768000,-0.000096912,0.000089103,0.000145765,-0.008828522,-0.003200186,0.005434900,0.016565562,-0.011186554,0.998165446,0.003113264,-0.000170551,-0.000264332,0.000000000,0.000000000,0.000000000,0.000000000,0.017959873,0.007370115,0.070977315,0.026371024,-0.002316817,0.000152444,0.009089840,-0.000439363,-0.002529735,-0.594509704,0.475186694,0.044232236,-0.005186403,-0.004148725,0.000364476,0.999976955,0.000000000,0.000000000,0.000000000,0.000000000,0.000000000,0.000000000,0.044235337,0.000000000,4.233431339
1772428021.976995230,0.017447000,0.007416000,0.070967000,-0.007575400,0.002191290,0.000532300,0.999968760,-0.015149000,0.004391000,0.001031000,-0.000091667,0.000219717,0.000299709,-0.005697880,0.001752556,0.002521502,0.015438083,-0.012276837,1.000340398,0.001773855,0.000585898,0.000380609,0.000000000,0.000000000,0.000000000,0.000000000,0.017959078,0.007370389,0.070972176,0.026410600,-0.002270778,-0.000017664,0.007307036,-0.001799655,-0.000697187,-0.593836442,0.474087750,0.044566452,-0.005180519,-0.004139148,0.000367467,0.999977018,0.000000000,0.000000000,0.000000000,0.000000000,0.000000000,0.000000000,0.044633045,0.000000000,4.233431339
1772428021.986995935,0.017447000,0.007420000,0.070976000,-0.007616510,0.002051570,0.000536910,0.999968750,-0.015231000,0.004111000,0.001043000,-0.000035956,0.000019522,0.000308372,0.001032690,0.008716683,0.004864183,0.015230357,-0.013165774,1.002433735,0.000619343,0.001719810,0.001115081,0.000000000,0.000000000,0.000000000,0.000000000,0.017955346,0.007371530,0.070969037,0.026344900,-0.002286094,-0.000076356,0.007122870,-0.002968529,0.001760503,-0.592475808,0.474808781,0.044594780,-0.005168642,-0.004145437,0.000367731,0.999977052,0.000000000,0.000000000,0.000000000,0.000000000,0.000000000,0.000000000,0.044585114,0.000000000,4.233431339
1772428021.996997118,0.017448000,0.007422000,0.070983000,-0.007557610,0.002328020,0.000456670,0.999968630,-0.015113000,0.004663000,0.000878000,0.000158741,-0.000236539,0.000004604,0.003333114,0.014622322,0.003981588,0.016629372,-0.013241500,1.003022251,0.003625813,0.000292407,0.001661521,0.000000000,0.000000000,0.000000000,0.000000000,0.017954262,0.007371793,0.070968482,0.026246389,-0.002451561,0.000147617,0.007646450,-0.003220127,0.003008119,-0.591055780,0.475816374,0.044568900,-0.005156247,-0.004154224,0.000367511,0.999977053,0.000000000,0.000000000,0.000000000,0.000000000,0.000000000,0.000000000,0.044583180,0.000000000,4.233431339
1772428022.006998301,0.017447000,0.007419000,0.070980000,-0.007459240,0.002487090,0.000532150,0.999968940,-0.014916000,0.004982000,0.001027000,0.000314142,-0.000456430,-0.000132149,0.003015652,0.016847766,0.003085644,0.017021404,-0.011052411,1.000263232,0.000605636,0.002937712,-0.001473555,0.000000000,0.000000000,0.000000000,0.000000000,0.017953601,0.007371911,0.070973475,0.026250785,-0.002564455,0.000393315,0.008381745,-0.002128308,0.001520577,-0.590082383,0.476053279,0.044756478,-0.005147745,-0.004156296,0.000369173,0.999977101,0.000000000,0.000000000,0.000000000,0.000000000,0.000000000,0.000000000,0.044905842,0.000000000,4.233431339
1772428022.016999006,0.017443000,0.007413000,0.070964000,-0.007527920,0.002512500,0.000513600,0.999968380,-0.015054000,0.005033000,0.000989000,0.000302972,-0.000304216,0.000002797,0.003000944,0.011152639,-0.002890425,0.017818736,-0.011098228,0.999059133,-0.000777460,0.004342713,-0.000252037,0.000000000,0.000000000,0.000000000,0.000000000,0.017953657,0.007372506,0.070980404,0.026286699,-0.002576815,0.000455802,0.008359491,-0.000802669,-0.001354677,-0.589540610,0.475631799,0.045704261,-0.005142985,-0.004152659,0.000377482,0.999977191,0.000000000,0.000000000,0.000000000,0.000000000,0.000000000,0.000000000,0.045806587,0.000000000,4.233431339
1772428022.026999712,0.017459000,0.007397000,0.070969000,-0.007512710,0.002468050,0.000608080,0.999968550,-0.015023000,0.004945000,0.001179000,0.000313306,-0.000151574,0.000088578,0.004208004,0.000815288,-0.004810659,0.016458221,-0.012602469,0.999958111,0.002769622,-0.000194434,-0.001197252,0.000000000,0.000000000,0.000000000,0.000000000,0.017954177,0.007372478,0.070985217,0.026344784,-0.002551456,0.000405593,0.008494350,-0.001556151,0.000237571,-0.589330730,0.473165154,0.045586002,-0.005141166,-0.004131128,0.000376568,0.999977231,0.000000000,0.000000000,0.000000000,0.000000000,0.000000000,0.000000000,0.045555314,0.000000000,4.233431339
1772428022.036999702,0.017465000,0.007407000,0.070975000,-0.007577890,0.002387980,0.000494000,0.999968310,-0.015154000,0.004783000,0.000952000,0.000149437,0.000198893,0.000289530,0.003480820,-0.015316015,-0.009119714,0.017469575,-0.012250505,1.000729307,0.000055513,0.000233972,-0.001223976,0.000000000,0.000000000,0.000000000,0.000000000,0.017953647,0.007370062,0.070982562,0.026373349,-0.002625255,0.000395566,0.008624566,-0.002900627,0.000722653,-0.588602981,0.472805058,0.045358559,-0.005134825,-0.004127974,0.000374626,0.999977265,0.000000000,0.000000000,0.000000000,0.000000000,0.000000000,0.000000000,0.045304651,0.000000000,4.233431339
1772428022.046999216,0.017452000,0.007412000,0.070984000,-0.007453430,0.002520350,0.000448200,0.999968950,-0.014905000,0.005047000,0.000859000,-0.000210393,0.000418454,0.000338365,0.003316011,-0.016460576,-0.006516619,0.017576470,-0.012844085,1.001549880,-0.002327125,0.001557529,-0.000125566,0.000000000,0.000000000,0.000000000,0.000000000,0.017955661,0.007363600,0.070978362,0.026440188,-0.002741928,0.000455909,0.010455031,-0.001510222,0.001857793,-0.587465254,0.472936192,0.045292326,-0.005124899,-0.004129111,0.000374083,0.999977319,0.000000000,0.000000000,0.000000000,0.000000000,0.000000000,0.000000000,0.045289499,0.000000000,4.233431339
1772428022.056999445,0.017458000,0.007424000,0.070989000,-0.007387970,0.002227740,0.000326590,0.999970170,-0.014775000,0.004460000,0.000620000,-0.000299554,0.000345222,0.000124845,0.002628934,-0.005542817,0.000471190,0.016359708,-0.013563840,1.001093816,-0.002021524,0.000256954,-0.001497443,0.000000000,0.000000000,0.000000000,0.000000000,0.017963885,0.007355436,0.070979857,0.026583326,-0.002859166,0.000613599,0.007932365,-0.003217867,0.001473328,-0.586483709,0.472662210,0.044489549,-0.005116364,-0.004126682,0.000367125,0.999977350,0.000000000,0.000000000,0.000000000,0.000000000,0.000000000,0.000000000,0.044339767,0.000000000,4.233431339
1772428022.066999912,0.017450000,0.007415000,0.070976000,-0.007445920,0.002308490,0.000435800,0.999969520,-0.014890000,0.004623000,0.000837000,-0.000386772,0.000121776,-0.000208295,-0.003510371,0.003855574,0.006219800,0.015955923,-0.013694357,1.000746561,-0.001209488,-0.002435818,-0.002910633,0.000000000,0.000000000,0.000000000,0.000000000,0.017967797,0.007354340,0.070986591,0.026588262,-0.003074784,0.000746144,0.008127044,-0.003498802,-0.000190352,-0.586921841,0.472175588,0.044017277,-0.005120206,-0.004122415,0.000363010,0.999977350,0.000000000,0.000000000,0.000000000,0.000000000,0.000000000,0.000000000,0.043974451,0.000000000,4.233431339
1772428022.076999903,0.017444000,0.007423000,0.070980000,-0.007506930,0.002131080,0.000456600,0.999969450,-0.015012000,0.004269000,0.000881000,-0.000109363,-0.000202195,-0.000286344,-0.008967931,0.003238109,0.012194771,0.017145099,-0.011804754,0.998465945,0.003744948,-0.001593166,-0.002561630,0.000000000,0.000000000,0.000000000,0.000000000,0.017911666,0.007358877,0.070988073,0.025713433,-0.003200694,0.000678423,0.007127436,-0.001804580,-0.001041468,-0.590723766,0.494652284,0.043106896,-0.005153338,-0.004318528,0.000353915,0.999977192,0.000000000,0.000000000,0.000000000,0.000000000,0.000000000,0.000000000,0.042944005,0.000000000,4.233431339
1772428022.087000370,0.017441000,0.007413000,0.070973000,-0.007547510,0.002435860,0.000667880,0.999968330,-0.015092000,0.004882000,0.001299000,0.000004701,-0.000233314,-0.000349845,-0.013498909,0.006099951,0.010835399,0.015963465,-0.013173911,0.999929109,0.001503770,-0.001668496,0.003014669,0.000000000,0.000000000,0.000000000,0.000000000,0.017815652,0.007366935,0.070983360,0.024206582,-0.003232841,0.000529087,0.007620777,-0.003563275,0.000078744,-0.589653891,0.503574652,0.042040367,-0.005144011,-0.004396338,0.000344250,0.999976075,0.000000000,0.000000000,0.000000000,0.000000000,0.000000000,0.000000000,0.041979978,0.000000000,4.233431339
1772428022.097000360,0.017458000,0.007409000,0.070972000,-0.007591250,0.002592110,0.000583870,0.999967660,-0.015180000,0.005193000,0.001128000,-0.000060567,-0.000194367,-0.000220863,-0.011968790,0.006101197,0.005905633,0.017154310,-0.013394579,1.000016916,-0.001908360,-0.002401114,-0.000509961,0.000000000,0.000000000,0.000000000,0.000000000,0.017814567,0.007364153,0.070981920,0.023853499,-0.003367367,0.000472124,0.008314274,-0.002856151,0.000205199,-0.588722173,0.503487709,0.041784286,-0.005135891,-0.004395565,0.000342055,0.999976055,0.000000000,0.000000000,0.000000000,0.000000000,0.000000000,0.000000000,0.041973972,0.000000000,4.233431339
1772428022.107000351,0.017444000,0.007414000,0.070974000,-0.007682430,0.002343440,0.000588680,0.999967570,-0.015362000,0.004696000,0.001141000,-0.000023058,0.000032653,-0.000016842,-0.007701727,-0.007677558,0.001452635,0.018466198,-0.011509087,1.000506117,0.000452703,-0.000795039,-0.000202676,0.000000000,0.000000000,0.000000000,0.000000000,0.017864376,0.007356124,0.070982170,0.024276669,-0.003512686,0.000482207,0.008985580,-0.002126829,0.000149174,-0.588810505,0.504131590,0.043242058,-0.005136603,-0.004401249,0.000354744,0.999976039,0.000000000,0.000000000,0.000000000,0.000000000,0.000000000,0.000000000,0.043537112,0.000000000,4.233431339
1772428022.117000103,0.017450000,0.007413000,0.070972000,-0.007692960,0.002180700,0.000618690,0.999967840,-0.015383000,0.004371000,0.001204000,-0.000168648,0.000055303,0.000049728,-0.002745705,-0.014899091,0.000861283,0.018348953,-0.011807809,0.999665134,0.000574834,0.003672988,0.000773460,0.000000000,0.000000000,0.000000000,0.000000000,0.017893473,0.007351132,0.070980210,0.024705589,-0.003539718,0.000484154,0.010285679,-0.001085549,0.000036376,-0.588796609,0.504419141,0.043187630,-0.005136483,-0.004403756,0.000354256,0.999976077,0.000000000,0.000000000,0.000000000,0.000000000,0.000000000,0.000000000,0.043135244,0.000000000,4.233431339
1772428022.127000332,0.017440000,0.007414000,0.070966000,-0.007705320,0.002402470,0.000593920,0.999967250,-0.015408000,0.004814000,0.001151000,-0.000171989,0.000100699,0.000148155,0.002939386,-0.010167943,0.000480064,0.015298856,-0.012097235,0.999119223,-0.001652077,-0.001427723,-0.002241482,0.000000000,0.000000000,0.000000000,0.000000000,0.017909785,0.007349009,0.070980759,0.025007245,-0.003526507,0.000471990,0.007238864,-0.001823388,-0.000186616,-0.587592588,0.504044982,0.042499619,-0.005126004,-0.004400456,0.000348316,0.999976189,0.000000000,0.000000000,0.000000000,0.000000000,0.000000000,0.000000000,0.042587673,0.000000000,4.233431339
1772428022.137000322,0.017442000,0.007414000,0.070976000,-0.007689080,0.002172920,0.000608180,0.999967890,-0.015376000,0.004355000,0.001183000,-0.000252895,0.000035859,0.000079953,0.003084846,-0.001439187,0.003362009,0.016873209,-0.012379093,0.997925009,-0.002155918,-0.000217704,-0.000707273,0.000000000,0.000000000,0.000000000,0.000000000,0.017918545,0.007349583,0.070983846,0.025047944,-0.003544021,0.000397785,0.007973201,-0.001904685,-0.001053686,-0.585535564,0.503165962,0.043050421,-0.005108035,-0.004392804,0.000353240,0.999976267,0.000000000,0.000000000,0.000000000,0.000000000,0.000000000,0.000000000,0.042857367,0.000000000,4.233431339
1772428022.147000790,0.017442000,0.007418000,0.070979000,-0.007627670,0.002098580,0.000692810,0.999968470,-0.015253000,0.004208000,0.001354000,0.000024534,-0.000083469,0.000129274,0.002344093,0.004605954,0.000535695,0.017383952,-0.012887488,1.001364210,-0.001630840,0.002531552,-0.001695544,0.000000000,0.000000000,0.000000000,0.000000000,0.017922623,0.007347624,0.070983772,0.025180649,-0.003592519,0.000285092,0.009332850,-0.002435992,0.000383435,-0.586672182,0.501695251,0.041622266,-0.005118014,-0.004379909,0.000340800,0.999976277,0.000000000,0.000000000,0.000000000,0.000000000,0.000000000,0.000000000,0.041509184,0.000000000,4.233431339
1772428022.157001257,0.017441000,0.007411000,0.070976000,-0.007593940,0.002292460,0.000626370,0.999968340,-0.015185000,0.004594000,0.001218000,0.000170474,-0.000057518,0.000080536,-0.000342536,-0.001317650,-0.003302724,0.016375456,-0.011756240,1.002085077,0.001138947,0.003767665,-0.003356903,0.000000000,0.000000000,0.000000000,0.000000000,0.017928207,0.007344585,0.070981955,0.025323826,-0.003701292,0.000392376,0.008042902,-0.002532483,0.002454420,-0.587330278,0.500986805,0.040893225,-0.005123787,-0.004373697,0.000334444,0.999976277,0.000000000,0.000000000,0.000000000,0.000000000,0.000000000,0.000000000,0.040798882,0.000000000,4.233431339
1772428022.167001247,0.017447000,0.007411000,0.070973000,-0.007625330,0.002501810,0.000608070,0.999967610,-0.015248000,0.005013000,0.001178000,0.000360354,-0.000119309,-0.000074204,0.000962493,0.000907638,-0.006915739,0.016540499,-0.011893347,0.999652829,-0.003089458,0.002131502,0.001279199,0.000000000,0.000000000,0.000000000,0.000000000,0.017929366,0.007344089,0.070982440,0.025384200,-0.003739873,0.000541952,0.008341967,-0.001389078,0.001140625,-0.587845877,0.499955227,0.040149616,-0.005128318,-0.004364663,0.000327982,0.999976362,0.000000000,0.000000000,0.000000000,0.000000000,0.000000000,0.000000000,0.039786621,0.000000000,4.233431339
1772428022.177001476,0.017438000,0.007415000,0.070974000,-0.007745130,0.002118020,0.000590270,0.999967590,-0.015488000,0.004245000,0.001148000,0.000247028,-0.000141725,-0.000137490,0.003247503,0.008914153,-0.007284864,0.020230767,-0.012588525,1.000066991,0.002785364,-0.001352521,0.001293167,0.000000000,0.000000000,0.000000000,0.000000000,0.017936847,0.007341686,0.070985765,0.025519327,-0.003740425,0.000566263,0.009641843,-0.001878479,-0.000189475,-0.587671926,0.499782319,0.039985455,-0.005126807,-0.004363146,0.000326564,0.999976397,0.000000000,0.000000000,0.000000000,0.000000000,0.000000000,0.000000000,0.038356548,0.000000000,4.233431339
1772428022.187001944,0.017457000,0.007408000,0.070979000,-0.007619790,0.002260740,0.000530160,0.999968270,-0.015237000,0.004529000,0.001026000,0.000170940,-0.000066997,-0.000104876,0.003554460,0.016768834,-0.005397748,0.019828342,-0.012628580,1.000112517,0.002750439,-0.001230969,0.000666975,0.000000000,0.000000000,0.000000000,0.000000000,0.017940062,0.007340895,0.070986292,0.025594934,-0.003751376,0.000555237,0.010925439,-0.003172548,0.000575922,-0.587497971,0.499609406,0.039821291,-0.005125295,-0.004361629,0.000325145,0.999976404,0.000000000,0.000000000,0.000000000,0.000000000,0.000000000,0.000000000,0.038821238,0.000000000,4.233431339
1772428022.197001696,0.017456000,0.007413000,0.070970000,-0.007595330,0.002288750,0.000475270,0.999968420,-0.015189000,0.004585000,0.000916000,-0.000005206,0.000101088,0.000128827,0.005273276,0.015276950,-0.000514211,0.019425945,-0.012668632,1.000158039,0.002715518,-0.001109425,0.000040827,0.000000000,0.000000000,0.000000000,0.000000000,0.017940947,0.007340911,0.070985896,0.025641671,-0.003765877,0.000556158,0.010464760,-0.003063762,0.000554134,-0.587324027,0.499436506,0.039657139,-0.005123784,-0.004360113,0.000323727,0.999976412,0.000000000,0.000000000,0.000000000,0.000000000,0.000000000,0.000000000,0.038875111,0.000000000,4.233431339
1772428022.207002401,0.017449000,0.007408000,0.070972000,-0.007496780,0.002619020,0.000503860,0.999968340,-0.014991000,0.005245000,0.000968000,-0.000180575,0.000237646,0.000233295,0.007186162,0.016113771,0.000849938,0.019023511,-0.012708688,1.000203566,0.002680593,-0.000987870,-0.000585381,0.000000000,0.000000000,0.000000000,0.000000000,0.017941832,0.007340927,0.070985500,0.025688411,-0.003780380,0.000557079,0.010004037,-0.002954965,0.000532344,-0.587150068,0.499263589,0.039492971,-0.005122273,-0.004358596,0.000322309,0.999976420,0.000000000,0.000000000,0.000000000,0.000000000,0.000000000,0.000000000,0.038928989,0.000000000,4.233431339
1772428022.217002392,0.017444000,0.007413000,0.070978000,-0.007539350,0.002624700,0.000580560,0.999967970,-0.015076000,0.005258000,0.001122000,-0.000136325,0.000326826,0.000093162,0.005146446,0.014345793,0.001843599,0.018621105,-0.012748741,1.000249089,0.002645670,-0.000866323,-0.001211544,0.000000000,0.000000000,0.000000000,0.000000000,0.017942717,0.007340943,0.070985105,0.025735149,-0.003794882,0.000558000,0.009543347,-0.002846176,0.000510555,-0.586976121,0.499090685,0.039328814,-0.005120762,-0.004357079,0.000320891,0.999976427,0.000000000,0.000000000,0.000000000,0.000000000,0.000000000,0.000000000,0.038982863,0.000000000,4.233431339
1772428022.227001905,0.017447000,0.007420000,0.070975000,-0.007600190,0.002763920,0.000533100,0.999967160,-0.015198000,0.005536000,0.001024000,-0.000124068,0.000366667,-0.000173738,-0.000464554,-0.000422927,0.002478090,0.018218718,-0.012788792,1.000294610,0.002610749,-0.000744783,-0.001837677,0.000000000,0.000000000,0.000000000,0.000000000,0.017943602,0.007340959,0.070984709,0.025781884,-0.003809383,0.000558921,0.009082679,-0.002737393,0.000488767,-0.586802182,0.498917789,0.039164666,-0.005119251,-0.004355563,0.000319473,0.999976435,0.000000000,0.000000000,0.000000000,0.000000000,0.000000000,0.000000000,0.039036735,0.000000000,4.233431339
1772428022.237001896,0.017444000,0.007424000,0.070988000,-0.007505160,0.002343750,0.000557000,0.999968930,-0.015008000,0.004696000,0.001079000,0.000137471,0.000289938,-0.000175738,-0.000612409,-0.013274376,-0.000675879,0.017816312,-0.012828845,1.000340134,0.002575826,-0.000623236,-0.002463840,0.000000000,0.000000000,0.000000000,0.000000000,0.017944486,0.007340975,0.070984313,0.025828622,-0.003823885,0.000559841,0.008621988,-0.002628604,0.000466978,-0.586628235,0.498744884,0.039000509,-0.005117740,-0.004354046,0.000318055,0.999976443,0.000000000,0.000000000,0.000000000,0.000000000,0.000000000,0.000000000,0.039090609,0.000000000,4.233431339
1772428022.247001886,0.017448000,0.007426000,0.070972000,-0.007481400,0.002506090,0.000504760,0.999968750,-0.014961000,0.005020000,0.000972000,0.000101282,0.000116142,-0.000139316,-0.000447212,-0.022955938,-0.005511383,0.017413906,-0.012868898,1.000385657,0.002540904,-0.000501689,-0.003090002,0.000000000,0.000000000,0.000000000,0.000000000,0.017945371,0.007340991,0.070983918,0.025875360,-0.003838387,0.000560762,0.008161298,-0.002519816,0.000445189,-0.586454287,0.498571980,0.038836353,-0.005116229,-0.004352530,0.000316637,0.999976451,0.000000000,0.000000000,0.000000000,0.000000000,0.000000000,0.000000000,0.039144483,0.000000000,4.233431339
1772428022.257001400,0.017455000,0.007421000,0.070961000,-0.007555290,0.002488710,0.000514000,0.999968230,-0.015108000,0.004985000,0.000990000,0.000121834,-0.000214375,-0.000077622,-0.001781281,-0.020071862,-0.006964989,0.015694565,-0.012116706,1.000087287,0.001466374,-0.000564004,-0.000351170,0.000000000,0.000000000,0.000000000,0.000000000,0.017946381,0.007340321,0.070983577,0.025916574,-0.003866972,0.000566771,0.007700630,-0.002411032,0.000423402,-0.584955839,0.498544312,0.039069087,-0.005103144,-0.004352294,0.000318726,0.999976475,0.000000000,0.000000000,0.000000000,0.000000000,0.000000000,0.000000000,0.039198355,0.000000000,4.233431339
1772428022.267001629,0.017449000,0.007423000,0.070965000,-0.007585970,0.002303080,0.000506430,0.999968450,-0.015170000,0.004614000,0.000978000,0.000037315,-0.000263268,0.000006313,-0.005121842,-0.015976746,-0.006933379,0.015371229,-0.011337032,0.999471090,0.001188577,-0.000731863,0.001391497,0.000000000,0.000000000,0.000000000,0.000000000,0.017947222,0.007337500,0.070984022,0.025899339,-0.003924730,0.000585819,0.006105605,-0.000832903,-0.000186770,-0.583993733,0.498067987,0.039248426,-0.005094743,-0.004348143,0.000320348,0.999976553,0.000000000,0.000000000,0.000000000,0.000000000,0.000000000,0.000000000,0.039263965,0.000000000,4.233431339
1772428022.277001143,0.017448000,0.007422000,0.070984000,-0.007542210,0.002082250,0.000400960,0.999969310,-0.015083000,0.004170000,0.000770000,-0.000048737,-0.000117075,0.000026748,-0.005994929,-0.004327688,-0.008316254,0.017247186,-0.012134095,0.999370248,0.001329965,-0.001452893,0.000097326,0.000000000,0.000000000,0.000000000,0.000000000,0.017945214,0.007338865,0.070986379,0.025765506,-0.003851190,0.000556730,0.008272284,-0.001519540,-0.000797198,-0.583408296,0.497108535,0.039117139,-0.005089642,-0.004339763,0.000319267,0.999976652,0.000000000,0.000000000,0.000000000,0.000000000,0.000000000,0.000000000,0.039055992,0.000000000,4.233431339
1772428022.287001133,0.017445000,0.007413000,0.070979000,-0.007583370,0.002155070,0.000371650,0.999968850,-0.015165000,0.004316000,0.000711000,-0.000116298,0.000183372,0.000168182,-0.001372153,-0.005492335,-0.005584426,0.016975931,-0.013060244,1.000619594,-0.001266173,-0.001154573,0.001644044,0.000000000,0.000000000,0.000000000,0.000000000,0.017944776,0.007343859,0.070986947,0.025858379,-0.003857962,0.000489351,0.008657224,-0.002615146,-0.000105442,-0.582594772,0.496181564,0.038534421,-0.005082568,-0.004331645,0.000314254,0.999976673,0.000000000,0.000000000,0.000000000,0.000000000,0.000000000,0.000000000,0.038433437,0.000000000,4.233431339
1772428022.297001123,0.017456000,0.007416000,0.070968000,-0.007672320,0.002215600,0.000398100,0.999968030,-0.015343000,0.004437000,0.000762000,-0.000126768,0.000406488,-0.000048213,0.000913195,-0.005313004,-0.002169619,0.016627098,-0.012629614,0.999924793,-0.001904634,-0.000221177,0.002397073,0.000000000,0.000000000,0.000000000,0.000000000,0.017944569,0.007347553,0.070990700,0.025933936,-0.003957964,0.000515119,0.007827161,-0.002701491,0.000870793,-0.582502941,0.496324336,0.038049392,-0.005081785,-0.004332870,0.000310019,0.999976635,0.000000000,0.000000000,0.000000000,0.000000000,0.000000000,0.000000000,0.038006142,0.000000000,4.233431339
1772428022.307001114,0.017444000,0.007429000,0.070969000,-0.007609130,0.002226360,0.000362950,0.999968510,-0.015217000,0.004458000,0.000692000,-0.000074029,0.000309868,-0.000281313,-0.001071009,-0.004174848,0.004465346,0.016088032,-0.010136885,0.999294520,-0.000275832,0.001326534,0.001643229,0.000000000,0.000000000,0.000000000,0.000000000,0.017948094,0.007348430,0.070983153,0.025962286,-0.004015800,0.000470699,0.007528727,-0.001012132,0.000180685,-0.582266488,0.496432994,0.038455142,-0.005079705,-0.004333835,0.000313564,0.999976670,0.000000000,0.000000000,0.000000000,0.000000000,0.000000000,0.000000000,0.038569556,0.000000000,4.233431339
1772428022.317001820,0.017444000,0.007432000,0.070970000,-0.007562490,0.002256550,0.000380770,0.999968790,-0.015124000,0.004519000,0.000727000,-0.000228166,0.000139180,-0.000144464,-0.000875248,-0.011434764,0.012819486,0.016716345,-0.011867898,0.999911325,0.002762162,0.000102065,0.001347380,0.000000000,0.000000000,0.000000000,0.000000000,0.017950615,0.007347736,0.070975433,0.025935560,-0.003915044,0.000318884,0.007903848,-0.000533498,-0.000295234,-0.581684666,0.496139868,0.039260245,-0.005074599,-0.004331312,0.000320625,0.999976740,0.000000000,0.000000000,0.000000000,0.000000000,0.000000000,0.000000000,0.039297288,0.000000000,4.233431339
1772428022.327001095,0.017446000,0.007435000,0.070973000,-0.007560850,0.001955350,0.000491250,0.999969380,-0.015120000,0.003918000,0.000953000,-0.000082051,-0.000136150,0.000022922,0.000190622,-0.016324468,0.015794164,0.018099129,-0.010737166,0.999067737,-0.001876433,0.004815794,-0.001715898,0.000000000,0.000000000,0.000000000,0.000000000,0.017949673,0.007346867,0.070977325,0.025979159,-0.003837780,0.000268277,0.009118431,-0.001601647,-0.000324951,-0.580470319,0.495015213,0.039606728,-0.005063992,-0.004321509,0.000323744,0.999976754,0.000000000,0.000000000,0.000000000,0.000000000,0.000000000,0.000000000,0.039725336,0.000000000,4.233431339
1772428022.337000847,0.017442000,0.007425000,0.070967000,-0.007644410,0.001870170,0.000539410,0.999968890,-0.015287000,0.003748000,0.001050000,0.000066511,-0.000432460,-0.000167658,-0.000324418,-0.000510705,0.010565933,0.016167858,-0.012298997,0.997573618,-0.001832258,0.001805363,0.000464702,0.000000000,0.000000000,0.000000000,0.000000000,0.017948616,0.007345047,0.070982388,0.026080301,-0.003816004,0.000227768,0.008178085,-0.001402698,-0.001429454,-0.579325275,0.495897198,0.040303468,-0.005053971,-0.004329233,0.000329828,0.999976868,0.000000000,0.000000000,0.000000000,0.000000000,0.000000000,0.000000000,0.040293806,0.000000000,4.233431339
1772428022.347000837,0.017444000,0.007414000,0.070967000,-0.007661730,0.002103100,0.000643130,0.999968230,-0.015321000,0.004216000,0.001254000,0.000323913,-0.000419620,-0.000156624,-0.001134616,0.011021195,0.000664691,0.015261654,-0.011458776,0.998577754,-0.002591706,-0.002479003,0.001241444,0.000000000,0.000000000,0.000000000,0.000000000,0.017952731,0.007344116,0.070977827,0.026072797,-0.003849088,0.000030644,0.006895558,-0.001628309,-0.001614869,-0.579205440,0.493454535,0.040364115,-0.005052931,-0.004307920,0.000330470,0.999976927,0.000000000,0.000000000,0.000000000,0.000000000,0.000000000,0.000000000,0.040458554,0.000000000,4.233431339
1772428022.357000113,0.017442000,0.007417000,0.070973000,-0.007573740,0.001977490,0.000690870,0.999969120,-0.015145000,0.003965000,0.001352000,0.000205497,-0.000187413,0.000096562,0.002464147,0.018747999,-0.009416070,0.016984379,-0.010972720,1.000136407,-0.004195969,0.006253226,0.000772559,0.000000000,0.000000000,0.000000000,0.000000000,0.017950583,0.007348933,0.070972905,0.025980059,-0.003792043,-0.000103602,0.007318473,-0.001121633,-0.000206720,-0.579569256,0.492518387,0.040792911,-0.005056092,-0.004299770,0.000334239,0.999976878,0.000000000,0.000000000,0.000000000,0.000000000,0.000000000,0.000000000,0.040680363,0.000000000,4.233431339
1772428022.367000341,0.017459000,0.007417000,0.070960000,-0.007589160,0.002234470,0.000528020,0.999968570,-0.015176000,0.004477000,0.001022000,-0.000072727,0.000065443,0.000449806,0.007103650,0.019460882,-0.012766831,0.015796509,-0.012004756,1.000883767,0.000234731,0.000621795,-0.003655813,0.000000000,0.000000000,0.000000000,0.000000000,0.017947708,0.007354028,0.070970586,0.025963892,-0.003736411,-0.000092537,0.007668762,-0.001863830,0.000926283,-0.580468820,0.492067231,0.040000644,-0.005063973,-0.004295801,0.000327312,0.999976873,0.000000000,0.000000000,0.000000000,0.000000000,0.000000000,0.000000000,0.039925783,0.000000000,4.233431339
1772428022.377000332,0.017449000,0.007419000,0.070964000,-0.007561780,0.002540260,0.000334020,0.999968130,-0.015122000,0.005085000,0.000630000,-0.000375389,0.000267794,0.000375428,0.007118512,0.014003202,-0.005434369,0.015445041,-0.013205359,1.001000688,0.001762654,-0.001787043,0.000248656,0.000000000,0.000000000,0.000000000,0.000000000,0.017946480,0.007358734,0.070970723,0.025909782,-0.003738604,-0.000001359,0.006806150,-0.002376985,0.000976350,-0.581410141,0.491425163,0.039625072,-0.005072204,-0.004290184,0.000324027,0.999976873,0.000000000,0.000000000,0.000000000,0.000000000,0.000000000,0.000000000,0.039522604,0.000000000,4.233431339
