t,px,py,pz,qx,qy,qz,qw,roll,pitch,yaw,vx,vy,vz,wx_vicon,wy_vicon,wz_vicon,imu_acc_x,imu_acc_y,imu_acc_z,imu_gyro_x,imu_gyro_y,imu_gyro_z,motor_motor_m1,motor_motor_m2,motor_motor_m3,motor_motor_m4,est_stateEstimate_x,est_stateEstimate_y,est_stateEstimate_z,est_stateEstimate_vx,est_stateEstimate_vy,est_stateEstimate_vz,est_stateEstimate_ax,est_stateEstimate_ay,est_stateEstimate_az,att_stateEstimate_roll,att_stateEstimate_pitch,att_stateEstimate_yaw,att_stateEstimate_qx,att_stateEstimate_qy,att_stateEstimate_qz,att_stateEstimate_qw,sp_ctrltarget_x,sp_ctrltarget_y,sp_ctrltarget_z,sp_ctrltarget_yaw,pid_controller_roll,pid_controller_pitch,pid_controller_yaw,pid_controller_cmd_thrust,pwr_pm_vbat
1772722893.178987026,0.019223000,0.005356000,0.054977000,0.026739240,0.020797740,0.015032260,0.999313010,0.054138000,0.040774000,0.031187000,-0.011723710,-0.001553712,0.014122022,-0.302701856,0.434016069,-0.180565989,0.004052337,-0.005414264,1.000161043,-0.000003149,0.000069656,0.000971561,0.000000000,0.000000000,0.000000000,0.000000000,0.019809334,0.004555074,0.055059174,0.035313069,-0.042360525,-0.000518408,0.010552508,-0.010224933,0.000860385,0.301381356,-0.330935578,1.275008149,0.002597737,0.002917031,0.011118624,0.999929534,0.000000000,0.000000000,0.000000000,0.000000000,0.000000000,0.000000000,1.274684484,0.000000000,4.159530640
1772722893.188986778,0.019166000,0.005330000,0.055067000,0.025971470,0.021928980,0.014690920,0.999314150,0.052625000,0.043078000,0.030534000,-0.003612746,-0.000757441,0.005168284,-0.137035085,0.193256529,-0.077785563,0.003419424,-0.005029284,1.000475176,-0.000720798,0.008060995,0.001987683,0.000000000,0.000000000,0.000000000,0.000000000,0.019830732,0.004531994,0.055068232,0.035588813,-0.042463655,-0.000396339,0.009745048,-0.010033012,0.000204217,0.301163997,-0.330453435,1.273883143,0.002595916,0.002912777,0.011108825,0.999929699,0.000000000,0.000000000,0.000000000,0.000000000,0.000000000,0.000000000,1.273920125,0.000000000,4.159530640
1772722893.198987007,0.019136000,0.005337000,0.055097000,0.025389770,0.022561890,0.014424880,0.999318890,0.051469000,0.044375000,0.030010000,0.000754391,-0.000234013,0.000042638,-0.034204949,0.045446641,-0.014137123,0.003576001,-0.005241758,1.000412520,-0.000687473,0.007603509,0.001915663,0.000000000,0.000000000,0.000000000,0.000000000,0.019842319,0.004525121,0.055066652,0.035695238,-0.042471130,-0.000383118,0.009532374,-0.010704138,0.000482799,0.300181732,-0.332877786,1.274060908,0.002587105,0.002933840,0.011110346,0.999929719,0.000000000,0.000000000,0.000000000,0.000000000,0.000000000,0.000000000,1.274062553,0.000000000,4.159530640
1772722893.208987236,0.019152000,0.005341000,0.055080000,0.025091850,0.023048850,0.014245590,0.999317870,0.050880000,0.045367000,0.029663000,0.002257423,0.000066220,-0.002100371,0.017943062,-0.027738974,0.017753411,0.003771918,-0.005480795,1.000317734,-0.000604940,0.006670860,0.001797303,0.000000000,0.000000000,0.000000000,0.000000000,0.019848900,0.004524980,0.055059285,0.035721436,-0.042462947,-0.000409105,0.009722561,-0.010880862,0.000287111,0.300065228,-0.332902819,1.274077062,0.002586085,0.002934048,0.011110489,0.999929711,0.000000000,0.000000000,0.000000000,0.000000000,0.000000000,0.000000000,1.274078727,0.000000000,4.159530640
1772722893.218986750,0.019164000,0.005333000,0.055088000,0.024961530,0.023315030,0.014154130,0.999316260,0.050624000,0.045908000,0.029488000,0.001776070,0.000192910,-0.002106199,0.031516946,-0.044636530,0.025319232,0.003967820,-0.005719815,1.000222955,-0.000522413,0.005738278,0.001678951,0.000000000,0.000000000,0.000000000,0.000000000,0.019855480,0.004524840,0.055051919,0.035747632,-0.042454766,-0.000435090,0.009912734,-0.011057573,0.000091436,0.299948732,-0.332927850,1.274093215,0.002585066,0.002934255,0.011110632,0.999929703,0.000000000,0.000000000,0.000000000,0.000000000,0.000000000,0.000000000,1.274094899,0.000000000,4.159530640
1772722893.228986263,0.019237000,0.005348000,0.054977000,0.026290740,0.021412070,0.014956100,0.999313080,0.053258000,0.042021000,0.031050000,0.000190055,0.000195707,-0.000820300,0.018640900,-0.023588042,0.015953344,0.004163723,-0.005958836,1.000128176,-0.000439886,0.004805696,0.001560599,0.000000000,0.000000000,0.000000000,0.000000000,0.019862060,0.004524699,0.055044553,0.035773829,-0.042446584,-0.000461075,0.010102907,-0.011234284,-0.000104238,0.299832237,-0.332952882,1.274109368,0.002584046,0.002934463,0.011110775,0.999929695,0.000000000,0.000000000,0.000000000,0.000000000,0.000000000,0.000000000,1.274111072,0.000000000,4.159530640
1772722893.238986492,0.019167000,0.005333000,0.055069000,0.025640850,0.022228010,0.014678080,0.999316270,0.051972000,0.043687000,0.030510000,-0.000921990,0.000002331,0.000486675,-0.004661159,0.009097746,-0.000418656,0.004359639,-0.006197873,1.000033390,-0.000357352,0.003873048,0.001442239,0.000000000,0.000000000,0.000000000,0.000000000,0.019868641,0.004524559,0.055037186,0.035800027,-0.042438401,-0.000487062,0.010293093,-0.011411008,-0.000299927,0.299715733,-0.332977915,1.274125522,0.002583027,0.002934671,0.011110919,0.999929686,0.000000000,0.000000000,0.000000000,0.000000000,0.000000000,0.000000000,1.274127245,0.000000000,4.159530640
1772722893.248986721,0.019142000,0.005332000,0.055089000,0.025196230,0.023016660,0.014449860,0.999313060,0.051098000,0.045289000,0.030075000,-0.001858393,0.000054953,0.001723040,-0.047308109,0.066724404,-0.031006127,0.004555556,-0.006436911,0.999938604,-0.000274819,0.002940399,0.001323878,0.000000000,0.000000000,0.000000000,0.000000000,0.019875221,0.004524418,0.055029819,0.035826226,-0.042430219,-0.000513049,0.010483280,-0.011587732,-0.000495616,0.299599229,-0.333002948,1.274141676,0.002582007,0.002934878,0.011111062,0.999929678,0.000000000,0.000000000,0.000000000,0.000000000,0.000000000,0.000000000,1.274143419,0.000000000,4.159530640
1772722893.258985996,0.019142000,0.005341000,0.055074000,0.025243100,0.022850260,0.014395270,0.999316480,0.051184000,0.044958000,0.029959000,-0.001202099,0.000058120,0.001225331,-0.058384268,0.083319816,-0.039586800,0.004751454,-0.006675925,0.999843828,-0.000192294,0.002007839,0.001205529,0.000000000,0.000000000,0.000000000,0.000000000,0.019881801,0.004524278,0.055022453,0.035852422,-0.042422037,-0.000539034,0.010673448,-0.011764439,-0.000691286,0.299482736,-0.333027979,1.274157829,0.002580988,0.002935086,0.011111205,0.999929670,0.000000000,0.000000000,0.000000000,0.000000000,0.000000000,0.000000000,1.274159591,0.000000000,4.159530640
1772722893.268986702,0.019127000,0.005351000,0.055083000,0.024997610,0.023295570,0.014192070,0.999315280,0.050697000,0.045866000,0.029565000,0.000875564,0.000316997,-0.001120494,0.000883884,0.004926168,-0.008602244,0.005366977,-0.005874247,0.999332808,-0.000356578,0.002249903,0.002315350,0.000000000,0.000000000,0.000000000,0.000000000,0.019884294,0.004522285,0.055021734,0.035888677,-0.042434270,-0.000534960,0.010863644,-0.011941172,-0.000886984,0.299366227,-0.333053014,1.274173984,0.002579968,0.002935293,0.011111348,0.999929635,0.000000000,0.000000000,0.000000000,0.000000000,0.000000000,0.000000000,1.274175765,0.000000000,4.159530640
1772722893.278986216,0.019149000,0.005335000,0.055089000,0.024712090,0.023556340,0.014069890,0.999317990,0.050128000,0.046402000,0.029321000,0.002571117,0.000349787,-0.003194292,0.083798458,-0.111112963,0.047035811,0.003851445,-0.005208211,0.999214654,-0.002715217,0.003445712,-0.000096371,0.000000000,0.000000000,0.000000000,0.000000000,0.019804270,0.004591082,0.055047310,0.035468315,-0.041889553,-0.000426426,0.010990093,-0.009990205,-0.000269387,0.287034980,-0.324063176,1.277442526,0.002473157,0.002855722,0.011140384,0.999929757,0.000000000,0.000000000,0.000000000,0.000000000,0.000000000,0.000000000,1.277917810,0.000000000,4.159530640
1772722893.288986683,0.019162000,0.005343000,0.055068000,0.024944310,0.023369880,0.014159930,0.999315330,0.050591000,0.046018000,0.029502000,0.002162881,-0.000121368,-0.002212551,0.106626721,-0.141702016,0.068077561,0.004414946,-0.006433810,0.999614985,0.000685383,0.000201427,0.000767046,0.000000000,0.000000000,0.000000000,0.000000000,0.019618242,0.004791027,0.055065178,0.034227736,-0.040262037,-0.000392696,0.009417833,-0.011410929,-0.000776798,0.283937634,-0.323002558,1.275972314,0.002446269,0.002846135,0.011127656,0.999929925,0.000000000,0.000000000,0.000000000,0.000000000,0.000000000,0.000000000,1.275739273,0.000000000,4.159530640
1772722893.298986435,0.019229000,0.005346000,0.054974000,0.026442310,0.021346860,0.015052230,0.999309030,0.053563000,0.041880000,0.031245000,0.000635820,-0.000488462,-0.000215754,0.073703126,-0.094037951,0.052809319,0.003645197,-0.008148269,0.998680097,0.000405770,-0.000774522,-0.001138903,0.000000000,0.000000000,0.000000000,0.000000000,0.019621366,0.004781370,0.055068697,0.034266539,-0.040206316,-0.000422526,0.009996512,-0.012596699,-0.000377862,0.278221604,-0.319285263,1.278260778,0.002396696,0.002813190,0.011147847,0.999930008,0.000000000,0.000000000,0.000000000,0.000000000,0.000000000,0.000000000,1.278065284,0.000000000,4.159530640
1772722893.308986425,0.019244000,0.005357000,0.054947000,0.027588410,0.019936490,0.015538950,0.999299730,0.055829000,0.038998000,0.032186000,-0.000505537,-0.000408159,0.000668571,0.033557478,-0.041206621,0.030988552,0.003011927,-0.006805895,0.999163405,-0.001292063,0.002249350,0.002476234,0.000000000,0.000000000,0.000000000,0.000000000,0.019733165,0.004647889,0.055073642,0.035041733,-0.041171180,-0.000476391,0.009169114,-0.012642388,-0.000893400,0.277533422,-0.318318855,1.276794183,0.002390821,0.002804660,0.011135087,0.999930177,0.000000000,0.000000000,0.000000000,0.000000000,0.000000000,0.000000000,1.276770760,0.000000000,4.159530640
1772722893.318986893,0.019171000,0.005323000,0.055062000,0.026655760,0.021153540,0.015310520,0.999303550,0.053995000,0.041473000,0.031760000,-0.000600700,0.000038850,0.000131760,0.018871185,-0.017310528,0.019560649,0.003176861,-0.006947618,1.000598867,0.000284674,-0.002143564,0.003365409,0.000000000,0.000000000,0.000000000,0.000000000,0.019794370,0.004584265,0.055069414,0.035445322,-0.041736544,-0.000576397,0.008559378,-0.011346581,-0.000485292,0.276966443,-0.318604643,1.276556630,0.002385852,0.002807093,0.011133022,0.999930203,0.000000000,0.000000000,0.000000000,0.000000000,0.000000000,0.000000000,1.276495044,0.000000000,4.159530640
1772722893.328985929,0.019161000,0.005323000,0.055084000,0.026072170,0.021975850,0.014949500,0.999306670,0.052839000,0.043155000,0.031058000,-0.000790327,-0.000073388,0.000683587,-0.014269410,0.024095808,-0.004754390,0.003043456,-0.006129493,1.000002842,-0.000517877,-0.001108262,-0.003557420,0.000000000,0.000000000,0.000000000,0.000000000,0.019841834,0.004557672,0.055036510,0.035653645,-0.042001490,-0.000718365,0.008830265,-0.011761045,0.000347179,0.276227933,-0.317971322,1.276090618,0.002379480,0.002801486,0.011128988,0.999930296,0.000000000,0.000000000,0.000000000,0.000000000,0.000000000,0.000000000,1.275876546,0.000000000,4.159530640
1772722893.338985920,0.019141000,0.005334000,0.055081000,0.025605250,0.022553660,0.014698740,0.999309590,0.051912000,0.044338000,0.030567000,-0.000323621,0.000143862,0.000122417,-0.015775897,0.028153576,-0.008335923,0.002868256,-0.006005101,1.000848653,-0.001253850,-0.003271547,-0.005105223,0.000000000,0.000000000,0.000000000,0.000000000,0.019881535,0.004545650,0.054995992,0.035769064,-0.042155320,-0.000861011,0.008122416,-0.011524981,0.000152952,0.275915234,-0.317077762,1.274895135,0.002376868,0.002793633,0.011118582,0.999930423,0.000000000,0.000000000,0.000000000,0.000000000,0.000000000,0.000000000,1.274483465,0.000000000,4.159530640
1772722893.348986387,0.019210000,0.005353000,0.054970000,0.026786550,0.021056600,0.015351430,0.999301470,0.054255000,0.041273000,0.031842000,0.001553867,0.000567036,-0.002328188,0.051531381,-0.072659255,0.026896175,0.003338548,-0.006537094,1.000971224,-0.000547946,-0.003595205,-0.001811973,0.000000000,0.000000000,0.000000000,0.000000000,0.019902950,0.004539368,0.054972727,0.035793408,-0.042251526,-0.000924909,0.008965678,-0.010780824,0.001641539,0.275266009,-0.315440345,1.273415179,0.002371398,0.002779251,0.011105719,0.999930603,0.000000000,0.000000000,0.000000000,0.000000000,0.000000000,0.000000000,1.272927694,0.000000000,4.159530640
1772722893.358985901,0.019237000,0.005355000,0.054948000,0.027695960,0.019911100,0.015722910,0.999294390,0.056051000,0.038933000,0.032557000,0.001550681,0.000421465,-0.001977177,0.075025853,-0.117374366,0.035391887,0.004002926,-0.007192374,1.000216822,0.001078859,-0.002332833,0.002000296,0.000000000,0.000000000,0.000000000,0.000000000,0.019885132,0.004521260,0.055007561,0.035669355,-0.042355916,-0.000673870,0.009954800,-0.011513464,0.000140445,0.274851257,-0.313763940,1.272068408,0.002367974,0.002764555,0.011094012,0.999930821,0.000000000,0.000000000,0.000000000,0.000000000,0.000000000,0.000000000,1.271856711,0.000000000,4.159530640
1772722893.368986607,0.019172000,0.005328000,0.055063000,0.026612800,0.021160620,0.015147300,0.999307030,0.053902000,0.041498000,0.031432000,0.000778556,0.000178749,-0.000826749,0.062845929,-0.109740371,0.029322592,0.003763915,-0.006918348,0.999776481,0.002240721,-0.002399561,-0.000429573,0.000000000,0.000000000,0.000000000,0.000000000,0.019870435,0.004510555,0.055038173,0.035670746,-0.042478127,-0.000465553,0.009385103,-0.011126457,0.000040538,0.275115162,-0.312643155,1.270895980,0.002370413,0.002754776,0.011083799,0.999930933,0.000000000,0.000000000,0.000000000,0.000000000,0.000000000,0.000000000,1.270707464,0.000000000,4.159530640
1772722893.378986359,0.019222000,0.005353000,0.054978000,0.027452720,0.020046360,0.015635650,0.999299760,0.055565000,0.039216000,0.032381000,-0.000032343,-0.000169542,0.000600739,0.020351150,-0.054576825,0.006444489,0.003225823,-0.006381464,1.000996493,0.003359892,-0.004412751,-0.001831255,0.000000000,0.000000000,0.000000000,0.000000000,0.019855117,0.004508779,0.055054534,0.035674762,-0.042542766,-0.000416190,0.008751681,-0.011183120,0.000626744,0.273304628,-0.309669750,1.270305702,0.002354917,0.002728642,0.011078753,0.999931032,0.000000000,0.000000000,0.000000000,0.000000000,0.000000000,0.000000000,1.269831300,0.000000000,4.159530640
1772722893.388986349,0.019242000,0.005357000,0.054953000,0.028057530,0.018863620,0.015747460,0.999304240,0.056739000,0.036826000,0.032559000,-0.001448389,-0.000278633,0.002087687,-0.046283179,0.042211383,-0.026680657,0.003737290,-0.008073123,1.000838182,0.000535719,-0.003062430,-0.001672528,0.000000000,0.000000000,0.000000000,0.000000000,0.019742350,0.004664785,0.055026708,0.034738006,-0.041351587,-0.000545476,0.009117151,-0.012006838,0.000726276,0.262917731,-0.298707052,1.272337205,0.002265295,0.002632018,0.011096952,0.999931340,0.000000000,0.000000000,0.000000000,0.000000000,0.000000000,0.000000000,1.269993593,0.000000000,4.159530640
1772722893.398987293,0.019164000,0.005331000,0.055064000,0.026722060,0.020581630,0.015129330,0.999316480,0.054101000,0.040337000,0.031369000,-0.000819309,0.000149398,0.000590249,-0.043237399,0.057411769,-0.023904943,0.004453937,-0.007820536,1.000234891,0.003127553,0.002240123,0.005843576,0.000000000,0.000000000,0.000000000,0.000000000,0.019736735,0.004703126,0.054991944,0.034476678,-0.041050358,-0.000633919,0.009845080,-0.012109540,0.000343144,0.262796552,-0.297545631,1.270678404,0.002264387,0.002621838,0.011082501,0.999931544,0.000000000,0.000000000,0.000000000,0.000000000,0.000000000,0.000000000,1.270733733,0.000000000,4.159530640
1772722893.408987045,0.019213000,0.005360000,0.054975000,0.027448330,0.019801900,0.015518270,0.999306590,0.055543000,0.038734000,0.032132000,-0.001030906,-0.000019192,0.000784810,-0.054482553,0.090812133,-0.028712468,0.004237458,-0.006784577,0.999856682,-0.000345564,-0.001047537,-0.000907899,0.000000000,0.000000000,0.000000000,0.000000000,0.019811775,0.004623902,0.054982664,0.034891656,-0.041661872,-0.000597714,0.010155914,-0.010952124,-0.000052070,0.263682061,-0.298625379,1.271115102,0.002272000,0.002631355,0.011086270,0.999931536,0.000000000,0.000000000,0.000000000,0.000000000,0.000000000,0.000000000,1.271169356,0.000000000,4.159530640
1772722893.418987036,0.019168000,0.005328000,0.055068000,0.026291700,0.021377120,0.015060020,0.999312240,0.053263000,0.041945000,0.031256000,-0.000732343,-0.000066103,0.000557848,-0.050211384,0.093125813,-0.030037842,0.003634067,-0.005891698,1.000402773,-0.000682101,0.000401896,-0.001030821,0.000000000,0.000000000,0.000000000,0.000000000,0.019841823,0.004567790,0.055007418,0.035192705,-0.042109629,-0.000484136,0.009446198,-0.010071022,0.000181674,0.263478454,-0.298974903,1.270222594,0.002270210,0.002634367,0.011078480,0.999931579,0.000000000,0.000000000,0.000000000,0.000000000,0.000000000,0.000000000,1.270061543,0.000000000,4.159530640
1772722893.428986311,0.019145000,0.005347000,0.055063000,0.025881670,0.022122910,0.014807270,0.999310490,0.052456000,0.043463000,0.030773000,0.000491628,0.000039025,-0.000718338,-0.010983704,0.035661339,-0.006225028,0.003956119,-0.005457554,0.999830981,0.001904634,0.002462911,-0.001494367,0.000000000,0.000000000,0.000000000,0.000000000,0.019880000,0.004548887,0.054982334,0.035384279,-0.042250716,-0.000571597,0.008892527,-0.010434829,-0.000305485,0.263072024,-0.299694850,1.269024620,0.002266621,0.002640587,0.011068022,0.999931667,0.000000000,0.000000000,0.000000000,0.000000000,0.000000000,0.000000000,1.268877133,0.000000000,4.159530640
1772722893.438986063,0.019215000,0.005360000,0.054964000,0.026977240,0.020827800,0.015223700,0.999303090,0.054624000,0.040817000,0.031581000,0.000548272,-0.000368959,-0.000081877,-0.009325716,0.017551223,-0.002550545,0.005064369,-0.006548501,0.999389088,0.001617357,0.001462788,-0.002585552,0.000000000,0.000000000,0.000000000,0.000000000,0.019893044,0.004536941,0.054979027,0.035415200,-0.042290002,-0.000554951,0.010347368,-0.010344074,-0.000696136,0.263455272,-0.300806892,1.267511522,0.002269893,0.002650297,0.011054787,0.999931763,0.000000000,0.000000000,0.000000000,0.000000000,0.000000000,0.000000000,1.267318792,0.000000000,4.159530640
1772722893.448985577,0.019162000,0.005327000,0.055057000,0.026061880,0.021897170,0.014909580,0.999309260,0.052814000,0.043000000,0.030973000,0.000531858,-0.000510684,0.000273446,-0.013608046,0.012840881,-0.004718678,0.004270345,-0.007228802,0.999281841,0.002940365,0.002611783,-0.003958225,0.000000000,0.000000000,0.000000000,0.000000000,0.019879368,0.004526722,0.055003662,0.035439473,-0.042326532,-0.000507391,0.010436187,-0.012234601,-0.001195991,0.263040055,-0.300437482,1.265640032,0.002266349,0.002646997,0.011038473,0.999931938,0.000000000,0.000000000,0.000000000,0.000000000,0.000000000,0.000000000,1.265146978,0.000000000,4.159530640
1772722893.458985567,0.019233000,0.005350000,0.054971000,0.027081390,0.020487150,0.015270190,0.999306610,0.054822000,0.040130000,0.031660000,0.000803070,-0.000129468,-0.000509868,0.009315186,-0.023499207,0.010150415,0.003470158,-0.007255209,0.999694135,0.001746623,0.003048575,-0.001928521,0.000000000,0.000000000,0.000000000,0.000000000,0.019885299,0.004528149,0.054994065,0.035556137,-0.042397195,-0.000604892,0.008527281,-0.011100525,0.000068502,0.262653477,-0.301144651,1.264009759,0.002262945,0.002653098,0.011024242,0.999932124,0.000000000,0.000000000,0.000000000,0.000000000,0.000000000,0.000000000,1.263631627,0.000000000,4.159530640
1772722893.468985558,0.019185000,0.005319000,0.055064000,0.026072330,0.021687090,0.015033150,0.999311720,0.052833000,0.042573000,0.031210000,-0.000110975,-0.000214647,0.000638559,-0.010565125,0.006827691,-0.002622923,0.003516969,-0.008008448,1.000202130,-0.001188213,-0.000149339,-0.000449831,0.000000000,0.000000000,0.000000000,0.000000000,0.019870251,0.004516663,0.055025522,0.035510552,-0.042528529,-0.000519824,0.008951325,-0.012657263,-0.000198553,0.261983758,-0.301893458,1.262727212,0.002257059,0.002659543,0.011013050,0.999932250,0.000000000,0.000000000,0.000000000,0.000000000,0.000000000,0.000000000,1.262561710,0.000000000,4.159530640
1772722893.478985548,0.019165000,0.005319000,0.055080000,0.025494860,0.022559190,0.014759910,0.999311380,0.051694000,0.044349000,0.030685000,-0.001057674,-0.000029817,0.001033198,-0.027967891,0.040393297,-0.015989783,0.004052323,-0.008193405,1.000034254,-0.000497809,-0.002689322,-0.001537073,0.000000000,0.000000000,0.000000000,0.000000000,0.019855112,0.004519124,0.055035017,0.035422463,-0.042605817,-0.000452611,0.009502631,-0.013029370,-0.000194961,0.261348279,-0.301109045,1.261016254,0.002251628,0.002652603,0.010998151,0.999932385,0.000000000,0.000000000,0.000000000,0.000000000,0.000000000,0.000000000,1.260693169,0.000000000,4.159530640
1772722893.488985538,0.019225000,0.005353000,0.054972000,0.026743810,0.020931310,0.015139940,0.999308480,0.054156000,0.041035000,0.031410000,-0.001344232,-0.000048485,0.001121310,-0.043644648,0.073206300,-0.027718479,0.003976506,-0.007528378,0.999622371,0.001127349,-0.001446473,-0.002820487,0.000000000,0.000000000,0.000000000,0.000000000,0.019878692,0.004524565,0.054994439,0.035497789,-0.042809964,-0.000606459,0.009874035,-0.011467213,0.000115277,0.261109297,-0.300272695,1.259447841,0.002249660,0.002645251,0.010984487,0.999932616,0.000000000,0.000000000,0.000000000,0.000000000,0.000000000,0.000000000,1.259248191,0.000000000,4.159530640
1772722893.498985291,0.019164000,0.005339000,0.055044000,0.026233040,0.021623680,0.015001260,0.999309360,0.053151000,0.042443000,0.031149000,-0.001014162,-0.000055983,0.000709111,-0.044935131,0.078083012,-0.027300369,0.003411822,-0.007284022,1.000041664,-0.000943592,0.000547020,-0.003317228,0.000000000,0.000000000,0.000000000,0.000000000,0.019865637,0.004510004,0.055019754,0.035515056,-0.042959845,-0.000520459,0.009433959,-0.011274850,-0.000002282,0.260909170,-0.300273275,1.258298153,0.002247940,0.002645215,0.010974459,0.999932717,0.000000000,0.000000000,0.000000000,0.000000000,0.000000000,0.000000000,1.258132042,0.000000000,4.159530640
1772722893.508984804,0.019152000,0.005327000,0.055079000,0.025597210,0.022652300,0.014595580,0.999309070,0.051895000,0.044541000,0.030365000,-0.000104351,0.000030420,0.000032809,-0.026682000,0.049838453,-0.016833198,0.004174921,-0.005776938,1.001127925,-0.002424800,0.004043485,0.000930884,0.000000000,0.000000000,0.000000000,0.000000000,0.019893324,0.004511382,0.054990539,0.035587314,-0.043050929,-0.000651113,0.009709778,-0.010135841,0.000838383,0.260302411,-0.301159063,1.257503906,0.002242579,0.002652870,0.010967525,0.999932778,0.000000000,0.000000000,0.000000000,0.000000000,0.000000000,0.000000000,1.257460243,0.000000000,4.159530640
1772722893.518985033,0.019142000,0.005321000,0.055081000,0.025190700,0.023154570,0.014530790,0.999308840,0.051095000,0.045561000,0.030244000,0.000199359,-0.000033469,0.000080342,-0.022812185,0.030964079,-0.008030076,0.004529325,-0.006188437,0.999541556,-0.000621013,0.004553962,0.000989252,0.000000000,0.000000000,0.000000000,0.000000000,0.020231081,0.004103709,0.054984462,0.036214717,-0.043705661,-0.000583988,0.010655345,-0.009990931,-0.000231396,0.259555924,-0.302816505,1.257321702,0.002235910,0.002667258,0.010965920,0.999932914,0.000000000,0.000000000,0.000000000,0.000000000,0.000000000,0.000000000,1.257316658,0.000000000,4.159530640
1772722893.528984308,0.019161000,0.005329000,0.055071000,0.025026900,0.023439060,0.014454240,0.999307430,0.050773000,0.046139000,0.030098000,0.001421466,0.000341045,-0.001763502,0.037254373,-0.060578624,0.025863442,0.005096941,-0.004602101,0.998505491,0.000142952,-0.000368668,-0.001354266,0.000000000,0.000000000,0.000000000,0.000000000,0.019554337,0.004874526,0.055038917,0.027853130,-0.033413624,-0.000445532,0.008804951,-0.007175363,-0.001421024,0.182960184,-0.243516262,1.271952459,0.001572958,0.002142643,0.011096099,0.999933261,0.000000000,0.000000000,0.000000000,0.000000000,0.000000000,0.000000000,1.274309806,0.000000000,4.159530640
1772722893.538984299,0.019227000,0.005352000,0.054970000,0.026429160,0.021480960,0.015101150,0.999305770,0.053543000,0.042146000,0.031350000,0.001880771,0.000681333,-0.002497516,0.089380264,-0.140531753,0.048007558,0.005312944,-0.005555435,1.001309199,-0.002297554,0.001317669,0.001916210,0.000000000,0.000000000,0.000000000,0.000000000,0.019294375,0.005188148,0.055045435,0.023711245,-0.028180543,-0.000431648,0.010037744,-0.007854041,0.000469701,0.168997031,-0.231410091,1.277760713,0.001452163,0.002035751,0.011147311,0.999933609,0.000000000,0.000000000,0.000000000,0.000000000,0.000000000,0.000000000,1.278058676,0.000000000,4.159530640
1772722893.548983812,0.019177000,0.005334000,0.055054000,0.025931580,0.021975850,0.014877780,0.999311400,0.052554000,0.043163000,0.030909000,0.001291046,0.000734771,-0.002073273,0.109880987,-0.169310214,0.058509008,0.003317315,-0.006615843,1.002084661,0.002070646,0.000887587,-0.001435560,0.000000000,0.000000000,0.000000000,0.000000000,0.019488383,0.004983937,0.055021054,0.024746011,-0.029149050,-0.000433014,0.008400996,-0.009928691,0.002768559,0.176878219,-0.238132912,1.280562391,0.001520229,0.002095219,0.011171526,0.999933405,0.000000000,0.000000000,0.000000000,0.000000000,0.000000000,0.000000000,1.280842093,0.000000000,4.159530640
1772722893.558983564,0.019224000,0.005360000,0.054963000,0.027075950,0.020296420,0.015391110,0.999308790,0.054810000,0.039742000,0.031891000,-0.000050796,0.000285043,-0.000188481,0.069854433,-0.105338317,0.034228235,0.003283316,-0.006532373,1.002275204,0.001667555,0.000285934,-0.001050257,0.000000000,0.000000000,0.000000000,0.000000000,0.019588691,0.004871944,0.055017774,0.025587893,-0.030001619,-0.000270563,0.007186653,-0.009485413,0.001858645,0.183954537,-0.241818087,1.282513727,0.001581582,0.002128093,0.011188373,0.999932985,0.000000000,0.000000000,0.000000000,0.000000000,0.000000000,0.000000000,1.282762493,0.000000000,4.159530640
1772722893.568983555,0.019238000,0.005355000,0.054949000,0.027957820,0.019214860,0.015790980,0.999299650,0.056553000,0.037529000,0.032663000,-0.000395824,0.000023912,0.000248058,0.037427993,-0.055295809,0.018804770,0.003820033,-0.006726104,1.001672610,-0.000891403,-0.001646204,0.001121676,0.000000000,0.000000000,0.000000000,0.000000000,0.019664216,0.004814537,0.054985306,0.026155281,-0.030750045,-0.000152084,0.007640700,-0.010161222,0.002556675,0.190299218,-0.245360573,1.284920267,0.001636555,0.002159659,0.011209203,0.999932574,0.000000000,0.000000000,0.000000000,0.000000000,0.000000000,0.000000000,1.285225640,0.000000000,4.159530640
1772722893.578982830,0.019166000,0.005342000,0.055065000,0.026641040,0.020941730,0.015112900,0.999311410,0.053950000,0.041061000,0.031352000,-0.000481702,-0.000202389,0.000786559,0.001811636,0.002584866,0.001963562,0.003548013,-0.007354912,1.000403522,0.002027751,0.000612839,0.001190790,0.000000000,0.000000000,0.000000000,0.000000000,0.019700036,0.004775535,0.054984827,0.026591144,-0.031376292,0.000043620,0.008750365,-0.009980890,0.000805301,0.190884365,-0.244994040,1.284845893,0.001641698,0.002156517,0.011208548,0.999932481,0.000000000,0.000000000,0.000000000,0.000000000,0.000000000,0.000000000,1.284771310,0.000000000,4.159530640
1772722893.588982344,0.019210000,0.005359000,0.054976000,0.027449250,0.019973670,0.015596750,0.999301920,0.055554000,0.039073000,0.032299000,-0.000231449,-0.000361655,0.000933373,-0.023433719,0.035466580,-0.006867534,0.003769633,-0.007779256,1.000752319,0.000851712,0.001409545,0.000177448,0.000000000,0.000000000,0.000000000,0.000000000,0.019702165,0.004749711,0.055014323,0.026940153,-0.031938366,0.000259562,0.008054140,-0.010803556,0.000229216,0.191681564,-0.244110673,1.283361787,0.001648769,0.002148865,0.011195596,0.999932631,0.000000000,0.000000000,0.000000000,0.000000000,0.000000000,0.000000000,1.284749389,0.000000000,4.159530640
1772722893.598981619,0.019168000,0.005333000,0.055059000,0.026424900,0.021330180,0.015109500,0.999308990,0.053530000,0.041845000,0.031358000,-0.000932441,-0.000805848,0.002115173,-0.073271578,0.099639085,-0.028644482,0.003600424,-0.006375768,1.000820378,0.000664753,0.001553586,-0.000462501,0.000000000,0.000000000,0.000000000,0.000000000,0.019715923,0.004734460,0.055009360,0.027288701,-0.032477291,0.000270317,0.007459391,-0.010010133,0.001031956,0.191384799,-0.244113513,1.282197935,0.001646201,0.002148844,0.011185447,0.999932771,0.000000000,0.000000000,0.000000000,0.000000000,0.000000000,0.000000000,1.282215144,0.000000000,4.159530640
1772722893.608981609,0.019231000,0.005347000,0.054977000,0.027268320,0.020109530,0.015540850,0.999305020,0.055195000,0.039354000,0.032187000,-0.000586053,-0.000706411,0.001375001,-0.080831295,0.110327732,-0.032551584,0.004035127,-0.005446456,1.000846118,0.000826772,0.001987352,-0.000502657,0.000000000,0.000000000,0.000000000,0.000000000,0.019713956,0.004715960,0.055031494,0.027531627,-0.032913725,0.000413304,0.008067023,-0.009302883,0.000869632,0.191149739,-0.244132158,1.281603042,0.001644159,0.002148975,0.011180260,0.999932851,0.000000000,0.000000000,0.000000000,0.000000000,0.000000000,0.000000000,1.281995535,0.000000000,4.159530640
1772722893.618981123,0.019172000,0.005325000,0.055074000,0.026179860,0.021639140,0.015123250,0.999308590,0.053051000,0.042469000,0.031392000,-0.000511422,-0.000667794,0.001136190,-0.081563682,0.119829954,-0.036682861,0.004919849,-0.005154586,1.001066532,0.000378547,0.002419829,-0.000361673,0.000000000,0.000000000,0.000000000,0.000000000,0.019726939,0.004712105,0.055020796,0.027669476,-0.033043266,0.000394219,0.008674625,-0.008595666,0.000707315,0.191011730,-0.244104073,1.281115770,0.001642967,0.002148710,0.011176010,0.999932899,0.000000000,0.000000000,0.000000000,0.000000000,0.000000000,0.000000000,1.281995535,0.000000000,4.159530640
1772722893.628981113,0.019164000,0.005319000,0.055089000,0.025404190,0.022546950,0.014816930,0.999313120,0.051515000,0.044325000,0.030794000,-0.001204527,-0.000372009,0.001822166,-0.103265027,0.153994936,-0.057670319,0.005533925,-0.004876317,1.001271649,0.000028893,0.002586118,-0.000069453,0.000000000,0.000000000,0.000000000,0.000000000,0.019739923,0.004708250,0.055010097,0.027807332,-0.033172814,0.000375132,0.009672178,-0.008300271,0.000907527,0.190903355,-0.244006945,1.280536375,0.001642041,0.002147843,0.011170957,0.999932948,0.000000000,0.000000000,0.000000000,0.000000000,0.000000000,0.000000000,1.281484341,0.000000000,4.159530640
1772722893.638981104,0.019152000,0.005315000,0.055082000,0.025022340,0.023279320,0.014608890,0.999309030,0.050765000,0.045811000,0.030399000,-0.000770280,0.000044270,0.000622184,-0.076810026,0.121559685,-0.048396949,0.004516772,-0.004976174,1.001267675,0.000116799,0.001512739,0.000693364,0.000000000,0.000000000,0.000000000,0.000000000,0.019732952,0.004692681,0.055040889,0.028173653,-0.033383486,0.000576779,0.009457292,-0.008111290,0.001366964,0.190778359,-0.243750745,1.279754487,0.001640990,0.002145584,0.011164140,0.999933009,0.000000000,0.000000000,0.000000000,0.000000000,0.000000000,0.000000000,1.280310385,0.000000000,4.159530640
1772722893.648981571,0.019166000,0.005324000,0.055072000,0.024902630,0.023598170,0.014441990,0.999306970,0.050528000,0.046461000,0.030076000,-0.001086617,0.000048621,0.001125234,-0.075445927,0.119327599,-0.054989772,0.002999632,-0.006577159,1.000033935,-0.000758610,0.000523516,0.002373678,0.000000000,0.000000000,0.000000000,0.000000000,0.019725608,0.004675571,0.055076484,0.028614460,-0.033613808,0.000830157,0.008205825,-0.009177401,0.000412048,0.190142056,-0.243169438,1.278470843,0.001635518,0.002140432,0.011152959,0.999933105,0.000000000,0.000000000,0.000000000,0.000000000,0.000000000,0.000000000,1.279230599,0.000000000,4.159530640
1772722893.658981085,0.019156000,0.005328000,0.055082000,0.024675010,0.023929240,0.014275080,0.999307140,0.050076000,0.047138000,0.029749000,0.000505070,0.000670377,-0.001261889,-0.002248662,0.010043152,-0.019256170,0.002916261,-0.007458744,0.999714152,-0.002152813,-0.003529573,0.003448856,0.000000000,0.000000000,0.000000000,0.000000000,0.019721494,0.004664117,0.055087889,0.028879849,-0.033963347,0.000873413,0.007027793,-0.011061607,-0.001228497,0.189740771,-0.241790544,1.277761448,0.001632164,0.002128350,0.011146797,0.999933249,0.000000000,0.000000000,0.000000000,0.000000000,0.000000000,0.000000000,1.278150916,0.000000000,4.159530640
1772722893.668980837,0.019145000,0.005336000,0.055090000,0.024541310,0.023992350,0.014093240,0.999311500,0.049801000,0.047278000,0.029382000,0.000898797,0.000472825,-0.001299438,0.036332344,-0.052845367,0.004183474,0.002613859,-0.008336016,1.001087964,-0.001079958,-0.004318011,-0.000266451,0.000000000,0.000000000,0.000000000,0.000000000,0.019697730,0.004693609,0.055089099,0.028843795,-0.034123604,0.000797957,0.006882728,-0.011024926,0.001259683,0.188964018,-0.239578978,1.276336107,0.001625628,0.002108956,0.011134406,0.999933440,0.000000000,0.000000000,0.000000000,0.000000000,0.000000000,0.000000000,1.277707195,0.000000000,4.159530640
1772722893.678980350,0.019159000,0.005326000,0.055072000,0.024740680,0.023758300,0.014218960,0.999310390,0.050199000,0.046797000,0.029631000,0.000682557,0.000088811,-0.000610607,0.040119012,-0.067752336,0.013328979,0.003947888,-0.008455669,0.999827118,0.000737775,0.002400887,-0.002265286,0.000000000,0.000000000,0.000000000,0.000000000,0.019598933,0.004805217,0.055092975,0.028328082,-0.033819862,0.000837466,0.007637649,-0.011546679,0.000564055,0.180950278,-0.232284952,1.276659642,0.001556403,0.002044533,0.011137478,0.999933635,0.000000000,0.000000000,0.000000000,0.000000000,0.000000000,0.000000000,1.275978518,0.000000000,4.159530640
1772722893.688981056,0.019156000,0.005335000,0.055079000,0.024779320,0.023685220,0.014099920,0.999312860,0.050268000,0.046656000,0.029390000,0.000516104,0.000029507,-0.000716609,0.049388853,-0.082371928,0.024282242,0.004693823,-0.006797349,1.000321752,0.002022791,0.001724553,-0.000079532,0.000000000,0.000000000,0.000000000,0.000000000,0.019616386,0.004780264,0.055092505,0.028560213,-0.034300875,0.000829452,0.009073456,-0.010572188,0.000092809,0.181067660,-0.232819105,1.275327049,0.001557399,0.002049188,0.011125841,0.999933775,0.000000000,0.000000000,0.000000000,0.000000000,0.000000000,0.000000000,1.275729561,0.000000000,4.159530640
1772722893.698981047,0.019230000,0.005356000,0.054964000,0.026371670,0.021401480,0.014857950,0.999312640,0.053416000,0.042002000,0.030856000,0.001195592,0.000397261,-0.002038036,0.090376202,-0.135830052,0.048623021,0.005427645,-0.006349065,1.000042249,-0.001737339,0.001463582,0.000863910,0.000000000,0.000000000,0.000000000,0.000000000,0.019675486,0.004710048,0.055092502,0.029174669,-0.034997934,0.000817446,0.009316157,-0.009173533,0.000352454,0.181574975,-0.232870309,1.274524986,0.001561835,0.002049673,0.011118833,0.999933835,0.000000000,0.000000000,0.000000000,0.000000000,0.000000000,0.000000000,1.275290113,0.000000000,4.159530640
1772722893.708980799,0.019178000,0.005321000,0.055069000,0.025764250,0.022188220,0.014636730,0.999314590,0.052216000,0.043606000,0.030430000,0.000532343,0.000423524,-0.001438599,0.091862429,-0.132170866,0.050859126,0.004584419,-0.005743030,1.000769306,0.001502619,-0.000450802,0.000321194,0.000000000,0.000000000,0.000000000,0.000000000,0.019734512,0.004683523,0.055048049,0.029757826,-0.035390945,0.000627945,0.008684035,-0.008811160,0.000304603,0.181284241,-0.232354532,1.273576928,0.001559365,0.002045131,0.011110573,0.999933953,0.000000000,0.000000000,0.000000000,0.000000000,0.000000000,0.000000000,1.274385012,0.000000000,4.159530640
1772722893.718980312,0.019156000,0.005335000,0.055070000,0.025596190,0.022431010,0.014586950,0.999314220,0.051885000,0.044099000,0.030336000,0.000379585,0.000725137,-0.001527391,0.099553109,-0.138586318,0.053006480,0.003565265,-0.006749923,1.000175959,-0.001326968,-0.002787038,0.000617876,0.000000000,0.000000000,0.000000000,0.000000000,0.019757154,0.004656698,0.055052531,0.030137693,-0.035661639,0.000656368,0.008073523,-0.009550892,-0.000033282,0.181337941,-0.231239066,1.271533224,0.001559978,0.002035375,0.011092752,0.999934141,0.000000000,0.000000000,0.000000000,0.000000000,0.000000000,0.000000000,1.273115914,0.000000000,4.159530640
1772722893.728980303,0.019207000,0.005364000,0.054968000,0.027024510,0.020462630,0.015207460,0.999309610,0.054705000,0.040086000,0.031530000,-0.000266026,0.000204254,-0.000209324,0.066232556,-0.086603796,0.040066845,0.003050973,-0.007315582,1.000910778,-0.002163263,-0.001631488,-0.003297033,0.000000000,0.000000000,0.000000000,0.000000000,0.019754127,0.004644438,0.055068431,0.030322403,-0.035894284,0.000703233,0.007111553,-0.010273789,0.001145218,0.179929391,-0.230354413,1.270041928,0.001547799,0.002027499,0.011079777,0.999934314,0.000000000,0.000000000,0.000000000,0.000000000,0.000000000,0.000000000,1.270994334,0.000000000,4.159530640
1772722893.738980293,0.019229000,0.005366000,0.054940000,0.028011430,0.019253860,0.015647350,0.999299660,0.056657000,0.037613000,0.032380000,-0.000261791,0.000007401,0.000378264,0.029656055,-0.035403585,0.022848629,0.002381726,-0.006232236,1.001724898,0.000968143,-0.001294980,0.001293812,0.000000000,0.000000000,0.000000000,0.000000000,0.019777846,0.004651220,0.055023090,0.030490024,-0.036210850,0.000557919,0.006789248,-0.009215188,0.002239316,0.178558717,-0.230015282,1.268583234,0.001535897,0.002024387,0.011067076,0.999934540,0.000000000,0.000000000,0.000000000,0.000000000,0.000000000,0.000000000,1.269019606,0.000000000,4.159530640
1772722893.748980284,0.019159000,0.005344000,0.055053000,0.026970280,0.020695140,0.015213430,0.999306190,0.054605000,0.040552000,0.031553000,0.001034344,0.000166550,-0.000987744,0.042306608,-0.055898197,0.032270489,0.002790005,-0.006976446,1.000562022,-0.001718557,-0.004347884,0.001835324,0.000000000,0.000000000,0.000000000,0.000000000,0.019797044,0.004651397,0.054993287,0.030524849,-0.036434434,0.000638570,0.006614198,-0.009896139,0.001612343,0.179275093,-0.228104722,1.267349361,0.001542355,0.002007768,0.011056325,0.999934606,0.000000000,0.000000000,0.000000000,0.000000000,0.000000000,0.000000000,1.267838796,0.000000000,4.159530640
1772722893.758980274,0.019215000,0.005362000,0.054977000,0.027715800,0.019652380,0.015601900,0.999300860,0.056077000,0.038422000,0.032301000,0.000054002,-0.000395649,0.000735665,-0.003843241,0.006085616,0.007735950,0.003285861,-0.007635959,1.001375162,-0.001207227,0.000587102,0.003314229,0.000000000,0.000000000,0.000000000,0.000000000,0.019782226,0.004642602,0.055022243,0.030455764,-0.036658447,0.000860316,0.008023610,-0.010189534,-0.000220787,0.177916714,-0.225864653,1.266437407,0.001530733,0.001988078,0.011048422,0.999934808,0.000000000,0.000000000,0.000000000,0.000000000,0.000000000,0.000000000,1.266978576,0.000000000,4.159530640
1772722893.768980026,0.019167000,0.005322000,0.055073000,0.026524380,0.021237610,0.015261300,0.999306020,0.053733000,0.041648000,0.031661000,0.000028963,-0.000290346,0.000385082,-0.013360825,0.018750943,-0.001062928,0.003186932,-0.006948072,1.001980127,-0.000934407,0.005104453,0.000522327,0.000000000,0.000000000,0.000000000,0.000000000,0.019788635,0.004636760,0.055022601,0.030529453,-0.036924584,0.000889727,0.007632328,-0.010296509,0.001967914,0.177799480,-0.225950009,1.266103786,0.001529708,0.001988807,0.011045510,0.999934852,0.000000000,0.000000000,0.000000000,0.000000000,0.000000000,0.000000000,1.266118377,0.000000000,4.159530640
1772722893.778979540,0.019229000,0.005358000,0.054970000,0.027377260,0.020051560,0.015571230,0.999302740,0.055412000,0.039233000,0.032249000,-0.000072747,-0.000036305,-0.000059713,-0.009824007,0.013091457,-0.003315703,0.004788380,-0.006831985,1.000541035,0.000997638,-0.000585316,0.001007311,0.000000000,0.000000000,0.000000000,0.000000000,0.019785492,0.004622996,0.055041574,0.030588681,-0.037186994,0.001074410,0.008467562,-0.009347017,0.001557960,0.177786060,-0.227247982,1.264977411,0.001529485,0.002000117,0.011035663,0.999934923,0.000000000,0.000000000,0.000000000,0.000000000,0.000000000,0.000000000,1.264819993,0.000000000,4.159530640
1772722893.788980246,0.019232000,0.005363000,0.054955000,0.027984920,0.019297560,0.015789040,0.999297330,0.056610000,0.037693000,0.032665000,0.000355206,0.000261733,-0.000925059,0.011144059,-0.018812408,0.000592311,0.005580795,-0.006918027,1.000243845,0.001530349,-0.001045333,-0.000058121,0.000000000,0.000000000,0.000000000,0.000000000,0.019808735,0.004628205,0.055009652,0.030788426,-0.037346819,0.001025734,0.010130536,-0.009901072,-0.000391083,0.177981560,-0.226758885,1.264467443,0.001531247,0.001995861,0.011031218,0.999935010,0.000000000,0.000000000,0.000000000,0.000000000,0.000000000,0.000000000,1.264429688,0.000000000,4.159530640
1772722893.798980236,0.019154000,0.005335000,0.055057000,0.026818350,0.020853760,0.015215620,0.999306950,0.054306000,0.040874000,0.031560000,-0.000726865,-0.000023699,0.000805032,-0.027505618,0.033238790,-0.022019229,0.006098110,-0.006480914,1.000742152,-0.001094580,0.001269281,0.001118534,0.000000000,0.000000000,0.000000000,0.000000000,0.019818018,0.004608917,0.055013307,0.031064846,-0.037556901,0.001008106,0.009894077,-0.009667332,0.000690262,0.178016316,-0.226963159,1.263852837,0.001531542,0.001997638,0.011025852,0.999935070,0.000000000,0.000000000,0.000000000,0.000000000,0.000000000,0.000000000,1.264415856,0.000000000,4.159530640
1772722893.808979988,0.019219000,0.005352000,0.054977000,0.027486480,0.019950940,0.015519540,0.999302560,0.055625000,0.039031000,0.032144000,-0.000516084,0.000035373,0.000703439,-0.038316447,0.043673990,-0.025815431,0.003767619,-0.008335073,1.000540551,0.002209944,-0.000303293,-0.003128306,0.000000000,0.000000000,0.000000000,0.000000000,0.019819482,0.004584700,0.055032220,0.031296385,-0.037720612,0.001073915,0.008958014,-0.010164445,0.000725783,0.176832320,-0.226937907,1.263299552,0.001521222,0.001997297,0.011021042,0.999935091,0.000000000,0.000000000,0.000000000,0.000000000,0.000000000,0.000000000,1.263793274,0.000000000,4.159530640
1772722893.818980694,0.019166000,0.005346000,0.055049000,0.026472450,0.021224670,0.015086160,0.999310330,0.053621000,0.041633000,0.031307000,-0.000101671,-0.000008994,0.000222669,-0.028879785,0.034544015,-0.018222720,0.004327336,-0.007579112,1.000509325,0.001556095,0.001591523,-0.002701080,0.000000000,0.000000000,0.000000000,0.000000000,0.019820724,0.004599788,0.055019037,0.031442681,-0.037733744,0.001030703,0.008457066,-0.011360904,0.000915227,0.176935760,-0.226934388,1.261953421,0.001522148,0.001997258,0.011009295,0.999935197,0.000000000,0.000000000,0.000000000,0.000000000,0.000000000,0.000000000,1.263390402,0.000000000,4.159530640
1772722893.828980684,0.019226000,0.005360000,0.054968000,0.027233560,0.020057320,0.015310010,0.999310580,0.055114000,0.039263000,0.031721000,0.000365599,0.000164044,-0.000589453,-0.003934174,0.001689441,-0.003233150,0.005081107,-0.006076384,1.000674417,-0.000399686,0.003479169,-0.000258316,0.000000000,0.000000000,0.000000000,0.000000000,0.019799295,0.004604440,0.055044222,0.031381209,-0.037954959,0.001147852,0.009168514,-0.008854269,0.001303930,0.176954712,-0.227739733,1.260810982,0.001522256,0.002004272,0.010999315,0.999935329,0.000000000,0.000000000,0.000000000,0.000000000,0.000000000,0.000000000,1.261959259,0.000000000,4.159530640
1772722893.838980675,0.019160000,0.005336000,0.055068000,0.026144190,0.021650410,0.014922320,0.999312300,0.052971000,0.042504000,0.030989000,0.000521271,-0.000026826,-0.000713015,0.016378149,-0.021933262,0.008252915,0.003880862,-0.006308559,1.000107769,-0.002101879,-0.000715794,-0.000611576,0.000000000,0.000000000,0.000000000,0.000000000,0.019819192,0.004612706,0.055016242,0.031619613,-0.037966371,0.001065354,0.008067187,-0.008741108,0.000109053,0.176462138,-0.229568474,1.260236341,0.001517793,0.002020175,0.010994285,0.999935344,0.000000000,0.000000000,0.000000000,0.000000000,0.000000000,0.000000000,1.260672927,0.000000000,4.159530640
1772722893.848980427,0.019216000,0.005359000,0.054972000,0.027119930,0.020307030,0.015316820,0.999308530,0.054895000,0.039766000,0.031744000,0.000694503,-0.000285373,-0.000827079,0.034401566,-0.037899323,0.019131333,0.004423371,-0.007559824,0.998594579,-0.002812412,-0.001887915,-0.001875339,0.000000000,0.000000000,0.000000000,0.000000000,0.019799458,0.004605756,0.055049855,0.031615894,-0.037978066,0.001201880,0.008446182,-0.010020930,-0.001325197,0.175047922,-0.228931218,1.258589841,0.001505542,0.002014457,0.010979951,0.999935481,0.000000000,0.000000000,0.000000000,0.000000000,0.000000000,0.000000000,1.260125505,0.000000000,4.159530640
1772722893.858980656,0.019231000,0.005359000,0.054945000,0.027899420,0.019461130,0.015619550,0.999299210,0.056438000,0.038033000,0.032332000,0.001141338,-0.000230789,-0.001078905,0.054365814,-0.066039978,0.031893116,0.004254822,-0.007577023,0.999184145,-0.001046096,0.002376625,0.000826012,0.000000000,0.000000000,0.000000000,0.000000000,0.019820370,0.004612642,0.055011560,0.031740583,-0.038123089,0.000822855,0.008557190,-0.011063831,-0.001616703,0.174474627,-0.228233993,1.257850409,0.001500619,0.002008308,0.010973518,0.999935729,0.000000000,0.000000000,0.000000000,0.000000000,0.000000000,0.000000000,1.257959580,0.000000000,4.159530640
1772722893.868979931,0.019175000,0.005327000,0.055050000,0.026676270,0.020923880,0.015204070,0.999309460,0.054024000,0.041019000,0.031535000,0.000103186,-0.000317075,0.000481411,0.021250873,-0.026749246,0.013328355,0.004046904,-0.007293466,0.998450069,-0.000536614,0.002922336,0.003405192,0.000000000,0.000000000,0.000000000,0.000000000,0.019714694,0.004743789,0.054997806,0.030923603,-0.037371473,0.000383404,0.007791466,-0.010712726,-0.001060378,0.170714304,-0.227087168,1.260518691,0.001467870,0.001997975,0.010996882,0.999935980,0.000000000,0.000000000,0.000000000,0.000000000,0.000000000,0.000000000,1.259742374,0.000000000,4.159530640
1772722893.878979921,0.019236000,0.005339000,0.054976000,0.027418540,0.020045640,0.015479220,0.999303150,0.055491000,0.039225000,0.032066000,-0.000598544,-0.000300622,0.001275895,-0.015204826,0.017622284,-0.008763368,0.004413820,-0.005682296,0.999181631,-0.000685753,0.002195620,0.001360077,0.000000000,0.000000000,0.000000000,0.000000000,0.019760237,0.004697436,0.054984216,0.031041648,-0.037718316,0.000045480,0.008563554,-0.008410161,-0.000840890,0.167600783,-0.226988990,1.262313936,0.001440679,0.001996842,0.011012604,0.999935329,0.000000000,0.000000000,0.000000000,0.000000000,0.000000000,0.000000000,1.261719765,0.000000000,4.159530640
1772722893.888979435,0.019244000,0.005348000,0.054957000,0.027969200,0.019398680,0.015761050,0.999296250,0.056581000,0.037897000,0.032614000,-0.002077644,-0.000320047,0.002756141,-0.082157708,0.109917156,-0.044074258,0.003058795,-0.007433780,0.999431337,-0.001113188,-0.000164590,-0.000473308,0.000000000,0.000000000,0.000000000,0.000000000,0.019766956,0.004639205,0.055033420,0.031293912,-0.038037426,0.000128525,0.007408959,-0.008950298,-0.001060753,0.167274743,-0.227915962,1.261809093,0.001437754,0.002004893,0.011008193,0.999935358,0.000000000,0.000000000,0.000000000,0.000000000,0.000000000,0.000000000,1.262379527,0.000000000,4.159530640
1772722893.898979902,0.019168000,0.005335000,0.055066000,0.026733820,0.020763380,0.015167420,0.999311830,0.054132000,0.040698000,0.031455000,-0.002078440,0.000101302,0.001936793,-0.101700654,0.138335243,-0.054649717,0.002202008,-0.009276468,0.999956804,-0.002809844,-0.000634255,0.001067100,0.000000000,0.000000000,0.000000000,0.000000000,0.019759509,0.004613955,0.055059993,0.031362448,-0.038138752,0.000150800,0.006375733,-0.012867140,-0.000474979,0.166910940,-0.227876709,1.260547685,0.001434605,0.002004500,0.010997192,0.999935466,0.000000000,0.000000000,0.000000000,0.000000000,0.000000000,0.000000000,1.261736463,0.000000000,4.159530640
1772722893.908979893,0.019144000,0.005333000,0.055082000,0.025942660,0.021914350,0.014735670,0.999314560,0.052568000,0.043047000,0.030621000,-0.002285511,-0.000020319,0.002156995,-0.126528547,0.174576172,-0.069729795,0.003292288,-0.008761947,1.000367180,-0.001176566,0.002185397,0.000439580,0.000000000,0.000000000,0.000000000,0.000000000,0.019752640,0.004602622,0.055070461,0.031284157,-0.038379657,0.000150207,0.007635053,-0.011685434,-0.000233638,0.166104810,-0.227672026,1.259700455,0.001427605,0.002002626,0.010989816,0.999935588,0.000000000,0.000000000,0.000000000,0.000000000,0.000000000,0.000000000,1.260774176,0.000000000,4.159530640
1772722893.918979883,0.019134000,0.005334000,0.055080000,0.025321530,0.022821530,0.014520890,0.999313340,0.051345000,0.044891000,0.030213000,-0.001580052,-0.000156663,0.001898020,-0.134557580,0.179113364,-0.070538225,0.004642626,-0.007865464,1.000357999,0.001248367,0.002128117,0.000069236,0.000000000,0.000000000,0.000000000,0.000000000,0.019750518,0.004597681,0.055070478,0.031262491,-0.038665212,0.000183477,0.008921063,-0.010443605,0.000003476,0.165758643,-0.228346959,1.259166965,0.001424529,0.002008476,0.010985158,0.999935627,0.000000000,0.000000000,0.000000000,0.000000000,0.000000000,0.000000000,1.259767604,0.000000000,4.159530640
1772722893.928979874,0.019138000,0.005344000,0.055067000,0.025003200,0.023222570,0.014361300,0.999314420,0.050714000,0.045711000,0.029900000,0.001462686,0.000158722,-0.001414298,-0.035843609,0.045798053,-0.022142050,0.004986400,-0.006851595,1.000158038,0.000192737,0.002965469,0.003644208,0.000000000,0.000000000,0.000000000,0.000000000,0.019754794,0.004591264,0.055072674,0.031394813,-0.038781427,0.000221254,0.009243626,-0.010263392,-0.000147433,0.166365816,-0.228742832,1.258530685,0.001429801,0.002011981,0.010979590,0.999935649,0.000000000,0.000000000,0.000000000,0.000000000,0.000000000,0.000000000,1.259149979,0.000000000,4.159530640
1772722893.938979626,0.019149000,0.005338000,0.055070000,0.024859660,0.023417230,0.014323450,0.999314000,0.050431000,0.046107000,0.029828000,0.002422691,0.000250466,-0.002260278,0.046820728,-0.061696526,0.019110945,0.005448404,-0.005366812,1.000743233,-0.000014254,0.003179518,0.003369780,0.000000000,0.000000000,0.000000000,0.000000000,0.019766744,0.004582935,0.055079098,0.031620850,-0.038847524,0.000228413,0.009797144,-0.008465371,0.000366757,0.166455578,-0.229438916,1.258406224,0.001430519,0.002018062,0.010978493,0.999935667,0.000000000,0.000000000,0.000000000,0.000000000,0.000000000,0.000000000,1.258450647,0.000000000,4.159530640
1772722893.948979139,0.019157000,0.005328000,0.055090000,0.024656100,0.023542940,0.014121000,0.999318970,0.050018000,0.046374000,0.029420000,0.002516630,0.000313850,-0.002314804,0.105215655,-0.140331115,0.051691591,0.005589291,-0.005626705,1.000568488,-0.000207048,0.000401923,-0.000913219,0.000000000,0.000000000,0.000000000,0.000000000,0.019816764,0.004591487,0.055024415,0.031965821,-0.038711380,-0.000004056,0.009596726,-0.008400618,0.000943359,0.166290651,-0.229444748,1.257444948,0.001429096,0.002018085,0.010970108,0.999935715,0.000000000,0.000000000,0.000000000,0.000000000,0.000000000,0.000000000,1.258460261,0.000000000,4.159530640
1772722893.958979130,0.019240000,0.005354000,0.054979000,0.026215890,0.021485190,0.014875920,0.999314680,0.053107000,0.042173000,0.030890000,0.001647243,0.000314996,-0.001876925,0.128204822,-0.164816916,0.064224240,0.004055269,-0.007285521,0.999126403,-0.001120092,-0.000621930,-0.001240913,0.000000000,0.000000000,0.000000000,0.000000000,0.019840291,0.004593385,0.054999590,0.032232368,-0.038582477,-0.000029946,0.009181759,-0.009971042,-0.001031495,0.165395630,-0.229092045,1.255504284,0.001421354,0.002014897,0.010953194,0.999935928,0.000000000,0.000000000,0.000000000,0.000000000,0.000000000,0.000000000,1.256970026,0.000000000,4.159530640
1772722893.968978882,0.019258000,0.005349000,0.054955000,0.027450760,0.020080520,0.015315000,0.999304100,0.055550000,0.039302000,0.031741000,0.000275816,0.000303963,-0.000826361,0.101295887,-0.126425587,0.058530641,0.002471709,-0.008061546,0.998724464,-0.000554495,-0.000006221,0.001040839,0.000000000,0.000000000,0.000000000,0.000000000,0.019824565,0.004595439,0.055015720,0.032242122,-0.038640786,-0.000062456,0.007047446,-0.010098868,-0.001311788,0.164661913,-0.228504147,1.253296265,0.001415047,0.002009670,0.010933947,0.999936156,0.000000000,0.000000000,0.000000000,0.000000000,0.000000000,0.000000000,1.255004568,0.000000000,4.159530640
1772722893.978979111,0.019163000,0.005342000,0.055066000,0.026552850,0.021381980,0.015028500,0.999305710,0.053785000,0.041948000,0.031204000,-0.001173059,0.000112859,0.000619057,0.037686273,-0.040143841,0.030981234,0.003656255,-0.005614021,1.000988512,-0.000305680,0.000635312,0.000182028,0.000000000,0.000000000,0.000000000,0.000000000,0.019813881,0.004595993,0.055017606,0.032089303,-0.038777689,-0.000193857,0.007462515,-0.009758691,-0.000068231,0.164480755,-0.229334008,1.252486084,0.001413401,0.002016884,0.010926869,0.999936223,0.000000000,0.000000000,0.000000000,0.000000000,0.000000000,0.000000000,1.253059561,0.000000000,4.159530640
1772722893.988979101,0.019222000,0.005358000,0.054973000,0.027495110,0.020102040,0.015597790,0.999298070,0.055650000,0.039328000,0.032310000,-0.002604198,-0.000388035,0.002748390,-0.059602593,0.088663886,-0.018520139,0.004417978,-0.007043125,1.000714193,-0.002088054,-0.004110345,-0.002571276,0.000000000,0.000000000,0.000000000,0.000000000,0.019791494,0.004591034,0.055047311,0.031972877,-0.038755657,-0.000046942,0.008557601,-0.009386666,0.000730674,0.164394008,-0.229416709,1.250162151,0.001412677,0.002017569,0.010906591,0.999936391,0.000000000,0.000000000,0.000000000,0.000000000,0.000000000,0.000000000,1.251820898,0.000000000,4.159530640
1772722893.998978615,0.019155000,0.005344000,0.055054000,0.026585810,0.021275040,0.015134430,0.999305520,0.053852000,0.041728000,0.031412000,-0.002132034,-0.000622611,0.002978014,-0.120384626,0.166559033,-0.053316976,0.004792968,-0.006533545,1.001255950,0.001573209,0.001230671,-0.000458548,0.000000000,0.000000000,0.000000000,0.000000000,0.019778972,0.004582226,0.055070355,0.032028803,-0.038784692,0.000106876,0.009175869,-0.009531603,0.001749356,0.163958005,-0.227917019,1.247910262,0.001409055,0.002004413,0.010886967,0.999936692,0.000000000,0.000000000,0.000000000,0.000000000,0.000000000,0.000000000,1.249285469,0.000000000,4.159530640
1772722894.008978367,0.019154000,0.005341000,0.055072000,0.025875550,0.022148590,0.014990140,0.999307360,0.052453000,0.043504000,0.031140000,0.000358839,-0.000101748,-0.000121115,-0.068109577,0.092335498,-0.030893635,0.004024495,-0.005766684,1.000212011,0.001251076,0.001767863,0.000338467,0.000000000,0.000000000,0.000000000,0.000000000,0.019787528,0.004580959,0.055071639,0.032200335,-0.038760149,0.000244190,0.008326716,-0.008745012,-0.000951048,0.164211442,-0.228296637,1.246422342,0.001411256,0.002007732,0.010873974,0.999936847,0.000000000,0.000000000,0.000000000,0.000000000,0.000000000,0.000000000,1.247446547,0.000000000,4.159530640
1772722894.018978357,0.019146000,0.005328000,0.055088000,0.025376870,0.022942880,0.014655200,0.999307190,0.051466000,0.045125000,0.030490000,0.001434694,-0.000179118,-0.000977779,-0.014126957,0.020861274,-0.012135842,0.003033280,-0.005489109,0.999569868,0.000345175,0.001192089,0.000726645,0.000000000,0.000000000,0.000000000,0.000000000,0.019827161,0.004588008,0.055026583,0.032424729,-0.038686708,0.000068002,0.008143297,-0.008617872,-0.000976780,0.164362124,-0.228593040,1.246010586,0.001412550,0.002010327,0.010870375,0.999936882,0.000000000,0.000000000,0.000000000,0.000000000,0.000000000,0.000000000,1.247130134,0.000000000,4.159530640
1772722894.028978348,0.019153000,0.005330000,0.055090000,0.024996470,0.023417680,0.014444260,0.999308840,0.050710000,0.046097000,0.030076000,0.001664376,0.000183314,-0.001692620,0.042295938,-0.059499711,0.014941230,0.003126968,-0.005464407,0.999558613,-0.000099289,0.001280224,0.000536906,0.000000000,0.000000000,0.000000000,0.000000000,0.019829771,0.004588918,0.055022170,0.032422434,-0.038673998,0.000040651,0.007985513,-0.008512653,-0.000907380,0.164350154,-0.228623794,1.245918909,0.001412444,0.002010593,0.010869575,0.999936889,0.000000000,0.000000000,0.000000000,0.000000000,0.000000000,0.000000000,1.246997726,0.000000000,4.159530640
1772722894.038978338,0.019243000,0.005349000,0.054976000,0.026358240,0.021675860,0.015084930,0.999303680,0.053407000,0.042539000,0.031325000,0.001968961,0.000464025,-0.002687435,0.100489300,-0.139713183,0.047757357,0.003220656,-0.005439705,0.999547357,-0.000543752,0.001368360,0.000347167,0.000000000,0.000000000,0.000000000,0.000000000,0.019832381,0.004589828,0.055017758,0.032420139,-0.038661287,0.000013301,0.007827728,-0.008407434,-0.000837979,0.164338185,-0.228654547,1.245827232,0.001412339,0.002010859,0.010868775,0.999936895,0.000000000,0.000000000,0.000000000,0.000000000,0.000000000,0.000000000,1.246865319,0.000000000,4.159530640
1772722894.048978329,0.019244000,0.005356000,0.054950000,0.027509370,0.020038190,0.015528180,0.999300050,0.055674000,0.039204000,0.032167000,0.000506352,0.000142580,-0.001209481,0.087284673,-0.121160250,0.045440520,0.003314343,-0.005415004,0.999536102,-0.000988216,0.001456496,0.000157427,0.000000000,0.000000000,0.000000000,0.000000000,0.019834991,0.004590738,0.055013345,0.032417844,-0.038648577,-0.000014049,0.007669944,-0.008302215,-0.000768578,0.164326215,-0.228685301,1.245735555,0.001412233,0.002011125,0.010867974,0.999936902,0.000000000,0.000000000,0.000000000,0.000000000,0.000000000,0.000000000,1.246732911,0.000000000,4.159530640
1772722894.058978319,0.019182000,0.005328000,0.055065000,0.026563110,0.021271700,0.015092320,0.999306830,0.053804000,0.041724000,0.031326000,-0.000869834,-0.000208100,0.000654041,0.028358106,-0.036865991,0.021176057,0.003408031,-0.005390302,0.999524846,-0.001432679,0.001544632,-0.000032312,0.000000000,0.000000000,0.000000000,0.000000000,0.019837601,0.004591648,0.055008932,0.032415549,-0.038635867,-0.000041399,0.007512160,-0.008196996,-0.000699178,0.164314246,-0.228716054,1.245643878,0.001412127,0.002011392,0.010867174,0.999936908,0.000000000,0.000000000,0.000000000,0.000000000,0.000000000,0.000000000,1.246600503,0.000000000,4.159530640
1772722894.068978786,0.019216000,0.005360000,0.054968000,0.027498510,0.019986070,0.015599780,0.999300270,0.055653000,0.039096000,0.032307000,-0.002010200,-0.000326651,0.002364085,-0.048251228,0.074573120,-0.020737940,0.003501723,-0.005365599,0.999513590,-0.001877164,0.001632771,-0.000222061,0.000000000,0.000000000,0.000000000,0.000000000,0.019840210,0.004592558,0.055004519,0.032413253,-0.038623156,-0.000068751,0.007354368,-0.008091772,-0.000629774,0.164302276,-0.228746809,1.245552197,0.001412021,0.002011658,0.010866374,0.999936915,0.000000000,0.000000000,0.000000000,0.000000000,0.000000000,0.000000000,1.246468089,0.000000000,4.159530640
1772722894.078978777,0.019166000,0.005330000,0.055056000,0.026493760,0.021555400,0.015213650,0.999300750,0.053680000,0.042287000,0.031582000,-0.002545574,-0.000479954,0.003593865,-0.126483979,0.182273446,-0.060573874,0.003595410,-0.005340897,0.999502335,-0.002321627,0.001720907,-0.000411800,0.000000000,0.000000000,0.000000000,0.000000000,0.019842820,0.004593468,0.055000107,0.032410958,-0.038610445,-0.000096101,0.007196584,-0.007986553,-0.000560373,0.164290307,-0.228777562,1.245460521,0.001411916,0.002011924,0.010865574,0.999936921,0.000000000,0.000000000,0.000000000,0.000000000,0.000000000,0.000000000,1.246335682,0.000000000,4.159530640
1772722894.088979006,0.019155000,0.005324000,0.055075000,0.025865720,0.022362510,0.014967060,0.999303190,0.052439000,0.043934000,0.031105000,-0.000501554,-0.000050894,0.001193008,-0.102968528,0.146809785,-0.049748344,0.003689100,-0.005316195,0.999491079,-0.002766102,0.001809045,-0.000601544,0.000000000,0.000000000,0.000000000,0.000000000,0.019845430,0.004594378,0.054995694,0.032408663,-0.038597734,-0.000123452,0.007699964,-0.007855507,-0.000424290,0.164278337,-0.228808316,1.245368842,0.001411810,0.002012190,0.010864774,0.999936928,0.000000000,0.000000000,0.000000000,0.000000000,0.000000000,0.000000000,1.246203271,0.000000000,4.159530640
