t,px,py,pz,qx,qy,qz,qw,roll,pitch,yaw,vx,vy,vz,wx_vicon,wy_vicon,wz_vicon,imu_acc_x,imu_acc_y,imu_acc_z,imu_gyro_x,imu_gyro_y,imu_gyro_z,motor_motor_m1,motor_motor_m2,motor_motor_m3,motor_motor_m4,est_stateEstimate_x,est_stateEstimate_y,est_stateEstimate_z,est_stateEstimate_vx,est_stateEstimate_vy,est_stateEstimate_vz,est_stateEstimate_ax,est_stateEstimate_ay,est_stateEstimate_az,att_stateEstimate_roll,att_stateEstimate_pitch,att_stateEstimate_yaw,att_stateEstimate_qx,att_stateEstimate_qy,att_stateEstimate_qz,att_stateEstimate_qw,sp_ctrltarget_x,sp_ctrltarget_y,sp_ctrltarget_z,sp_ctrltarget_yaw,pid_controller_roll,pid_controller_pitch,pid_controller_yaw,pid_controller_cmd_thrust,pwr_pm_vbat
1772689631.595269680,0.016176000,0.003955000,0.054705000,0.025039230,0.024683100,0.031372180,0.998889170,0.051653000,0.047758000,0.064027000,0.003255908,0.006152687,-0.013050595,0.373655796,-0.536791332,0.165300618,0.004496908,-0.001530953,1.000611476,0.001455358,0.003061050,0.000690125,0.000000000,0.000000000,0.000000000,0.000000000,0.016943937,0.003212110,0.054673020,0.043562038,-0.042307260,-0.001365188,0.011763352,-0.010330340,0.000363949,0.538913775,-0.385321845,2.851500312,0.004617741,0.003478501,0.024865218,0.999673373,0.000000000,0.000000000,0.000000000,0.000000000,0.000000000,0.000000000,1.384219766,0.000000000,3.858651161
1772689631.605269909,0.016235000,0.004002000,0.054586000,0.026832540,0.022286930,0.032017380,0.998878470,0.055110000,0.042819000,0.065265000,0.001425137,0.001248952,-0.003928209,0.185368820,-0.253390071,0.079371263,0.003891556,-0.003327376,1.000573321,-0.002999123,0.001609438,0.000865675,0.000000000,0.000000000,0.000000000,0.000000000,0.016713625,0.003429992,0.054690842,0.042838567,-0.041606695,-0.001248179,0.011118341,-0.011925248,0.000453072,0.535865879,-0.382889761,2.857272031,0.004591506,0.003456853,0.024915765,0.999672283,0.000000000,0.000000000,0.000000000,0.000000000,0.000000000,0.000000000,1.384219766,0.000000000,3.858651161
1772689631.615269899,0.016183000,0.003966000,0.054665000,0.026398370,0.022879840,0.031827920,0.998882690,0.054273000,0.044042000,0.064901000,0.000184810,-0.001393941,0.001372495,0.052478229,-0.058501651,0.019792232,0.004956499,-0.003326309,1.000501172,-0.001035410,0.000185502,-0.001221891,0.000000000,0.000000000,0.000000000,0.000000000,0.017019986,0.003131138,0.054683503,0.043547620,-0.042277111,-0.001126776,0.012091931,-0.012013526,0.000457782,0.530828579,-0.380960961,2.862509934,0.004547824,0.003439140,0.024961689,0.999671327,0.000000000,0.000000000,0.000000000,0.000000000,0.000000000,0.000000000,1.384219766,0.000000000,3.858651161
1772689631.625270367,0.016227000,0.003994000,0.054581000,0.027700350,0.021334580,0.032325800,0.998865640,0.056795000,0.040841000,0.065863000,-0.000558781,-0.002292077,0.003664106,-0.033161852,0.062050151,-0.017577888,0.005272309,-0.003342619,0.999996454,-0.000137959,0.001186805,0.004351999,0.000000000,0.000000000,0.000000000,0.000000000,0.017015515,0.003133575,0.054683127,0.043497650,-0.042224475,-0.001079982,0.012446337,-0.011945422,-0.000025797,0.527535075,-0.379733216,2.865866505,0.004519260,0.003427844,0.024991121,0.999670702,0.000000000,0.000000000,0.000000000,0.000000000,0.000000000,0.000000000,1.384219766,0.000000000,3.858651161
1772689631.635270357,0.016201000,0.003942000,0.054686000,0.026918470,0.022410540,0.031989020,0.998874300,0.055290000,0.043062000,0.065219000,-0.000899340,-0.001961540,0.003759211,-0.079712511,0.122465646,-0.036782605,0.005759991,-0.003191447,1.000218179,0.001074000,-0.001323384,0.001929384,0.000000000,0.000000000,0.000000000,0.000000000,0.017020396,0.003126846,0.054681635,0.043537589,-0.042212491,-0.001075237,0.012699708,-0.012079509,0.000122510,0.523263411,-0.377507763,2.872422100,0.004482286,0.003407755,0.025048527,0.999669605,0.000000000,0.000000000,0.000000000,0.000000000,0.000000000,0.000000000,1.384219766,0.000000000,3.858651161
1772689631.645270348,0.016193000,0.003923000,0.054721000,0.026252820,0.023366400,0.031775770,0.998876920,0.054013000,0.045027000,0.064818000,-0.000930576,-0.000918416,0.002470399,-0.095304290,0.136933445,-0.041958687,0.006446658,-0.001745311,0.999118353,-0.001673094,0.000756494,0.002746488,0.000000000,0.000000000,0.000000000,0.000000000,0.016428927,0.003734933,0.054659238,0.030128739,-0.028862375,-0.000503293,0.013187887,-0.009781409,-0.000489797,0.471311794,-0.327526554,2.888188657,0.004039678,0.002960849,0.025189134,0.999668739,0.000000000,0.000000000,0.000000000,0.000000000,0.000000000,0.000000000,1.384219766,0.000000000,3.858651161
1772689631.655270338,0.016191000,0.003935000,0.054716000,0.025768760,0.023870520,0.031610640,0.998882840,0.053070000,0.046075000,0.064494000,-0.000564764,0.000081371,0.000833295,-0.085305284,0.120079562,-0.036930232,0.005684517,-0.000912102,0.999083884,0.002432913,0.000520748,0.001358630,0.000000000,0.000000000,0.000000000,0.000000000,0.016404826,0.003753465,0.054678054,0.026872271,-0.025503766,-0.000329229,0.010518995,-0.006912194,-0.001131263,0.397094557,-0.253545387,2.913144549,0.003407923,0.002299958,0.025411340,0.999667832,0.000000000,0.000000000,0.000000000,0.000000000,0.000000000,0.000000000,1.384219766,0.000000000,3.858651161
1772689631.665270329,0.016185000,0.003940000,0.054709000,0.025422590,0.024248820,0.031468910,0.998887080,0.052396000,0.046861000,0.064215000,-0.000680265,0.000300039,0.000392056,-0.077955329,0.108396895,-0.033373909,0.005697367,-0.002714796,0.999601492,0.000017453,0.001528581,0.000867540,0.000000000,0.000000000,0.000000000,0.000000000,0.016588622,0.003562926,0.054698671,0.028356839,-0.026822240,-0.000360652,0.010565313,-0.009103374,-0.000615280,0.406054883,-0.260985616,2.917170889,0.003484356,0.002366975,0.025446052,0.999666557,0.000000000,0.000000000,0.000000000,0.000000000,0.000000000,0.000000000,1.384219766,0.000000000,3.858651161
1772689631.675270319,0.016177000,0.003953000,0.054700000,0.025258250,0.024571330,0.031418320,0.998884960,0.052086000,0.047519000,0.064124000,-0.000054487,0.000720378,-0.000837511,-0.034128936,0.040793657,-0.011462031,0.005761754,-0.003159014,0.999153659,0.000647261,-0.000950972,0.001313842,0.000000000,0.000000000,0.000000000,0.000000000,0.016673427,0.003481879,0.054697961,0.029341211,-0.027690737,-0.000426152,0.011283813,-0.010075119,-0.000664542,0.412482967,-0.267427851,2.920994084,0.003538921,0.002424720,0.025479066,0.999665391,0.000000000,0.000000000,0.000000000,0.000000000,0.000000000,0.000000000,1.384219766,0.000000000,3.858651161
1772689631.685270309,0.016173000,0.003957000,0.054704000,0.025120900,0.024760470,0.031415590,0.998883840,0.051824000,0.047906000,0.064123000,0.000122572,0.000180226,-0.000254215,-0.018140079,0.010196569,-0.003992701,0.004246753,-0.002557671,0.998582688,0.000192250,0.001556870,-0.000245770,0.000000000,0.000000000,0.000000000,0.000000000,0.016718339,0.003440915,0.054695252,0.030095861,-0.028383471,-0.000537824,0.009926926,-0.009184025,-0.001618147,0.416925769,-0.271302409,2.925125861,0.003576728,0.002459638,0.025514890,0.999664233,0.000000000,0.000000000,0.000000000,0.000000000,0.000000000,0.000000000,1.384219766,0.000000000,3.858651161
1772689631.695270300,0.016184000,0.003948000,0.054703000,0.025011900,0.024863060,0.031342450,0.998886320,0.051609000,0.048121000,0.063976000,-0.000196465,-0.000402098,0.000818726,-0.025506672,0.014026633,-0.006960864,0.003398285,-0.002311063,0.999383821,-0.003411651,-0.002133989,0.001349372,0.000000000,0.000000000,0.000000000,0.000000000,0.016612266,0.003542081,0.054696424,0.030223802,-0.028507024,-0.000608132,0.008416081,-0.009688078,-0.001068167,0.421257426,-0.276183551,2.928875580,0.003613347,0.002503302,0.025547348,0.999663140,0.000000000,0.000000000,0.000000000,0.000000000,0.000000000,0.000000000,1.384219766,0.000000000,3.858651161
1772689631.705270290,0.016189000,0.003940000,0.054710000,0.025008860,0.024657490,0.031392440,0.998889920,0.051592000,0.047708000,0.064065000,0.000486189,0.000072553,-0.000489511,0.005038067,-0.031800485,0.004986715,0.004338275,-0.001076894,1.000204293,-0.002968974,-0.002017826,0.000659836,0.000000000,0.000000000,0.000000000,0.000000000,0.016462317,0.003683538,0.054699733,0.030123423,-0.028462800,-0.000618072,0.009476919,-0.008019241,0.000310936,0.423219403,-0.279272708,2.932723341,0.003629688,0.002530810,0.025580775,0.999662211,0.000000000,0.000000000,0.000000000,0.000000000,0.000000000,0.000000000,1.384219766,0.000000000,3.858651161
1772689631.715270042,0.016185000,0.003947000,0.054710000,0.025021110,0.024361600,0.031434290,0.998895560,0.051599000,0.047114000,0.064133000,0.000980537,0.000227040,-0.001434461,0.042226453,-0.076488841,0.018919378,0.004781147,-0.001449158,0.999269832,-0.000686056,0.002004580,0.001130671,0.000000000,0.000000000,0.000000000,0.000000000,0.016473922,0.003671908,0.054701788,0.030472775,-0.028855490,-0.000631540,0.009936156,-0.008244178,-0.000713111,0.425625474,-0.281670082,2.935719853,0.003650076,0.002552357,0.025606783,0.999661366,0.000000000,0.000000000,0.000000000,0.000000000,0.000000000,0.000000000,1.384219766,0.000000000,3.858651161
1772689631.725270271,0.016190000,0.003944000,0.054702000,0.025127490,0.024276160,0.031422170,0.998895350,0.051805000,0.046937000,0.064109000,0.000978303,0.000161908,-0.001481975,0.068630070,-0.099453343,0.028958343,0.006045931,-0.002230950,0.999870381,0.001481607,0.003777768,0.002708598,0.000000000,0.000000000,0.000000000,0.000000000,0.016535046,0.003614938,0.054701404,0.030951119,-0.029200255,-0.000616467,0.011325023,-0.008966416,-0.000299565,0.427926521,-0.285402523,2.939388920,0.003669232,0.002585550,0.025638614,0.999660436,0.000000000,0.000000000,0.000000000,0.000000000,0.000000000,0.000000000,1.384219766,0.000000000,3.858651161
1772689631.735270500,0.016180000,0.003948000,0.054705000,0.025143750,0.024312440,0.031408420,0.998894490,0.051840000,0.047009000,0.064085000,0.000581217,0.000127001,-0.000777507,0.070965805,-0.086839584,0.028615771,0.004488839,-0.002290007,0.999196224,0.001271178,0.000877593,0.000639474,0.000000000,0.000000000,0.000000000,0.000000000,0.016788289,0.003376390,0.054696177,0.031776260,-0.029866937,-0.000675652,0.010394939,-0.009249487,-0.000717836,0.429993954,-0.288430622,2.942200611,0.003686525,0.002612519,0.025662997,0.999659619,0.000000000,0.000000000,0.000000000,0.000000000,0.000000000,0.000000000,1.384219766,0.000000000,3.858651161
1772689631.745271206,0.016254000,0.003985000,0.054580000,0.026847350,0.022246120,0.032010580,0.998879200,0.055137000,0.042737000,0.065250000,-0.000071154,0.000065831,0.000068162,0.051964880,-0.047033110,0.017597514,0.004343850,-0.002377094,0.998917451,0.000600272,0.000204973,0.000212392,0.000000000,0.000000000,0.000000000,0.000000000,0.016734455,0.003427244,0.054696623,0.031770056,-0.029834591,-0.000676548,0.009897440,-0.009366113,-0.001098190,0.430679390,-0.289376259,2.943186660,0.003692270,0.002620953,0.025671551,0.999659211,0.000000000,0.000000000,0.000000000,0.000000000,0.000000000,0.000000000,1.384219766,0.000000000,3.858651161
1772689631.755271673,0.016210000,0.003935000,0.054686000,0.026454190,0.022864620,0.031877160,0.998879990,0.054386000,0.044006000,0.065001000,-0.000732810,0.000023835,0.000862569,0.015179200,0.004273381,0.001826565,0.004284944,-0.002465887,0.998662789,-0.000098687,-0.000331841,-0.000114581,0.000000000,0.000000000,0.000000000,0.000000000,0.016680622,0.003478096,0.054697068,0.031763853,-0.029802247,-0.000677443,0.009851168,-0.009460130,-0.001348942,0.431040302,-0.289839705,2.943754004,0.003695302,0.002625095,0.025676476,0.999659057,0.000000000,0.000000000,0.000000000,0.000000000,0.000000000,0.000000000,1.384219766,0.000000000,3.858651161
1772689631.765271664,0.016187000,0.003937000,0.054717000,0.026129630,0.023300420,0.031744860,0.998882670,0.053760000,0.044905000,0.064747000,-0.001661385,-0.000162704,0.001877935,-0.044916585,0.082457407,-0.025309912,0.004226041,-0.002554676,0.998408138,-0.000797612,-0.000868629,-0.000441539,0.000000000,0.000000000,0.000000000,0.000000000,0.016626791,0.003528945,0.054697514,0.031757650,-0.029769904,-0.000678339,0.009804897,-0.009554143,-0.001599681,0.431401197,-0.290303129,2.944321320,0.003698333,0.002629237,0.025681401,0.999658902,0.000000000,0.000000000,0.000000000,0.000000000,0.000000000,0.000000000,1.384219766,0.000000000,3.858651161
1772689631.775271893,0.016173000,0.003959000,0.054714000,0.025797860,0.023906320,0.031575910,0.998882340,0.053129000,0.046146000,0.064428000,-0.000865560,0.000031527,0.000569678,-0.052991014,0.085201157,-0.028766522,0.004167137,-0.002643467,0.998153481,-0.001496554,-0.001405430,-0.000768505,0.000000000,0.000000000,0.000000000,0.000000000,0.016572960,0.003579796,0.054697959,0.031751447,-0.029737560,-0.000679235,0.009758625,-0.009648158,-0.001850426,0.431762100,-0.290766564,2.944888650,0.003701365,0.002633379,0.025686325,0.999658748,0.000000000,0.000000000,0.000000000,0.000000000,0.000000000,0.000000000,1.384219766,0.000000000,3.858651161
1772689631.785271883,0.016164000,0.003961000,0.054700000,0.025602750,0.024216720,0.031475590,0.998883040,0.052755000,0.046785000,0.064235000,-0.000068143,-0.000076010,-0.000093454,-0.046521256,0.069027599,-0.024459961,0.004108234,-0.002732256,0.997898830,-0.002195479,-0.001942218,-0.001095463,0.000000000,0.000000000,0.000000000,0.000000000,0.016519129,0.003630646,0.054698405,0.031745244,-0.029705217,-0.000680131,0.009712355,-0.009742171,-0.002101165,0.432122995,-0.291229988,2.945455967,0.003704396,0.002637521,0.025691250,0.999658594,0.000000000,0.000000000,0.000000000,0.000000000,0.000000000,0.000000000,1.384219766,0.000000000,3.858651161
1772689631.795271635,0.016175000,0.003954000,0.054695000,0.025327890,0.024487690,0.031377570,0.998886530,0.052218000,0.047349000,0.064041000,0.001812395,0.000465269,-0.002588056,0.036186020,-0.054454767,0.014396641,0.004160310,-0.002602078,0.997654634,-0.002103332,-0.001552046,-0.001153577,0.000000000,0.000000000,0.000000000,0.000000000,0.016503336,0.003665077,0.054675318,0.031901859,-0.029806650,-0.000803952,0.009666085,-0.009836182,-0.002351899,0.432479136,-0.291711551,2.946076351,0.003707381,0.002641822,0.025696637,0.999658439,0.000000000,0.000000000,0.000000000,0.000000000,0.000000000,0.000000000,1.384219766,0.000000000,3.858651161
1772689631.805271626,0.016181000,0.003944000,0.054694000,0.025247980,0.024631280,0.031313670,0.998887030,0.052065000,0.047645000,0.063917000,0.001530790,-0.000033314,-0.001319057,0.058822087,-0.094865461,0.029075347,0.004509785,-0.001885107,0.997438431,0.000108713,0.001322202,-0.000491257,0.000000000,0.000000000,0.000000000,0.000000000,0.016529366,0.003673360,0.054635760,0.032214244,-0.030058488,-0.001033336,0.009969251,-0.009149449,-0.002573722,0.432780979,-0.292400866,2.947304307,0.003709831,0.002647943,0.025707320,0.999658191,0.000000000,0.000000000,0.000000000,0.000000000,0.000000000,0.000000000,1.384219766,0.000000000,3.858651161
1772689631.815271139,0.016265000,0.003969000,0.054591000,0.026856110,0.022350920,0.031973540,0.998877810,0.055160000,0.042948000,0.065182000,0.001008198,0.000117832,-0.000748893,0.070658947,-0.120182164,0.038713158,0.004859244,-0.001168170,0.997222239,0.002320652,0.004196313,0.000171031,0.000000000,0.000000000,0.000000000,0.000000000,0.016529108,0.003665513,0.054644385,0.032335142,-0.030229076,-0.001077294,0.010302605,-0.008395268,-0.002793035,0.433082807,-0.293090147,2.948532205,0.003712281,0.002654064,0.025718003,0.999657916,0.000000000,0.000000000,0.000000000,0.000000000,0.000000000,0.000000000,1.384219766,0.000000000,3.858651161
1772689631.825271606,0.016211000,0.003942000,0.054693000,0.026392410,0.022986730,0.031804850,0.998881130,0.054268000,0.044258000,0.064861000,0.000483606,0.000788540,-0.001074418,0.079120689,-0.133230804,0.042167689,0.005782394,-0.000620773,0.998821680,-0.000428020,0.003475770,-0.001187980,0.000000000,0.000000000,0.000000000,0.000000000,0.016528851,0.003657665,0.054653011,0.032456052,-0.030399679,-0.001121255,0.010939640,-0.007758018,-0.002090964,0.434998951,-0.294829970,2.951457761,0.003728538,0.002669767,0.025743421,0.999657455,0.000000000,0.000000000,0.000000000,0.000000000,0.000000000,0.000000000,1.384219766,0.000000000,3.858651161
1772689631.835271120,0.016239000,0.003986000,0.054606000,0.027692820,0.021088080,0.032306850,0.998871700,0.056762000,0.040350000,0.065810000,0.000337665,0.001479935,-0.002372574,0.104856080,-0.163442563,0.052275751,0.005013697,-0.001725455,0.999444974,-0.001182158,0.002216590,0.002362950,0.000000000,0.000000000,0.000000000,0.000000000,0.016520801,0.003647884,0.054675139,0.032746071,-0.030610985,-0.001216894,0.011226748,-0.008184098,-0.000463311,0.437697874,-0.297523552,2.955510291,0.003751381,0.002694003,0.025778619,0.999656241,0.000000000,0.000000000,0.000000000,0.000000000,0.000000000,0.000000000,1.384219766,0.000000000,3.858651161
1772689631.845270872,0.016185000,0.003964000,0.054691000,0.026673700,0.022351200,0.032005940,0.998881650,0.054796000,0.042958000,0.065239000,-0.000197727,0.000994795,-0.001431742,0.083211433,-0.120634151,0.038606812,0.003636491,-0.002178789,0.999748052,0.000304026,0.000241764,0.003090108,0.000000000,0.000000000,0.000000000,0.000000000,0.016510968,0.003649515,0.054689019,0.033137109,-0.030769253,-0.001214963,0.010193198,-0.009605972,-0.000860050,0.439322897,-0.300136749,2.959277149,0.003764879,0.002717290,0.025811354,0.999655547,0.000000000,0.000000000,0.000000000,0.000000000,0.000000000,0.000000000,1.384219766,0.000000000,3.858651161
1772689631.855270863,0.016230000,0.003998000,0.054581000,0.027822420,0.020801910,0.032407780,0.998870830,0.057006000,0.039764000,0.066000000,0.000154973,0.000381391,-0.001095883,0.073929070,-0.096126037,0.031344656,0.004595033,-0.002526243,0.999359769,0.002049633,-0.004152590,-0.000355023,0.000000000,0.000000000,0.000000000,0.000000000,0.016500870,0.003653507,0.054690098,0.033513974,-0.031099644,-0.001247374,0.010624369,-0.009748711,-0.000920979,0.440291844,-0.301994357,2.960099626,0.003772894,0.002733740,0.025818442,0.999655197,0.000000000,0.000000000,0.000000000,0.000000000,0.000000000,0.000000000,1.384219766,0.000000000,3.858651161
1772689631.865270615,0.016244000,0.004012000,0.054549000,0.028647100,0.019822310,0.032637340,0.998859960,0.058598000,0.037738000,0.066432000,0.000817969,-0.000169678,-0.000598136,0.063245086,-0.077083810,0.027101540,0.005658348,-0.003132986,0.999374855,-0.002212566,-0.002326285,0.002962513,0.000000000,0.000000000,0.000000000,0.000000000,0.016503044,0.003650360,0.054686799,0.033730724,-0.031389379,-0.001222733,0.011254510,-0.010105706,-0.000790906,0.440117791,-0.300928143,2.956130276,0.003771710,0.002724269,0.025783853,0.999655455,0.000000000,0.000000000,0.000000000,0.000000000,0.000000000,0.000000000,1.384219766,0.000000000,3.858651161
1772689631.875269890,0.016247000,0.004002000,0.054558000,0.029193240,0.019292690,0.032874660,0.998846740,0.059663000,0.036630000,0.066895000,-0.000166239,-0.000830887,0.001862395,-0.001857172,0.013359151,-0.002921029,0.005464924,-0.002117321,0.998884806,-0.000928197,-0.000631756,0.001839224,0.000000000,0.000000000,0.000000000,0.000000000,0.016507238,0.003644272,0.054684970,0.034012038,-0.031622815,-0.001238192,0.011339714,-0.009618607,-0.001008076,0.438983768,-0.299913343,2.953644686,0.003762105,0.002715079,0.025762233,0.999656210,0.000000000,0.000000000,0.000000000,0.000000000,0.000000000,0.000000000,1.384219766,0.000000000,3.858651161
1772689631.885270834,0.016204000,0.003945000,0.054697000,0.027781690,0.021214220,0.032313860,0.998866330,0.056949000,0.040596000,0.065835000,-0.000800603,-0.000868785,0.002535531,-0.058565224,0.084808762,-0.029094528,0.005313994,-0.001636192,0.998671131,0.000247122,0.000228902,0.000810216,0.000000000,0.000000000,0.000000000,0.000000000,0.016721841,0.003472381,0.054646854,0.034988924,-0.032337049,-0.001465009,0.010890971,-0.008439812,-0.001560744,0.437994341,-0.299674871,2.953062695,0.003753541,0.002712757,0.025757189,0.999656663,0.000000000,0.000000000,0.000000000,0.000000000,0.000000000,0.000000000,1.384219766,0.000000000,3.858651161
1772689631.895270824,0.016246000,0.003972000,0.054619000,0.028327370,0.020326820,0.032578710,0.998860860,0.057991000,0.038771000,0.066333000,-0.001752779,-0.001219931,0.003474654,-0.139356620,0.194572926,-0.063859990,0.005290942,-0.001971412,0.999566172,-0.001075597,-0.000718588,0.001355620,0.000000000,0.000000000,0.000000000,0.000000000,0.016909079,0.003318916,0.054622737,0.035844801,-0.032971383,-0.001634627,0.011177838,-0.009225306,-0.000981895,0.439088731,-0.300470159,2.955756916,0.003762846,0.002720029,0.025780637,0.999656163,0.000000000,0.000000000,0.000000000,0.000000000,0.000000000,0.000000000,1.384219766,0.000000000,3.858651161
1772689631.905270338,0.016195000,0.003961000,0.054696000,0.026957220,0.022106620,0.032059630,0.998877760,0.055349000,0.042448000,0.065344000,-0.001430907,-0.000708956,0.002005091,-0.155872504,0.214902550,-0.069005859,0.004659951,-0.001314959,1.001403988,-0.001883572,-0.004423064,0.000250115,0.000000000,0.000000000,0.000000000,0.000000000,0.016910943,0.003310966,0.054636481,0.036059522,-0.033154789,-0.001594202,0.010531175,-0.008638648,0.000850060,0.440169029,-0.300513218,2.958002945,0.003772206,0.002720722,0.025800205,0.999655510,0.000000000,0.000000000,0.000000000,0.000000000,0.000000000,0.000000000,1.384219766,0.000000000,3.858651161
1772689631.915270329,0.016170000,0.003964000,0.054707000,0.026062480,0.023238420,0.031656060,0.998888690,0.053618000,0.044790000,0.064563000,-0.001403906,-0.000344678,0.001658082,-0.157385821,0.221472372,-0.070473378,0.004480326,-0.002679443,0.998396088,0.000088054,-0.005230501,-0.003844598,0.000000000,0.000000000,0.000000000,0.000000000,0.016905485,0.003342394,0.054607876,0.036225506,-0.033253617,-0.001592511,0.010242432,-0.009472549,-0.000849132,0.440919777,-0.299260145,2.961507335,0.003778955,0.002710075,0.025830802,0.999654719,0.000000000,0.000000000,0.000000000,0.000000000,0.000000000,0.000000000,1.384219766,0.000000000,3.858651161
1772689631.925271034,0.016177000,0.003948000,0.054691000,0.025491900,0.024090160,0.031443520,0.998889950,0.052523000,0.046541000,0.064159000,-0.000376380,0.000344639,-0.000081721,-0.097587056,0.142186596,-0.045760747,0.003650869,-0.003296644,0.998136562,0.001628417,-0.001661135,0.000910763,0.000000000,0.000000000,0.000000000,0.000000000,0.016552346,0.003646510,0.054649074,0.035404225,-0.032624543,-0.001431222,0.009613793,-0.010369381,-0.001950421,0.441671698,-0.297934186,2.963810841,0.003785760,0.002698754,0.025850924,0.999654111,0.000000000,0.000000000,0.000000000,0.000000000,0.000000000,0.000000000,1.384219766,0.000000000,3.858651161
1772689631.935271502,0.016179000,0.003944000,0.054701000,0.025033240,0.024788020,0.031346660,0.998887520,0.051647000,0.047970000,0.063982000,0.000212335,0.000336364,-0.000371970,-0.044557473,0.063098174,-0.023527731,0.004316418,-0.003764148,0.998961504,0.000441692,-0.000721619,0.002229152,0.000000000,0.000000000,0.000000000,0.000000000,0.016836994,0.003403300,0.054602511,0.036202169,-0.033600201,-0.001828519,0.009602697,-0.010895612,-0.001505500,0.443094281,-0.297440537,2.966604000,0.003798216,0.002694861,0.025875274,0.999653642,0.000000000,0.000000000,0.000000000,0.000000000,0.000000000,0.000000000,1.384219766,0.000000000,3.858651161
1772689631.945271492,0.016179000,0.003959000,0.054713000,0.024881780,0.024881800,0.031313110,0.998890030,0.051349000,0.048169000,0.063912000,0.000705848,0.000337005,-0.000847340,0.009263257,-0.024223804,0.002666550,0.005056967,-0.004157639,0.999394445,-0.000691065,-0.001349213,0.000436668,0.000000000,0.000000000,0.000000000,0.000000000,0.016945678,0.003318269,0.054570797,0.036587688,-0.034100378,-0.002006005,0.010879735,-0.011265859,-0.000611761,0.444631863,-0.297419587,2.970038982,0.003811553,0.002695140,0.025905205,0.999652985,0.000000000,0.000000000,0.000000000,0.000000000,0.000000000,0.000000000,1.384219766,0.000000000,3.858651161
1772689631.955271482,0.016171000,0.003962000,0.054728000,0.024762210,0.025051190,0.031152010,0.998893800,0.051113000,0.048523000,0.063593000,0.001015405,0.000420727,-0.001447670,0.054820319,-0.090903429,0.025142651,0.004920586,-0.004540177,0.999015460,-0.000165564,-0.001415541,-0.001280332,0.000000000,0.000000000,0.000000000,0.000000000,0.016976271,0.003303436,0.054545673,0.036790181,-0.034389548,-0.002085942,0.010750006,-0.011660573,-0.000991484,0.445201149,-0.296688353,2.972812234,0.003816619,0.002688982,0.025929408,0.999652139,0.000000000,0.000000000,0.000000000,0.000000000,0.000000000,0.000000000,1.384219766,0.000000000,3.858651161
1772689631.965271950,0.016236000,0.003997000,0.054592000,0.026423620,0.022694890,0.031731250,0.998889310,0.054307000,0.043676000,0.064698000,0.001142192,0.000097222,-0.001585219,0.081109384,-0.121906477,0.039850979,0.004193085,-0.003667814,0.999629379,-0.000501275,-0.000882527,0.000203990,0.000000000,0.000000000,0.000000000,0.000000000,0.016653359,0.003611851,0.054551023,0.035931072,-0.033692317,-0.002071543,0.010153524,-0.011226290,-0.000674213,0.446578706,-0.294745531,2.975697709,0.003829009,0.002672441,0.025954614,0.999651342,0.000000000,0.000000000,0.000000000,0.000000000,0.000000000,0.000000000,1.384219766,0.000000000,3.858651161
1772689631.975272417,0.016192000,0.003953000,0.054685000,0.025886350,0.023280490,0.031625620,0.998893260,0.053267000,0.044887000,0.064496000,0.000760568,-0.000485043,-0.001026225,0.076368811,-0.105850748,0.039555073,0.005643394,-0.002761447,0.998442283,-0.000912836,-0.000711328,0.001460354,0.000000000,0.000000000,0.000000000,0.000000000,0.016583004,0.003638579,0.054606624,0.035822837,-0.033975781,-0.001831110,0.010701408,-0.010245553,-0.001158139,0.448120292,-0.292501250,2.978704309,0.003842897,0.002653313,0.025980885,0.999650700,0.000000000,0.000000000,0.000000000,0.000000000,0.000000000,0.000000000,1.384219766,0.000000000,3.858651161
1772689631.985272408,0.016191000,0.003940000,0.054698000,0.025699350,0.023633720,0.031609470,0.998890300,0.052915000,0.045606000,0.064475000,0.000062840,-0.000699146,0.000276379,0.042521724,-0.048995253,0.025738155,0.006162691,-0.001493310,1.000042460,-0.000959666,-0.000351607,0.002241022,0.000000000,0.000000000,0.000000000,0.000000000,0.016586699,0.003635421,0.054610225,0.035903667,-0.034293835,-0.001795094,0.011762833,-0.009056719,-0.000732860,0.448757111,-0.291194613,2.981823068,0.003848676,0.002642164,0.026008122,0.999650049,0.000000000,0.000000000,0.000000000,0.000000000,0.000000000,0.000000000,1.384219766,0.000000000,3.858651161
1772689631.995272636,0.016251000,0.003974000,0.054588000,0.027212640,0.021875370,0.032217190,0.998870860,0.055852000,0.041960000,0.065657000,-0.001297593,-0.000626613,0.002196914,-0.022947915,0.041787403,-0.005098282,0.005442955,-0.002951966,1.000676449,0.000767857,-0.001107129,-0.000558099,0.000000000,0.000000000,0.000000000,0.000000000,0.016570742,0.003629999,0.054639821,0.036086003,-0.034458477,-0.001715078,0.011261694,-0.009612120,0.000636179,0.449054034,-0.290760853,2.985246473,0.003851286,0.002638562,0.026037993,0.999649258,0.000000000,0.000000000,0.000000000,0.000000000,0.000000000,0.000000000,1.384219766,0.000000000,3.858651161
1772689632.005272865,0.016203000,0.003937000,0.054694000,0.026408990,0.022974270,0.031940800,0.998876640,0.054306000,0.044224000,0.065133000,-0.001521505,-0.000021348,0.002020709,-0.059430889,0.089728333,-0.027627198,0.005237319,-0.003691629,1.001061878,0.000080461,-0.002286278,0.001010870,0.000000000,0.000000000,0.000000000,0.000000000,0.016550007,0.003627432,0.054664526,0.036239748,-0.034541832,-0.001520541,0.010883450,-0.010970573,0.000813473,0.449031207,-0.290655000,2.984132128,0.003851137,0.002637596,0.026028278,0.999649022,0.000000000,0.000000000,0.000000000,0.000000000,0.000000000,0.000000000,1.384219766,0.000000000,3.858651161
1772689632.015272856,0.016168000,0.003949000,0.054714000,0.025944640,0.023457180,0.031669760,0.998886210,0.053397000,0.045234000,0.064597000,-0.000198252,0.001120261,-0.001157247,-0.008242140,0.012997036,-0.009815829,0.005333803,-0.003967036,1.000874944,-0.000328998,-0.001992430,0.001928576,0.000000000,0.000000000,0.000000000,0.000000000,0.016544470,0.003624483,0.054669950,0.036304694,-0.034625889,-0.001447706,0.010976092,-0.011155996,0.000915444,0.448651796,-0.290394398,2.981762373,0.003847940,0.002635157,0.026007624,0.999649829,0.000000000,0.000000000,0.000000000,0.000000000,0.000000000,0.000000000,1.384219766,0.000000000,3.858651161
1772689632.025273085,0.016168000,0.003961000,0.054716000,0.025575720,0.023957220,0.031536480,0.998888070,0.052686000,0.046265000,0.064341000,0.000295494,0.000964278,-0.001731237,0.024050254,-0.029715106,0.003511783,0.005442881,-0.004349860,1.000292504,-0.000035259,-0.000979906,0.001464117,0.000000000,0.000000000,0.000000000,0.000000000,0.016542445,0.003621290,0.054671393,0.036350983,-0.034712443,-0.001406831,0.011090103,-0.011511482,0.000344805,0.448215894,-0.289951672,2.980943427,0.003844257,0.002631168,0.026000505,0.999650035,0.000000000,0.000000000,0.000000000,0.000000000,0.000000000,0.000000000,1.384219766,0.000000000,3.858651161
1772689632.035273552,0.016155000,0.003963000,0.054707000,0.025264820,0.024277800,0.031407090,0.998892320,0.052080000,0.046932000,0.064086000,0.001002507,0.000463287,-0.001751808,0.051981749,-0.064386522,0.015687929,0.005551961,-0.004732693,0.999710050,0.000258487,0.000032642,0.000999647,0.000000000,0.000000000,0.000000000,0.000000000,0.016540420,0.003618097,0.054672836,0.036397274,-0.034798998,-0.001365955,0.011204117,-0.011866976,-0.000225847,0.447779983,-0.289508935,2.980124460,0.003840574,0.002627180,0.025993386,0.999650241,0.000000000,0.000000000,0.000000000,0.000000000,0.000000000,0.000000000,1.384219766,0.000000000,3.858651161
1772689632.045273542,0.016237000,0.003994000,0.054580000,0.026760630,0.022478390,0.031915160,0.998879380,0.054975000,0.043212000,0.065068000,0.001212705,-0.000385354,-0.000865638,0.052475152,-0.063888466,0.020654083,0.005555095,-0.004038226,0.998802092,-0.000820989,-0.002427602,-0.001168736,0.000000000,0.000000000,0.000000000,0.000000000,0.016538933,0.003611751,0.054678610,0.036552057,-0.035003909,-0.001219500,0.011231830,-0.011794931,-0.000990747,0.447281084,-0.288941284,2.978604859,0.003836386,0.002622064,0.025980161,0.999650513,0.000000000,0.000000000,0.000000000,0.000000000,0.000000000,0.000000000,1.384219766,0.000000000,3.858651161
1772689632.055274487,0.016247000,0.003991000,0.054563000,0.027925810,0.021121020,0.032329600,0.998863780,0.057232000,0.040399000,0.065867000,0.000862511,-0.000762413,0.000274010,0.031052116,-0.036462359,0.016555924,0.005350957,-0.002432206,0.998988303,-0.000621493,-0.002596976,-0.002683162,0.000000000,0.000000000,0.000000000,0.000000000,0.016789234,0.003368584,0.054673033,0.037358050,-0.035879553,-0.001209041,0.010963724,-0.010327686,-0.001511724,0.446186496,-0.287685477,2.975954917,0.003827182,0.002610772,0.025957113,0.999651179,0.000000000,0.000000000,0.000000000,0.000000000,0.000000000,0.000000000,1.384219766,0.000000000,3.858651161
1772689632.065274715,0.016210000,0.003943000,0.054683000,0.026977820,0.022414450,0.032001870,0.998872200,0.055409000,0.043065000,0.065248000,-0.000054157,-0.000615793,0.001054624,0.001337778,-0.007053740,0.006621966,0.004862578,-0.001408089,0.999822617,0.000434139,0.000428009,-0.001056939,0.000000000,0.000000000,0.000000000,0.000000000,0.016699663,0.003455093,0.054689031,0.037291979,-0.035808343,-0.001204667,0.010533683,-0.008524537,-0.000200523,0.444731966,-0.285963649,2.973436240,0.003814941,0.002595338,0.025935234,0.999651813,0.000000000,0.000000000,0.000000000,0.000000000,0.000000000,0.000000000,1.384219766,0.000000000,3.858651161
1772689632.075275183,0.016197000,0.003930000,0.054725000,0.026174170,0.023215720,0.031721320,0.998884230,0.053843000,0.044734000,0.064697000,-0.001098738,-0.000660820,0.002129975,-0.053999031,0.064986564,-0.015177654,0.004583137,-0.001678518,0.999174516,-0.001088384,0.000337997,0.001798599,0.000000000,0.000000000,0.000000000,0.000000000,0.016551339,0.003622323,0.054672652,0.037050167,-0.035407400,-0.001302847,0.010007383,-0.008986933,-0.000296896,0.444686494,-0.285081398,2.970185562,0.003814818,0.002587523,0.025906909,0.999652617,0.000000000,0.000000000,0.000000000,0.000000000,0.000000000,0.000000000,1.384219766,0.000000000,3.858651161
1772689632.085275412,0.016179000,0.003931000,0.054726000,0.025520380,0.023991000,0.031615600,0.998886180,0.052582000,0.046331000,0.064499000,-0.001093727,0.000236364,0.000585082,-0.053296601,0.063984382,-0.015764492,0.005299595,-0.001507514,0.998234305,-0.001106247,-0.001579644,-0.000254352,0.000000000,0.000000000,0.000000000,0.000000000,0.016564483,0.003625347,0.054648175,0.037126240,-0.035387211,-0.001384181,0.010583659,-0.008792850,-0.001891435,0.444563795,-0.284569910,2.967506458,0.003813923,0.002582944,0.025883555,0.999653229,0.000000000,0.000000000,0.000000000,0.000000000,0.000000000,0.000000000,1.384219766,0.000000000,3.858651161
1772689632.095276117,0.016232000,0.003998000,0.054590000,0.027013020,0.022121320,0.032158110,0.998872760,0.055466000,0.042468000,0.065545000,0.000004681,0.000873913,-0.001605848,0.000030448,0.004866839,0.004013141,0.005510037,-0.001151184,0.998983230,0.001090916,-0.001772654,-0.001101749,0.000000000,0.000000000,0.000000000,0.000000000,0.016722402,0.003465612,0.054650033,0.037550276,-0.035787930,-0.001423771,0.010904555,-0.008494447,-0.001756927,0.436452633,-0.277052871,2.965871558,0.003744899,0.002515482,0.025869696,0.999653721,0.000000000,0.000000000,0.000000000,0.000000000,0.000000000,0.000000000,1.384219766,0.000000000,3.858651161
1772689632.105276108,0.016181000,0.003957000,0.054675000,0.026304100,0.022959370,0.031896450,0.998881160,0.054093000,0.044204000,0.065039000,0.000404565,0.000605867,-0.001766435,0.036514950,-0.031383558,0.016427946,0.005061307,-0.000729749,1.000978650,0.000227217,-0.001459013,0.003067580,0.000000000,0.000000000,0.000000000,0.000000000,0.016684634,0.003491535,0.054659068,0.034746621,-0.032938239,-0.001518513,0.009078931,-0.007068473,0.000537130,0.383929365,-0.227376937,2.965927678,0.003297926,0.002070270,0.025872826,0.999653314,0.000000000,0.000000000,0.000000000,0.000000000,0.000000000,0.000000000,1.384219766,0.000000000,3.858651161
1772689632.115276337,0.016180000,0.003947000,0.054690000,0.025803930,0.023874110,0.031703120,0.998878920,0.053145000,0.046075000,0.064681000,0.000166026,-0.000413209,0.000255614,0.012186529,0.001042407,0.004931134,0.005647563,-0.002096219,1.000650257,0.000726737,-0.000478427,-0.000854474,0.000000000,0.000000000,0.000000000,0.000000000,0.016454510,0.003722560,0.054648076,0.031458498,-0.029582298,-0.001462421,0.009877882,-0.008084075,0.000714723,0.401401694,-0.242699192,2.980024938,0.003446616,0.002208306,0.025995031,0.999652837,0.000000000,0.000000000,0.000000000,0.000000000,0.000000000,0.000000000,1.384219766,0.000000000,3.858651161
1772689632.125275850,0.016226000,0.003993000,0.054590000,0.027160880,0.022190340,0.032171820,0.998866780,0.055767000,0.042596000,0.065583000,-0.000052953,-0.001006450,0.001617523,-0.030382059,0.047361354,-0.014061790,0.005975625,-0.003053293,1.000093542,0.002513463,0.003198009,0.001479421,0.000000000,0.000000000,0.000000000,0.000000000,0.016577540,0.003647091,0.054592631,0.032743434,-0.030661432,-0.001394214,0.010383260,-0.009118321,0.000168045,0.410277366,-0.251853702,2.984047322,0.003521884,0.002290304,0.026029662,0.999651269,0.000000000,0.000000000,0.000000000,0.000000000,0.000000000,0.000000000,1.384219766,0.000000000,3.858651161
1772689632.135276079,0.016199000,0.003934000,0.054695000,0.026365780,0.023337520,0.031902760,0.998870570,0.054242000,0.044955000,0.065076000,-0.000381663,-0.000942173,0.001794349,-0.061638051,0.075364405,-0.027599844,0.004751040,-0.003577066,1.000344972,0.000976902,0.001074201,0.003380168,0.000000000,0.000000000,0.000000000,0.000000000,0.016719380,0.003495545,0.054616606,0.033848023,-0.031719915,-0.001240058,0.010175808,-0.010095652,0.000060781,0.415044112,-0.254956513,2.987488730,0.003562694,0.002318561,0.026059489,0.999650118,0.000000000,0.000000000,0.000000000,0.000000000,0.000000000,0.000000000,1.384219766,0.000000000,3.858651161
1772689632.145276070,0.016191000,0.003931000,0.054711000,0.025712060,0.023931220,0.031689580,0.998880350,0.052965000,0.046196000,0.064653000,-0.000483314,-0.000394853,0.001223253,-0.070584571,0.079879288,-0.032832545,0.004213077,-0.004810187,1.000605956,0.000807892,-0.003587234,0.002415053,0.000000000,0.000000000,0.000000000,0.000000000,0.016802739,0.003387938,0.054660884,0.034604532,-0.032555787,-0.001105086,0.009364440,-0.010645817,0.000442929,0.415070308,-0.254347332,2.985748445,0.003563096,0.002313198,0.026044326,0.999650751,0.000000000,0.000000000,0.000000000,0.000000000,0.000000000,0.000000000,1.384219766,0.000000000,3.858651161
1772689632.155276299,0.016190000,0.003936000,0.054711000,0.025335080,0.024160640,0.031563860,0.998888440,0.052220000,0.046685000,0.064396000,-0.000926458,-0.000153516,0.001086170,-0.074899229,0.082823739,-0.037845496,0.004056750,-0.004858512,1.000648743,0.001207887,-0.003700590,0.001814849,0.000000000,0.000000000,0.000000000,0.000000000,0.016762627,0.003428175,0.054659163,0.034609759,-0.032596207,-0.001102619,0.009340781,-0.010869119,0.000459996,0.414913941,-0.254278566,2.985287619,0.003561757,0.002312549,0.026040312,0.999650853,0.000000000,0.000000000,0.000000000,0.000000000,0.000000000,0.000000000,1.384219766,0.000000000,3.858651161
1772689632.165276051,0.016185000,0.003948000,0.054691000,0.025203870,0.024403270,0.031422340,0.998890330,0.051967000,0.047186000,0.064120000,0.000040890,0.000988035,-0.001254644,-0.007624837,-0.003322516,-0.009268718,0.003914605,-0.004596884,1.000674512,0.001425240,-0.002561955,0.001610079,0.000000000,0.000000000,0.000000000,0.000000000,0.016715582,0.003476876,0.054654577,0.034572278,-0.032590311,-0.001107901,0.009317122,-0.011092410,0.000477061,0.414757581,-0.254209804,2.984826815,0.003560418,0.002311899,0.026036297,0.999650955,0.000000000,0.000000000,0.000000000,0.000000000,0.000000000,0.000000000,1.384219766,0.000000000,3.858651161
1772689632.175276518,0.016173000,0.003953000,0.054693000,0.025211660,0.024328420,0.031365380,0.998893740,0.051975000,0.047039000,0.064003000,0.000917289,0.001949788,-0.003232793,0.089732933,-0.128690268,0.033491904,0.003772449,-0.004335237,1.000700283,0.001642609,-0.001423238,0.001405294,0.000000000,0.000000000,0.000000000,0.000000000,0.016668534,0.003525580,0.054649990,0.034534793,-0.032584414,-0.001113183,0.009293461,-0.011315717,0.000494128,0.414601210,-0.254141036,2.984365977,0.003559079,0.002311249,0.026032282,0.999651057,0.000000000,0.000000000,0.000000000,0.000000000,0.000000000,0.000000000,1.384219766,0.000000000,3.858651161
1772689632.185276747,0.016176000,0.003953000,0.054702000,0.025132540,0.024559930,0.031360210,0.998890240,0.051831000,0.047507000,0.064001000,0.000786792,0.001234733,-0.002091572,0.117983671,-0.154477699,0.047496755,0.003630297,-0.004073596,1.000726053,0.001859973,-0.000284549,0.001200514,0.000000000,0.000000000,0.000000000,0.000000000,0.016621486,0.003574283,0.054645404,0.034497309,-0.032578517,-0.001118465,0.009269801,-0.011539019,0.000511195,0.414444842,-0.254072271,2.983905151,0.003557740,0.002310599,0.026028268,0.999651159,0.000000000,0.000000000,0.000000000,0.000000000,0.000000000,0.000000000,1.384219766,0.000000000,3.858651161
1772689632.195276737,0.016220000,0.003999000,0.054597000,0.026850270,0.022291440,0.031935270,0.998880520,0.055143000,0.042831000,0.065102000,0.000439822,0.000375447,-0.000683276,0.094247461,-0.120555364,0.041400402,0.003488148,-0.003811962,1.000751823,0.002077332,0.000854114,0.000995739,0.000000000,0.000000000,0.000000000,0.000000000,0.016574440,0.003622985,0.054640818,0.034459827,-0.032572620,-0.001123746,0.009246142,-0.011762315,0.000528261,0.414288478,-0.254003507,2.983444336,0.003556400,0.002309950,0.026024253,0.999651261,0.000000000,0.000000000,0.000000000,0.000000000,0.000000000,0.000000000,1.384219766,0.000000000,3.858651161
1772689632.205276728,0.016241000,0.004012000,0.054573000,0.028017710,0.020759460,0.032427810,0.998865600,0.057395000,0.039665000,0.066045000,0.000033197,-0.000563598,0.000769251,0.040268410,-0.044855637,0.019089277,0.003345999,-0.003550328,1.000777593,0.002294690,0.001992776,0.000790963,0.000000000,0.000000000,0.000000000,0.000000000,0.016544710,0.003655024,0.054636000,0.034461289,-0.032614546,-0.001126700,0.008695555,-0.010974536,0.000630793,0.413776046,-0.253038905,2.980932784,0.003552200,0.002301341,0.026002383,0.999651671,0.000000000,0.000000000,0.000000000,0.000000000,0.000000000,0.000000000,1.384219766,0.000000000,3.858651161
1772689632.215276480,0.016183000,0.003965000,0.054682000,0.027073430,0.022121890,0.032049340,0.998874610,0.055583000,0.042471000,0.065330000,-0.000420979,-0.001240192,0.001810860,-0.027523580,0.056988898,-0.011594932,0.003750222,-0.003361494,1.000171975,-0.001501064,0.002124116,-0.002566637,0.000000000,0.000000000,0.000000000,0.000000000,0.016829296,0.003384608,0.054626980,0.035169659,-0.033524514,-0.001087389,0.008563721,-0.010201866,0.000299552,0.413571970,-0.252969235,2.977899311,0.003550496,0.002300593,0.025975925,0.999652408,0.000000000,0.000000000,0.000000000,0.000000000,0.000000000,0.000000000,1.384219766,0.000000000,3.858651161
1772689632.225276709,0.016183000,0.003943000,0.054707000,0.026307140,0.023256100,0.031782260,0.998877860,0.054114000,0.044803000,0.064827000,-0.001349263,-0.001671214,0.003309852,-0.108991102,0.174890784,-0.048438372,0.004628113,-0.002651381,0.999382889,-0.001431789,0.000562811,-0.001324573,0.000000000,0.000000000,0.000000000,0.000000000,0.016874875,0.003319816,0.054638215,0.035357772,-0.034012815,-0.000943012,0.009371293,-0.009557550,-0.000549304,0.412999834,-0.253519666,2.974832921,0.003545442,0.002305170,0.025949170,0.999653152,0.000000000,0.000000000,0.000000000,0.000000000,0.000000000,0.000000000,1.384219766,0.000000000,3.858651161
1772689632.235277414,0.016184000,0.003938000,0.054706000,0.025739660,0.023966540,0.031614780,0.998881160,0.053019000,0.046268000,0.064506000,-0.000693318,-0.000899321,0.001845204,-0.117656705,0.182770669,-0.049146966,0.003374698,-0.001814615,0.997790114,0.001587873,0.003577175,-0.000668189,0.000000000,0.000000000,0.000000000,0.000000000,0.016797093,0.003371761,0.054657435,0.035376888,-0.034288917,-0.000868199,0.008594706,-0.008756982,-0.002033155,0.411997151,-0.254197429,2.971867248,0.003536601,0.002310764,0.025923299,0.999653857,0.000000000,0.000000000,0.000000000,0.000000000,0.000000000,0.000000000,1.384219766,0.000000000,3.858651161
1772689632.245277643,0.016187000,0.003938000,0.054706000,0.025545980,0.024426120,0.031487190,0.998879030,0.052656000,0.047206000,0.064268000,-0.000080575,0.000346387,-0.000215016,-0.072193772,0.104861819,-0.027881186,0.004118475,-0.001163129,0.998827027,0.001155296,0.001307969,-0.000767541,0.000000000,0.000000000,0.000000000,0.000000000,0.016540368,0.003617405,0.054668325,0.034928546,-0.033947932,-0.000984269,0.008865705,-0.009084730,-0.001673501,0.411946234,-0.253512120,2.968599741,0.003536378,0.002304673,0.025894817,0.999654542,0.000000000,0.000000000,0.000000000,0.000000000,0.000000000,0.000000000,1.384219766,0.000000000,3.858651161
1772689632.255277634,0.016181000,0.003946000,0.054709000,0.025185740,0.024965560,0.031432710,0.998876560,0.051968000,0.048310000,0.064171000,0.001010626,0.001559811,-0.002601479,0.018829070,-0.034602578,0.013517164,0.005277862,-0.002841693,0.998947572,0.000216761,0.002413498,0.001464979,0.000000000,0.000000000,0.000000000,0.000000000,0.016536917,0.003607963,0.054686676,0.034982660,-0.033996126,-0.001040006,0.009712420,-0.009545587,-0.000942382,0.412004755,-0.253736079,2.965387458,0.003536902,0.002306541,0.025866785,0.999655218,0.000000000,0.000000000,0.000000000,0.000000000,0.000000000,0.000000000,1.384219766,0.000000000,3.858303930
1772689632.265277624,0.016167000,0.003957000,0.054718000,0.024899350,0.025226940,0.031348330,0.998879830,0.051409000,0.048856000,0.064003000,0.000886559,0.001401225,-0.002546273,0.071019278,-0.108869627,0.035086718,0.005701340,-0.002139923,0.997920883,-0.000391801,0.002287211,0.002012140,0.000000000,0.000000000,0.000000000,0.000000000,0.016533818,0.003608951,0.054686499,0.035106784,-0.034092556,-0.001113806,0.010830934,-0.009108848,-0.001813043,0.412180864,-0.255498647,2.962946390,0.003538090,0.002321881,0.025845429,0.999655858,0.000000000,0.000000000,0.000000000,0.000000000,0.000000000,0.000000000,1.384219766,0.000000000,3.857714371
1772689632.275277853,0.016237000,0.003999000,0.054586000,0.026485570,0.022891080,0.031995720,0.998874760,0.054456000,0.044050000,0.065242000,0.000738540,0.000680750,-0.001760278,0.089483463,-0.128448549,0.042603630,0.005199999,-0.001950652,0.998627509,-0.000497996,0.005457486,0.000468866,0.000000000,0.000000000,0.000000000,0.000000000,0.016787535,0.003363129,0.054676137,0.035927212,-0.034782360,-0.001251759,0.010215242,-0.008416494,-0.002137577,0.412342607,-0.257244478,2.960639517,0.003539154,0.002337077,0.025825246,0.999656318,0.000000000,0.000000000,0.000000000,0.000000000,0.000000000,0.000000000,1.384219766,0.000000000,3.857124797
1772689632.285277843,0.016181000,0.003973000,0.054676000,0.026009250,0.023538260,0.031746130,0.998880200,0.053535000,0.045388000,0.064757000,-0.000081294,-0.000559422,0.000400253,0.051385430,-0.068613759,0.024233764,0.004759307,-0.003116869,1.000156039,0.003511948,0.002072005,-0.000265917,0.000000000,0.000000000,0.000000000,0.000000000,0.016887829,0.003266376,0.054672056,0.036419422,-0.035084700,-0.001390370,0.009895836,-0.009513429,-0.000117980,0.412299764,-0.258979963,2.957805637,0.003538447,0.002352119,0.025800471,0.999656894,0.000000000,0.000000000,0.000000000,0.000000000,0.000000000,0.000000000,1.384219766,0.000000000,3.856535237
1772689632.295278072,0.016241000,0.003993000,0.054586000,0.027461160,0.021815310,0.032272800,0.998863580,0.056347000,0.041821000,0.065775000,-0.000484286,-0.001093533,0.001399244,0.009682264,-0.006404255,0.001027859,0.004759524,-0.002101180,1.000295218,-0.000348034,-0.003473115,0.001338380,0.000000000,0.000000000,0.000000000,0.000000000,0.016769851,0.003413232,0.054641125,0.036310491,-0.034848681,-0.001577596,0.009450739,-0.009081604,-0.000069670,0.412508487,-0.259833212,2.954928825,0.003540135,0.002359521,0.025775343,0.999657628,0.000000000,0.000000000,0.000000000,0.000000000,0.000000000,0.000000000,1.384219766,0.000000000,3.855945663
1772689632.305278063,0.016190000,0.003946000,0.054681000,0.026746430,0.022890680,0.032041520,0.998866350,0.054980000,0.044030000,0.065345000,0.000081527,-0.000665890,0.000457770,0.002802561,-0.004389021,-0.000106090,0.005817934,-0.002008514,1.001132216,-0.001064026,0.001218316,0.001650563,0.000000000,0.000000000,0.000000000,0.000000000,0.016573358,0.003637495,0.054612325,0.035845336,-0.034430582,-0.001588118,0.010879391,-0.008302037,0.001302880,0.411750480,-0.257706110,2.957646388,0.003533945,0.002340878,0.025799130,0.999657085,0.000000000,0.000000000,0.000000000,0.000000000,0.000000000,0.000000000,1.384219766,0.000000000,3.855356103
1772689632.315277815,0.016184000,0.003936000,0.054709000,0.026161290,0.023628660,0.031840090,0.998871100,0.053850000,0.045554000,0.064958000,0.000369503,-0.000209596,-0.000307324,0.008801683,-0.022902326,0.004059823,0.006012476,-0.002793472,1.000180524,-0.001195667,0.002533873,0.002794487,0.000000000,0.000000000,0.000000000,0.000000000,0.016553335,0.003626318,0.054647833,0.035879893,-0.034473496,-0.001278452,0.010670543,-0.009464446,0.000385433,0.411596628,-0.258123120,2.954557095,0.003532572,0.002344386,0.025772172,0.999657675,0.000000000,0.000000000,0.000000000,0.000000000,0.000000000,0.000000000,1.384219766,0.000000000,3.854766557
1772689632.325278282,0.016176000,0.003933000,0.054720000,0.025653710,0.024113410,0.031603110,0.998880210,0.052856000,0.046568000,0.064487000,0.000821660,0.000414589,-0.001450506,0.034523793,-0.063676120,0.015698866,0.006304226,-0.002018583,0.999637084,-0.000546658,0.002737096,0.002754472,0.000000000,0.000000000,0.000000000,0.000000000,0.016544345,0.003613927,0.054672160,0.036026883,-0.034560409,-0.001061400,0.011702933,-0.009135396,-0.000540383,0.410354036,-0.260034095,2.952060397,0.003521354,0.002360700,0.025750358,0.999658265,0.000000000,0.000000000,0.000000000,0.000000000,0.000000000,0.000000000,1.384219766,0.000000000,3.854176969
1772689632.335278034,0.016235000,0.003987000,0.054589000,0.026994850,0.022105230,0.032066260,0.998876560,0.055425000,0.042442000,0.065359000,-0.000092055,0.000438093,-0.000373932,0.016921992,-0.037989468,0.006540321,0.004911912,-0.001057852,1.000220816,-0.000001137,0.005361256,0.002226824,0.000000000,0.000000000,0.000000000,0.000000000,0.016541872,0.003605708,0.054685660,0.036263700,-0.034630644,-0.000998772,0.010148728,-0.007598603,-0.000040075,0.409467797,-0.260155820,2.949856743,0.003513641,0.002361496,0.025731148,0.999658975,0.000000000,0.000000000,0.000000000,0.000000000,0.000000000,0.000000000,1.384219766,0.000000000,3.853587423
1772689632.345278025,0.016259000,0.003991000,0.054563000,0.027990530,0.020770300,0.032535160,0.998862650,0.057345000,0.039682000,0.066260000,-0.000303089,0.000445028,-0.000154021,0.009042637,-0.017955231,0.003708045,0.004070124,-0.002335474,0.999824783,-0.000105155,0.001378289,-0.000667411,0.000000000,0.000000000,0.000000000,0.000000000,0.016513483,0.003644465,0.054676609,0.036075433,-0.034354179,-0.001134717,0.009076754,-0.008414925,0.000235898,0.408882676,-0.261387878,2.945275089,0.003508355,0.002371972,0.025691154,0.999659675,0.000000000,0.000000000,0.000000000,0.000000000,0.000000000,0.000000000,1.384219766,0.000000000,3.853823272
1772689632.355277538,0.016189000,0.003949000,0.054679000,0.026987610,0.022326270,0.032078940,0.998871440,0.055426000,0.042884000,0.065397000,-0.001311559,-0.000112957,0.001618902,-0.040878180,0.062331410,-0.021392895,0.003966575,-0.002525403,1.000327845,-0.000905295,-0.001041082,0.000081633,0.000000000,0.000000000,0.000000000,0.000000000,0.016474432,0.003700162,0.054660252,0.035706755,-0.033964313,-0.001325302,0.008879769,-0.009217261,-0.000163692,0.403543862,-0.257490103,2.941344972,0.003462736,0.002336653,0.025657098,0.999660375,0.000000000,0.000000000,0.000000000,0.000000000,0.000000000,0.000000000,1.384219766,0.000000000,3.854532355
1772689632.365278482,0.016171000,0.003953000,0.054705000,0.026220000,0.023405580,0.031771920,0.998876990,0.053949000,0.045108000,0.064811000,-0.001476050,-0.000638074,0.002562901,-0.091648129,0.133787007,-0.043560136,0.004753510,-0.001922553,0.999828920,0.000359746,0.000127168,0.001452790,0.000000000,0.000000000,0.000000000,0.000000000,0.016494115,0.003706615,0.054630540,0.035716298,-0.033979166,-0.001499568,0.009058969,-0.008556749,0.000763920,0.398554107,-0.252872531,2.943707083,0.003420193,0.002295325,0.025677950,0.999661075,0.000000000,0.000000000,0.000000000,0.000000000,0.000000000,0.000000000,1.384219766,0.000000000,3.855241540
1772689632.375278473,0.016160000,0.003956000,0.054712000,0.025597100,0.024007410,0.031594580,0.998884490,0.052735000,0.046360000,0.064462000,-0.001044717,-0.000908820,0.002490989,-0.116377383,0.157991969,-0.053675819,0.005937905,-0.002204820,0.997131279,-0.000283675,0.001986842,0.000407109,0.000000000,0.000000000,0.000000000,0.000000000,0.016756666,0.003471310,0.054601442,0.035929236,-0.034278736,-0.001441956,0.011049578,-0.008426937,-0.002885973,0.400817208,-0.253725840,2.945326099,0.003439712,0.002303324,0.025692002,0.999660191,0.000000000,0.000000000,0.000000000,0.000000000,0.000000000,0.000000000,1.384219766,0.000000000,3.855950657
1772689632.385278463,0.016174000,0.003953000,0.054701000,0.025372800,0.024341770,0.031482960,0.998885640,0.052303000,0.047049000,0.064246000,-0.000065210,-0.000791823,0.001200021,-0.098961310,0.118270968,-0.045040512,0.005228589,-0.003072687,0.998983504,-0.000845723,0.000861772,0.000199029,0.000000000,0.000000000,0.000000000,0.000000000,0.016898171,0.003308204,0.054620457,0.036917286,-0.035053837,-0.001605449,0.010358427,-0.009418812,-0.001884887,0.399937381,-0.253746637,2.941908531,0.003432100,0.002303206,0.025662206,0.999660908,0.000000000,0.000000000,0.000000000,0.000000000,0.000000000,0.000000000,1.384219766,0.000000000,3.856659774
1772689632.395278454,0.016181000,0.003955000,0.054701000,0.025225010,0.024462700,0.031326890,0.998891340,0.052008000,0.047308000,0.063933000,0.001362861,-0.000236111,-0.000946155,-0.028952443,0.016428613,-0.009343092,0.005322960,-0.003230593,1.001291861,0.000511868,-0.002953087,0.000941384,0.000000000,0.000000000,0.000000000,0.000000000,0.016553927,0.003590135,0.054686338,0.036406082,-0.034670711,-0.001556503,0.010165352,-0.009681144,0.000803927,0.399020515,-0.253277556,2.938605621,0.003424273,0.002298810,0.025633423,0.999661744,0.000000000,0.000000000,0.000000000,0.000000000,0.000000000,0.000000000,1.384219766,0.000000000,3.857368891
1772689632.405278206,0.016196000,0.003930000,0.054708000,0.024956250,0.024623510,0.031392500,0.998892080,0.051484000,0.047644000,0.064061000,0.000875545,-0.000198427,-0.000584771,0.003161574,-0.018203882,0.004070914,0.004822703,-0.001134988,1.001307194,0.001238325,-0.000099090,-0.000041379,0.000000000,0.000000000,0.000000000,0.000000000,0.016908148,0.003261328,0.054661215,0.037352987,-0.035574071,-0.001512889,0.009683432,-0.007968487,0.001367715,0.398919114,-0.252250762,2.935240429,0.003423686,0.002289729,0.025604103,0.999662490,0.000000000,0.000000000,0.000000000,0.000000000,0.000000000,0.000000000,1.384219766,0.000000000,3.858077991
1772689632.415278673,0.016190000,0.003929000,0.054720000,0.024884760,0.024641640,0.031328410,0.998895420,0.051339000,0.047688000,0.063930000,0.000870766,0.000848699,-0.001899458,0.059963492,-0.085203178,0.029697202,0.006165309,-0.001758826,0.998996913,0.000931224,0.003686216,-0.002011394,0.000000000,0.000000000,0.000000000,0.000000000,0.016942667,0.003280603,0.054598989,0.037541779,-0.035549796,-0.001565602,0.010698741,-0.008055501,-0.000577267,0.399597489,-0.252019646,2.938433727,0.003429592,0.002287960,0.025631954,0.999662624,0.000000000,0.000000000,0.000000000,0.000000000,0.000000000,0.000000000,1.384219766,0.000000000,3.858651161
1772689632.425279140,0.016189000,0.003934000,0.054711000,0.024926170,0.024594410,0.031320520,0.998895800,0.051419000,0.047591000,0.063914000,0.000210159,0.001238152,-0.001787492,0.080064458,-0.108121261,0.040978587,0.003655445,-0.002592294,0.999054675,0.000268432,0.000264990,0.000994191,0.000000000,0.000000000,0.000000000,0.000000000,0.016950735,0.003280633,0.054591188,0.037613143,-0.035526495,-0.001537830,0.009006207,-0.009250157,-0.001547037,0.399590930,-0.253326700,2.935557590,0.003429300,0.002299275,0.025606822,0.999662526,0.000000000,0.000000000,0.000000000,0.000000000,0.000000000,0.000000000,1.384219766,0.000000000,3.858651161
1772689632.435279131,0.016242000,0.003992000,0.054595000,0.026671260,0.022482610,0.032040200,0.998877670,0.054802000,0.043219000,0.065315000,0.000573077,0.001452235,-0.002545904,0.113674589,-0.145058352,0.054685020,0.003237225,-0.002221613,1.001334909,0.000820493,0.001024053,0.000820929,0.000000000,0.000000000,0.000000000,0.000000000,0.016923860,0.003267650,0.054638516,0.037497803,-0.035634257,-0.001433377,0.007753362,-0.008823294,0.000702812,0.398917436,-0.253289217,2.932951105,0.003423485,0.002298719,0.025584099,0.999663104,0.000000000,0.000000000,0.000000000,0.000000000,0.000000000,0.000000000,1.384219766,0.000000000,3.858651161
1772689632.445280075,0.016181000,0.003972000,0.054674000,0.026326060,0.023022830,0.031865810,0.998880100,0.054140000,0.044331000,0.064982000,0.000617891,0.001109209,-0.001921466,0.119744348,-0.150677127,0.051147614,0.003894727,-0.002126829,1.001357418,0.000495489,0.001728770,0.000582470,0.000000000,0.000000000,0.000000000,0.000000000,0.016904875,0.003264614,0.054664031,0.037267717,-0.035649898,-0.001247729,0.008727195,-0.008684894,0.001510046,0.398697396,-0.254308561,2.929702029,0.003421403,0.002307466,0.025555727,0.999664306,0.000000000,0.000000000,0.000000000,0.000000000,0.000000000,0.000000000,1.384219766,0.000000000,3.858651161
1772689632.455280066,0.016228000,0.004008000,0.054577000,0.027583300,0.021407770,0.032387170,0.998865330,0.056568000,0.040992000,0.065985000,0.000466648,-0.000227720,-0.000182226,0.080712749,-0.095874726,0.034734910,0.005023266,-0.001897698,1.000182716,0.002088012,-0.002103185,-0.002398180,0.000000000,0.000000000,0.000000000,0.000000000,0.016325957,0.003840682,0.054663593,0.028746266,-0.027753782,-0.000710767,0.009977043,-0.009025644,0.000460119,0.390094568,-0.248078464,2.923828481,0.003347879,0.002251007,0.025504822,0.999666354,0.000000000,0.000000000,0.000000000,0.000000000,0.000000000,0.000000000,1.384219766,0.000000000,3.858651161
1772689632.465279818,0.016196000,0.003958000,0.054676000,0.026821550,0.022375340,0.032116560,0.998873600,0.055099000,0.042991000,0.065468000,-0.000339686,-0.001670340,0.002518145,-0.007175150,0.024156169,-0.003423417,0.006077893,-0.003583177,1.001690171,-0.000053508,-0.001067250,0.000603555,0.000000000,0.000000000,0.000000000,0.000000000,0.016576174,0.003613528,0.054641541,0.028584064,-0.027530413,-0.000611648,0.010026019,-0.009026434,0.002050349,0.351932278,-0.211014365,2.950056868,0.003022757,0.001919886,0.025735415,0.999662200,0.000000000,0.000000000,0.000000000,0.000000000,0.000000000,0.000000000,1.384219766,0.000000000,3.858651161
1772689632.475279093,0.016255000,0.003975000,0.054594000,0.028019760,0.020988300,0.032480260,0.998859060,0.057417000,0.040119000,0.066164000,-0.000252836,-0.001637550,0.002205868,-0.049537506,0.081343503,-0.021477933,0.006423300,-0.003192724,0.997869137,-0.001122107,0.002426038,0.001255287,0.000000000,0.000000000,0.000000000,0.000000000,0.016577562,0.003637449,0.054612815,0.029444056,-0.028326015,-0.000518216,0.010621563,-0.008887150,-0.001791506,0.357320346,-0.215170540,2.952911142,0.003068778,0.001957430,0.025760110,0.999660786,0.000000000,0.000000000,0.000000000,0.000000000,0.000000000,0.000000000,1.384219766,0.000000000,3.858651161
1772689632.485279083,0.016204000,0.003943000,0.054700000,0.027078260,0.022221700,0.032074530,0.998871460,0.055600000,0.042669000,0.065386000,-0.000096950,-0.000491628,0.000633431,-0.045808678,0.075558643,-0.018487992,0.005892017,-0.002612266,0.998171732,0.000002566,0.004059034,-0.000772278,0.000000000,0.000000000,0.000000000,0.000000000,0.016490952,0.003706755,0.054637422,0.029931251,-0.028809867,-0.000509888,0.010548253,-0.008724403,-0.002844248,0.359897328,-0.218480907,2.955870223,0.003090463,0.001986967,0.025785790,0.999659542,0.000000000,0.000000000,0.000000000,0.000000000,0.000000000,0.000000000,1.384219766,0.000000000,3.858651161
1772689632.495279074,0.016196000,0.003915000,0.054723000,0.026166250,0.023550950,0.031908290,0.998870630,0.053858000,0.045394000,0.065090000,-0.000870922,0.000048096,0.000601807,-0.059686136,0.087045797,-0.026917320,0.004599143,-0.001734338,1.000574965,-0.000147669,0.003099191,-0.001645954,0.000000000,0.000000000,0.000000000,0.000000000,0.016494002,0.003674239,0.054672196,0.030399920,-0.029244248,-0.000586625,0.009038037,-0.007498502,0.000501600,0.359364761,-0.218736621,2.952229623,0.003085823,0.001988980,0.025754032,0.999660360,0.000000000,0.000000000,0.000000000,0.000000000,0.000000000,0.000000000,1.384219766,0.000000000,3.858651161
1772689632.505279541,0.016185000,0.003929000,0.054723000,0.025530250,0.024276880,0.031680720,0.998876960,0.052623000,0.046899000,0.064646000,-0.000622456,0.000584111,-0.000217677,-0.045115847,0.053750691,-0.022697509,0.004131781,-0.002026878,1.000954568,0.001581221,0.000485700,-0.000843631,0.000000000,0.000000000,0.000000000,0.000000000,0.016647660,0.003511215,0.054684494,0.031021289,-0.029812366,-0.000573948,0.008270121,-0.007770934,0.000635009,0.358940769,-0.218824740,2.948675521,0.003082166,0.001989558,0.025723032,0.999661233,0.000000000,0.000000000,0.000000000,0.000000000,0.000000000,0.000000000,1.384219766,0.000000000,3.858651161
