t,px,py,pz,qx,qy,qz,qw,roll,pitch,yaw,vx,vy,vz,wx_vicon,wy_vicon,wz_vicon,imu_acc_x,imu_acc_y,imu_acc_z,imu_gyro_x,imu_gyro_y,imu_gyro_z,motor_motor_m1,motor_motor_m2,motor_motor_m3,motor_motor_m4,est_stateEstimate_x,est_stateEstimate_y,est_stateEstimate_z,est_stateEstimate_vx,est_stateEstimate_vy,est_stateEstimate_vz,est_stateEstimate_ax,est_stateEstimate_ay,est_stateEstimate_az,att_stateEstimate_roll,att_stateEstimate_pitch,att_stateEstimate_yaw,att_stateEstimate_qx,att_stateEstimate_qy,att_stateEstimate_qz,att_stateEstimate_qw,sp_ctrltarget_x,sp_ctrltarget_y,sp_ctrltarget_z,sp_ctrltarget_yaw,pid_controller_roll,pid_controller_pitch,pid_controller_yaw,pid_controller_cmd_thrust,pwr_pm_vbat
1772689888.748127937,0.014854000,0.006246000,0.053890000,-0.001984970,0.004998170,0.011465240,0.999919810,-0.003855000,0.010041000,0.022912000,0.002612947,-0.002436250,-0.000949409,-0.015010801,-0.169678077,-0.002546677,0.009493947,-0.002588222,1.001783646,0.000149456,0.004004879,0.001624708,0.000000000,0.000000000,0.000000000,0.000000000,0.015102402,0.006214185,0.053842700,0.020479302,0.000948080,0.000340284,0.006370149,0.000795213,0.002038695,-0.175897024,0.166656333,0.888065133,-0.001523670,-0.001466202,0.007747495,0.999966741,0.000000000,0.000000000,0.000000000,0.000000000,0.000000000,0.000000000,0.520710468,0.000000000,4.180645466
1772689888.758129120,0.014854000,0.006247000,0.053916000,-0.001981810,0.003047390,0.011647000,0.999925560,-0.003892000,0.006141000,0.023283000,0.002074290,-0.001469768,-0.001476644,-0.006150140,-0.042686633,0.001160482,0.010824888,-0.003965621,0.999551153,0.002079322,-0.001133595,-0.000063890,0.000000000,0.000000000,0.000000000,0.000000000,0.015088454,0.006224093,0.053863977,0.020368409,0.001090478,0.000599751,0.007611566,-0.000407888,0.000096436,-0.175039619,0.165807750,0.888039411,-0.001516246,-0.001458739,0.007747293,0.999966755,0.000000000,0.000000000,0.000000000,0.000000000,0.000000000,0.000000000,0.520710468,0.000000000,4.180645466
1772689888.768130064,0.014914000,0.006204000,0.053847000,-0.002079630,0.004629830,0.011478270,0.999921240,-0.004053000,0.009307000,0.022938000,0.001537965,-0.000853261,-0.001580483,-0.000970395,0.044591676,0.000572402,0.012199424,-0.002496988,0.998471899,-0.001895157,-0.000195710,0.001154892,0.000000000,0.000000000,0.000000000,0.000000000,0.015093654,0.006220009,0.053859907,0.020438575,0.001030975,0.000609802,0.008782088,-0.000125754,-0.001558382,-0.174233700,0.166012115,0.887848535,-0.001509202,-0.001460465,0.007745635,0.999966800,0.000000000,0.000000000,0.000000000,0.000000000,0.000000000,0.000000000,0.520710468,0.000000000,4.180645466
1772689888.778131485,0.014919000,0.006202000,0.053826000,-0.002067420,0.005892610,0.011325610,0.999916360,-0.004001000,0.011831000,0.022628000,0.001015158,-0.000497925,-0.001358121,0.001305456,0.095203405,-0.002581122,0.012492346,-0.003053720,0.998332005,-0.001382867,0.003073096,0.002533108,0.000000000,0.000000000,0.000000000,0.000000000,0.015104693,0.006212596,0.053849231,0.020603206,0.000957487,0.000514866,0.009730016,0.000672895,-0.002055386,-0.174570810,0.166012761,0.887578370,-0.001512147,-0.001460490,0.007743273,0.999966800,0.000000000,0.000000000,0.000000000,0.000000000,0.000000000,0.000000000,0.520710468,0.000000000,4.180645466
1772689888.788131952,0.014869000,0.006235000,0.053893000,-0.001998720,0.003792140,0.011598950,0.999923540,-0.003909000,0.007630000,0.023184000,0.000517058,-0.000314954,-0.000906754,0.001530291,0.112189008,-0.006616826,0.012659546,-0.003862105,1.000243865,-0.001095653,0.003213123,0.001153105,0.000000000,0.000000000,0.000000000,0.000000000,0.015118644,0.006205774,0.053837463,0.020919615,0.000938468,0.000299480,0.009757109,-0.000027438,-0.000600888,-0.175425514,0.164473704,0.887360115,-0.001519712,-0.001447115,0.007741379,0.999966835,0.000000000,0.000000000,0.000000000,0.000000000,0.000000000,0.000000000,0.520710468,0.000000000,4.180645466
1772689888.798132896,0.014921000,0.006202000,0.053835000,-0.002005860,0.005132200,0.011568780,0.999917900,-0.003893000,0.010310000,0.023118000,0.000054852,-0.000215544,-0.000323579,0.000468270,0.098592658,-0.009814780,0.011232647,-0.003811688,1.001807782,-0.001030953,0.001038385,0.000350515,0.000000000,0.000000000,0.000000000,0.000000000,0.015126751,0.006204107,0.053831780,0.021279266,0.000893469,0.000177445,0.009272088,-0.001043091,0.002332761,-0.175295300,0.163046940,0.886608463,-0.001518682,-0.001434645,0.007734841,0.999966895,0.000000000,0.000000000,0.000000000,0.000000000,0.000000000,0.000000000,0.520710468,0.000000000,4.180645466
1772689888.808133602,0.014933000,0.006197000,0.053819000,-0.002069230,0.006277940,0.011343660,0.999913810,-0.003996000,0.012602000,0.022663000,-0.000782501,0.000314333,0.000863284,0.000333548,-0.001042909,-0.003272618,0.009785001,-0.003682533,1.001324421,-0.000896812,-0.000659532,0.000454122,0.000000000,0.000000000,0.000000000,0.000000000,0.015122980,0.006209190,0.053831729,0.021527200,0.000813101,0.000331217,0.007571961,-0.000526596,0.001508228,-0.175251318,0.162163186,0.886415505,-0.001518360,-0.001426928,0.007733169,0.999966919,0.000000000,0.000000000,0.000000000,0.000000000,0.000000000,0.000000000,0.520710468,0.000000000,4.180645466
1772689888.818134069,0.014921000,0.006193000,0.053827000,-0.002078870,0.007187610,0.011204790,0.999909230,-0.003997000,0.014421000,0.022382000,-0.000620780,0.000287548,0.000663823,-0.001567937,-0.038075340,-0.001040677,0.010324007,-0.004030879,1.001835461,-0.001589500,-0.002091340,-0.002081039,0.000000000,0.000000000,0.000000000,0.000000000,0.015094033,0.006230711,0.053862382,0.021465260,0.000849429,0.000553424,0.007583069,-0.000772708,0.001921826,-0.175371688,0.162725134,0.885772033,-0.001519381,-0.001431831,0.007727545,0.999966942,0.000000000,0.000000000,0.000000000,0.000000000,0.000000000,0.000000000,0.520710468,0.000000000,4.180645466
1772689888.828135014,0.014861000,0.006232000,0.053894000,-0.002088870,0.004558790,0.011480600,0.999921520,-0.004073000,0.009165000,0.022943000,-0.000469858,0.000275175,0.000267328,-0.003461345,-0.047285355,0.001393091,0.010788883,-0.002279628,1.001299701,-0.003340378,0.001081871,-0.000819217,0.000000000,0.000000000,0.000000000,0.000000000,0.015080566,0.006240989,0.053887680,0.021426736,0.000778180,0.000787385,0.007439232,0.000026674,0.001762574,-0.175535659,0.163067480,0.885040867,-0.001520798,-0.001434820,0.007721158,0.999966995,0.000000000,0.000000000,0.000000000,0.000000000,0.000000000,0.000000000,0.520710468,0.000000000,4.180645466
1772689888.838134766,0.014909000,0.006200000,0.053843000,-0.002014220,0.005768590,0.011328270,0.999917160,-0.003898000,0.011582000,0.022635000,-0.000230209,0.000091835,0.000250701,-0.004014452,-0.061376427,0.008024820,0.010916509,-0.002613660,1.000801184,-0.001336930,0.004580761,-0.001354568,0.000000000,0.000000000,0.000000000,0.000000000,0.015093071,0.006232236,0.053879964,0.021532887,0.000742649,0.000859924,0.008145748,0.000322179,0.000738083,-0.175404643,0.162490593,0.883969559,-0.001519707,-0.001429763,0.007711819,0.999967049,0.000000000,0.000000000,0.000000000,0.000000000,0.000000000,0.000000000,0.520710468,0.000000000,4.180645466
1772689888.848135710,0.014871000,0.006234000,0.053886000,-0.002059870,0.003704980,0.011561830,0.999924170,-0.004034000,0.007457000,0.023109000,0.000710090,-0.000455465,-0.000895896,-0.001660299,0.019362341,0.003296550,0.012625503,-0.002327761,0.999913191,0.001557008,-0.001645796,-0.000483768,0.000000000,0.000000000,0.000000000,0.000000000,0.015108458,0.006222120,0.053863051,0.021670360,0.000733592,0.000852433,0.009479674,0.000227155,-0.000098032,-0.174593415,0.162118720,0.882126044,-0.001512676,-0.001426439,0.007695747,0.999967211,0.000000000,0.000000000,0.000000000,0.000000000,0.000000000,0.000000000,0.520710468,0.000000000,4.180645466
1772689888.858136415,0.014915000,0.006205000,0.053830000,-0.002119170,0.005324290,0.011456860,0.999917950,-0.004116000,0.010696000,0.022893000,0.001487599,-0.000904870,-0.001834389,-0.000708595,0.148600300,-0.014062080,0.011203291,-0.001949283,1.000996236,0.001179039,-0.000362150,-0.000494855,0.000000000,0.000000000,0.000000000,0.000000000,0.015106972,0.006224002,0.053865524,0.021846157,0.000770170,0.000852057,0.008826505,0.000895940,0.000809506,-0.173313402,0.163779587,0.880694914,-0.001501412,-0.001440827,0.007683252,0.999967275,0.000000000,0.000000000,0.000000000,0.000000000,0.000000000,0.000000000,0.520710468,0.000000000,4.180645466
1772689888.868136406,0.014929000,0.006187000,0.053812000,-0.002173630,0.006557630,0.011354520,0.999911670,-0.004198000,0.013164000,0.022682000,0.000620450,-0.000514377,-0.000913922,0.001274228,0.167713700,-0.019338953,0.009203460,-0.002623910,1.001012936,0.001964725,0.002147016,0.002462393,0.000000000,0.000000000,0.000000000,0.000000000,0.015108019,0.006225007,0.053868454,0.022045560,0.000827401,0.000871182,0.006976522,0.000447392,0.001493492,-0.172814711,0.163395690,0.879425321,-0.001497102,-0.001437427,0.007672184,0.999967390,0.000000000,0.000000000,0.000000000,0.000000000,0.000000000,0.000000000,0.520710468,0.000000000,4.180645466
1772689888.878137112,0.014932000,0.006182000,0.053820000,-0.002110420,0.007289520,0.011245810,0.999907970,-0.004057000,0.014626000,0.022463000,-0.000528032,0.000211213,0.000419259,-0.000178545,0.075793025,-0.011451963,0.011555480,-0.003322420,1.000806552,-0.002006503,0.001940138,0.002655062,0.000000000,0.000000000,0.000000000,0.000000000,0.015124954,0.006216322,0.053851402,0.022123424,0.000833081,0.000880165,0.007501662,-0.000259830,0.001027454,-0.172353928,0.167508455,0.880181062,-0.001492793,-0.001473296,0.007678732,0.999967452,0.000000000,0.000000000,0.000000000,0.000000000,0.000000000,0.000000000,0.520710468,0.000000000,4.180645466
1772689888.888137817,0.014912000,0.006204000,0.053820000,-0.002044480,0.007704260,0.011103380,0.999906590,-0.003918000,0.015453000,0.022178000,-0.000193537,0.000044422,0.000216593,0.001414124,0.048785162,-0.008311087,0.011210281,-0.004117590,1.000163876,0.000002515,0.001597111,0.003198059,0.000000000,0.000000000,0.000000000,0.000000000,0.016209607,0.006261180,0.053889625,0.025911483,0.001476318,0.001165466,0.008268999,-0.000438530,0.000143862,-0.170715737,0.195367327,0.885414135,-0.001476546,-0.001716360,0.007724054,0.999966783,0.000000000,0.000000000,0.000000000,0.000000000,0.000000000,0.000000000,0.520710468,0.000000000,4.180645466
1772689888.898137808,0.014918000,0.006197000,0.053827000,-0.002122610,0.007963520,0.011041610,0.999905080,-0.004069000,0.015973000,0.022052000,-0.000934122,0.000749423,0.001267626,-0.001096372,-0.087530124,0.004724084,0.009864175,-0.004953377,0.999392146,0.003956185,0.001372263,0.004080082,0.000000000,0.000000000,0.000000000,0.000000000,0.015329441,0.006219765,0.053849578,0.020700917,0.001247102,0.000987086,0.006295046,-0.001214128,-0.000347279,-0.169329810,0.209688226,0.893080340,-0.001463372,-0.001841334,0.007790784,0.999966063,0.000000000,0.000000000,0.000000000,0.000000000,0.000000000,0.000000000,0.520710468,0.000000000,4.180645466
1772689888.908138752,0.014861000,0.006230000,0.053891000,-0.002093630,0.005234550,0.011405320,0.999919060,-0.004068000,0.010516000,0.022790000,-0.000587235,0.000465643,0.000899334,-0.002605467,-0.136619802,0.011611725,0.010275755,-0.002811140,0.999570203,-0.000572882,0.002109398,-0.000963092,0.000000000,0.000000000,0.000000000,0.000000000,0.015004362,0.006199502,0.053831709,0.018927700,0.001022881,0.000885090,0.006419217,-0.000463042,-0.000098047,-0.168798874,0.206097851,0.899721884,-0.001458877,-0.001810052,0.007848796,0.999965437,0.000000000,0.000000000,0.000000000,0.000000000,0.000000000,0.000000000,0.520710468,0.000000000,4.180645466
1772689888.918139696,0.014916000,0.006201000,0.053832000,-0.002176340,0.005999430,0.011336950,0.999915370,-0.004217000,0.012047000,0.022649000,-0.000089640,0.000148494,0.000350869,-0.001680174,-0.126253985,0.015045011,0.011374620,-0.002335610,0.998909094,-0.001260714,0.001471156,0.001049330,0.000000000,0.000000000,0.000000000,0.000000000,0.015054660,0.006201489,0.053830319,0.019340406,0.000964760,0.000840900,0.007379719,0.000921814,-0.000059536,-0.169098199,0.205623272,0.898595588,-0.001461539,-0.001805917,0.007838970,0.999965533,0.000000000,0.000000000,0.000000000,0.000000000,0.000000000,0.000000000,0.520710468,0.000000000,4.181049127
1772689888.928140402,0.014929000,0.006193000,0.053823000,-0.002090320,0.006553190,0.011263620,0.999912900,-0.004033000,0.013153000,0.022502000,0.000754803,-0.000263113,-0.000640961,0.002831130,-0.034485203,0.006198370,0.010786474,-0.002509681,0.999887872,0.000795632,0.000820532,0.001860392,0.000000000,0.000000000,0.000000000,0.000000000,0.015080167,0.006206068,0.053830665,0.019709931,0.001017612,0.000763476,0.007449161,0.000920301,-0.000747412,-0.169237064,0.206223419,0.897948521,-0.001462720,-0.001811155,0.007833312,0.999965598,0.000000000,0.000000000,0.000000000,0.000000000,0.000000000,0.000000000,0.520710468,0.000000000,4.181470352
1772689888.938141108,0.014873000,0.006232000,0.053887000,-0.002092670,0.004018090,0.011429530,0.999924420,-0.004093000,0.008083000,0.022843000,0.000763621,-0.000116484,-0.000957547,0.006592242,0.040693626,-0.003964313,0.008480374,-0.003884041,0.999095686,-0.002979270,0.001298343,0.000273908,0.000000000,0.000000000,0.000000000,0.000000000,0.015083705,0.006214239,0.053846870,0.019969818,0.001093517,0.000753356,0.006052428,-0.000487214,-0.000445618,-0.168766876,0.206128714,0.897187354,-0.001458636,-0.001810287,0.007826679,0.999965658,0.000000000,0.000000000,0.000000000,0.000000000,0.000000000,0.000000000,0.520710468,0.000000000,4.181891577
1772689888.948142052,0.014913000,0.006200000,0.053834000,-0.002037310,0.005327410,0.011402750,0.999918720,-0.003953000,0.010701000,0.022785000,0.000118737,0.000214612,-0.000231938,0.008730999,0.043394446,-0.004170623,0.008705714,-0.003706072,0.998160004,-0.003489357,0.000073447,-0.000517680,0.000000000,0.000000000,0.000000000,0.000000000,0.015082886,0.006220914,0.053859228,0.020008871,0.001062551,0.000711400,0.004561869,-0.001120421,-0.001880996,-0.170463585,0.205191427,0.896250217,-0.001473521,-0.001802212,0.007818487,0.999965718,0.000000000,0.000000000,0.000000000,0.000000000,0.000000000,0.000000000,0.520710468,0.000000000,4.182312812
1772689888.958142281,0.014922000,0.006212000,0.053826000,-0.001999320,0.006171740,0.011367880,0.999914340,-0.003858000,0.012388000,0.022713000,-0.001441060,0.000926974,0.001463261,0.008151294,-0.096285248,0.010303280,0.010512085,-0.002562343,0.997204986,-0.003544122,0.001343671,0.001195807,0.000000000,0.000000000,0.000000000,0.000000000,0.015101909,0.006213122,0.053844905,0.020023378,0.000918910,0.000440769,0.006381625,0.000458428,-0.002167387,-0.171587127,0.205008070,0.895124877,-0.001483355,-0.001800674,0.007808651,0.999965731,0.000000000,0.000000000,0.000000000,0.000000000,0.000000000,0.000000000,0.520710468,0.000000000,4.182734017
1772689888.968143463,0.014928000,0.006206000,0.053816000,-0.001984970,0.006764390,0.011200310,0.999912420,-0.003818000,0.013572000,0.022376000,-0.001334910,0.000770012,0.001318574,0.007297629,-0.164664066,0.018415091,0.012935092,-0.002551586,0.999008969,0.001774272,-0.003465235,0.002736541,0.000000000,0.000000000,0.000000000,0.000000000,0.015096483,0.006219311,0.053854935,0.020048267,0.000937429,0.000225821,0.008546856,0.000584380,-0.001483042,-0.171807743,0.205028844,0.894150169,-0.001485295,-0.001800858,0.007800142,0.999965847,0.000000000,0.000000000,0.000000000,0.000000000,0.000000000,0.000000000,0.520710468,0.000000000,4.183155262
1772689888.978143930,0.014870000,0.006236000,0.053883000,-0.001936200,0.004346720,0.011470000,0.999922900,-0.003773000,0.008737000,0.022924000,-0.000949098,0.000392999,0.000963627,0.004427255,-0.174980821,0.015911310,0.012590973,-0.002412233,0.999031058,0.002119053,-0.001189371,0.002443776,0.000000000,0.000000000,0.000000000,0.000000000,0.015090524,0.006224111,0.053862185,0.020119286,0.000978815,0.000139390,0.009082248,0.000195057,-0.000871269,-0.170701860,0.206284083,0.893156449,-0.001475574,-0.001811723,0.007791471,0.999965865,0.000000000,0.000000000,0.000000000,0.000000000,0.000000000,0.000000000,0.520710468,0.000000000,4.183576477
1772689888.988144636,0.014847000,0.006245000,0.053907000,-0.001844340,0.002454940,0.011698520,0.999926860,-0.003631000,0.004953000,0.023389000,-0.000608757,0.000136335,0.000466401,0.000400852,-0.152355343,0.008697483,0.011963165,-0.002242570,0.998830709,0.001872124,0.001906447,0.001982421,0.000000000,0.000000000,0.000000000,0.000000000,0.015093938,0.006221653,0.053857497,0.020230980,0.000979696,0.000097705,0.008616247,0.000578769,-0.001117800,-0.170470756,0.205415111,0.892881507,-0.001473621,-0.001804121,0.007789087,0.999965884,0.000000000,0.000000000,0.000000000,0.000000000,0.000000000,0.000000000,0.520710468,0.000000000,4.183997702
1772689888.998145103,0.014849000,0.006239000,0.053901000,-0.001888460,0.001056720,0.011767310,0.999928420,-0.003752000,0.002158000,0.023531000,0.000706030,-0.000557187,-0.001237733,0.000311851,-0.002128747,-0.006190389,0.011335373,-0.002072912,0.998630364,0.001625201,0.005002191,0.001521077,0.000000000,0.000000000,0.000000000,0.000000000,0.015097352,0.006219195,0.053852808,0.020342672,0.000980577,0.000056021,0.008150258,0.000962472,-0.001364324,-0.170239658,0.204546160,0.892606572,-0.001471668,-0.001796519,0.007786703,0.999965902,0.000000000,0.000000000,0.000000000,0.000000000,0.000000000,0.000000000,0.520710468,0.000000000,4.184418917
1772689889.008145809,0.014907000,0.006213000,0.053832000,-0.001860100,0.003343510,0.011570430,0.999925740,-0.003643000,0.006730000,0.023129000,0.001708446,-0.000981127,-0.002269945,0.000677441,0.169595105,-0.023909497,0.011267623,-0.002137854,0.999256512,0.000013382,0.004121857,-0.000289849,0.000000000,0.000000000,0.000000000,0.000000000,0.015102819,0.006218017,0.053846319,0.020481452,0.000997178,-0.000017419,0.007684257,0.001346184,-0.001610855,-0.170008555,0.203677188,0.892331630,-0.001469715,-0.001788917,0.007784318,0.999965982,0.000000000,0.000000000,0.000000000,0.000000000,0.000000000,0.000000000,0.520710468,0.000000000,4.184840142
1772689889.018146515,0.014919000,0.006200000,0.053818000,-0.001997920,0.005103670,0.011229980,0.999921920,-0.003881000,0.010252000,0.022441000,0.002076155,-0.001228973,-0.002323593,-0.000193018,0.287397071,-0.035482537,0.010917408,-0.002547427,1.000377829,-0.000060892,0.000157650,-0.001076252,0.000000000,0.000000000,0.000000000,0.000000000,0.015112945,0.006219307,0.053835507,0.020689045,0.001050952,-0.000150595,0.007776238,0.000642837,0.000106431,-0.170454663,0.202543826,0.891479063,-0.001473698,-0.001779046,0.007776886,0.999966057,0.000000000,0.000000000,0.000000000,0.000000000,0.000000000,0.000000000,0.520710468,0.000000000,4.185261367
1772689889.028147221,0.014924000,0.006201000,0.053802000,-0.001916600,0.006277050,0.011134160,0.999916470,-0.003693000,0.012596000,0.022246000,0.001660295,-0.001108333,-0.001586621,-0.002821959,0.304324831,-0.034190647,0.010053884,-0.003295189,1.000747201,0.002579118,-0.003249803,0.000525268,0.000000000,0.000000000,0.000000000,0.000000000,0.015117473,0.006220169,0.053829882,0.020885541,0.001105650,-0.000171480,0.006295982,0.000213615,0.000484632,-0.169686808,0.202596483,0.890935295,-0.001467002,-0.001779446,0.007772153,0.999966115,0.000000000,0.000000000,0.000000000,0.000000000,0.000000000,0.000000000,0.520710468,0.000000000,4.185682591
1772689889.038147926,0.014927000,0.006203000,0.053806000,-0.001904530,0.007143090,0.011065080,0.999911450,-0.003651000,0.014328000,0.022105000,0.000455018,-0.000370992,-0.000055085,-0.004118554,0.211042950,-0.019374131,0.009771868,-0.004236842,1.000007434,0.004484259,-0.005077445,0.001964628,0.000000000,0.000000000,0.000000000,0.000000000,0.015089461,0.006236052,0.053862489,0.020792009,0.001145249,0.000072996,0.005164363,-0.000808003,0.000894726,-0.169699156,0.201689938,0.890339478,-0.001467180,-0.001771529,0.007766965,0.999966190,0.000000000,0.000000000,0.000000000,0.000000000,0.000000000,0.000000000,0.520710468,0.000000000,4.185653192
1772689889.048149109,0.014931000,0.006186000,0.053819000,-0.001970540,0.007744320,0.010990630,0.999907670,-0.003771000,0.015531000,0.021953000,-0.001941704,0.001249407,0.001581551,-0.003711809,0.016781093,0.009368381,0.009431743,-0.004040334,1.000593204,-0.000553308,0.002306723,0.002304261,0.000000000,0.000000000,0.000000000,0.000000000,0.015067134,0.006245543,0.053886364,0.020593135,0.001076157,0.000235698,0.006073286,-0.001136680,-0.001044250,-0.168044949,0.201872249,0.889779328,-0.001452742,-0.001773000,0.007762100,0.999966252,0.000000000,0.000000000,0.000000000,0.000000000,0.000000000,0.000000000,0.520710468,0.000000000,4.185018472
1772689889.058149099,0.014931000,0.006190000,0.053824000,-0.002041090,0.007944350,0.011046790,0.999905340,-0.003907000,0.015933000,0.022064000,-0.001276736,0.000837800,0.002071183,-0.002658700,-0.128911461,0.019939765,0.008771158,-0.003142487,1.000388611,-0.000005605,0.001246033,0.002012024,0.000000000,0.000000000,0.000000000,0.000000000,0.015070066,0.006241733,0.053880058,0.020519660,0.000935347,0.000204720,0.005221157,0.000040785,0.000732999,-0.169047290,0.199273360,0.888756353,-0.001461680,-0.001750376,0.007753192,0.999966313,0.000000000,0.000000000,0.000000000,0.000000000,0.000000000,0.000000000,0.520710468,0.000000000,4.184383829
1772689889.068150282,0.014928000,0.006195000,0.053812000,-0.002085190,0.008116870,0.011015820,0.999904210,-0.003992000,0.016279000,0.022000000,-0.000217448,0.000139656,0.001854415,-0.003016652,-0.206408514,0.014535606,0.009237314,-0.003933340,1.000191651,-0.000377244,0.002238865,0.000474092,0.000000000,0.000000000,0.000000000,0.000000000,0.015092694,0.006228480,0.053849778,0.020539519,0.000826837,0.000083934,0.005417182,-0.000318433,-0.000231844,-0.168652831,0.199725891,0.887744342,-0.001458223,-0.001754286,0.007744361,0.999966377,0.000000000,0.000000000,0.000000000,0.000000000,0.000000000,0.000000000,0.520710468,0.000000000,4.183749110
1772689889.078150749,0.014858000,0.006248000,0.053892000,-0.001984580,0.005397780,0.011370090,0.999918820,-0.003846000,0.010840000,0.022720000,0.000756240,-0.000441985,0.000929286,0.000729207,-0.201291088,0.002825889,0.010225869,-0.004990165,0.999510419,-0.002075235,0.003039752,-0.000439581,0.000000000,0.000000000,0.000000000,0.000000000,0.015113319,0.006214632,0.053820151,0.020564579,0.000747312,-0.000059764,0.006846689,-0.002053825,-0.000742476,-0.169303892,0.197889897,0.885406628,-0.001464064,-0.001738278,0.007723975,0.999966554,0.000000000,0.000000000,0.000000000,0.000000000,0.000000000,0.000000000,0.520710468,0.000000000,4.183114436
1772689889.088151455,0.014842000,0.006254000,0.053899000,-0.001897630,0.003284230,0.011570890,0.999925860,-0.003719000,0.006612000,0.023130000,0.001422394,-0.000885777,-0.000057455,0.001288666,-0.117490974,-0.010407271,0.009466426,-0.004460042,0.998206736,-0.001156476,-0.000591109,0.000470371,0.000000000,0.000000000,0.000000000,0.000000000,0.015122653,0.006208932,0.053813253,0.020688321,0.000494712,-0.000123308,0.006246078,-0.001469081,-0.002056826,-0.169749934,0.197657013,0.884289131,-0.001467989,-0.001736262,0.007714219,0.999966660,0.000000000,0.000000000,0.000000000,0.000000000,0.000000000,0.000000000,0.520710468,0.000000000,4.182479748
1772689889.098152637,0.015021000,0.006127000,0.053861000,-0.001990950,0.003957750,0.010996480,0.999929720,-0.003895000,0.007959000,0.021978000,0.001409205,-0.001033921,-0.000918622,0.003176929,0.022520286,-0.016494721,0.009187860,-0.004130326,1.000426226,-0.001881694,0.003919091,-0.001555920,0.000000000,0.000000000,0.000000000,0.000000000,0.015129167,0.006199164,0.053816401,0.020792488,0.000280819,-0.000320464,0.005864475,-0.000854155,-0.000203827,-0.170030500,0.196227300,0.883423063,-0.001470547,-0.001723793,0.007706677,0.999966736,0.000000000,0.000000000,0.000000000,0.000000000,0.000000000,0.000000000,0.520710468,0.000000000,4.181845029
1772689889.108153105,0.014962000,0.006176000,0.053828000,-0.001974710,0.005414150,0.010917510,0.999923790,-0.003831000,0.010871000,0.021815000,0.000953993,-0.000555303,-0.001609191,0.002708137,0.149514510,-0.015294861,0.010691147,-0.001823363,0.999456844,-0.000313382,-0.000264966,0.001878748,0.000000000,0.000000000,0.000000000,0.000000000,0.015130973,0.006196905,0.053814461,0.020813935,0.000146483,-0.000334242,0.006827317,0.000311022,-0.000146049,-0.170322180,0.194650878,0.883105902,-0.001473203,-0.001710052,0.007703925,0.999966800,0.000000000,0.000000000,0.000000000,0.000000000,0.000000000,0.000000000,0.520710468,0.000000000,4.181210355
1772689889.118153811,0.014939000,0.006188000,0.053824000,-0.001976610,0.006328660,0.010902220,0.999918590,-0.003815000,0.012700000,0.021781000,-0.000182272,0.000282692,-0.001934751,0.003687507,0.218353873,-0.006619952,0.010609290,-0.002701529,1.000253522,-0.002334768,0.000134270,0.001408349,0.000000000,0.000000000,0.000000000,0.000000000,0.015101578,0.006219027,0.053845405,0.020789019,0.000283498,-0.000206491,0.006280647,-0.000462143,-0.000175083,-0.171776027,0.193159876,0.882684869,-0.001485996,-0.001697133,0.007700249,0.999966814,0.000000000,0.000000000,0.000000000,0.000000000,0.000000000,0.000000000,0.520710468,0.000000000,4.180709045
1772689889.128154516,0.014927000,0.006197000,0.053824000,-0.001985740,0.007163670,0.011031670,0.999911520,-0.003813000,0.014370000,0.022037000,-0.001515511,0.001076964,-0.000976446,0.007057615,0.166380360,0.010399575,0.010598524,-0.003231795,1.000971865,-0.003797783,0.000334066,0.000871022,0.000000000,0.000000000,0.000000000,0.000000000,0.015072776,0.006238062,0.053872102,0.020638486,0.000300376,-0.000091312,0.006899460,0.000047780,0.000791966,-0.173976603,0.191462213,0.881623669,-0.001505329,-0.001682453,0.007690979,0.999966874,0.000000000,0.000000000,0.000000000,0.000000000,0.000000000,0.000000000,0.520710468,0.000000000,4.181287169
1772689889.138155460,0.014911000,0.006211000,0.053817000,-0.001850350,0.007837500,0.011189250,0.999904970,-0.003525000,0.015716000,0.022352000,-0.001445780,0.001016537,-0.000354831,0.005263093,0.075431584,0.018158659,0.011280070,-0.001370696,1.001008191,-0.001091317,-0.000449476,0.000292690,0.000000000,0.000000000,0.000000000,0.000000000,0.015135971,0.006192014,0.053869018,0.020899322,0.000085719,-0.000030346,0.008219551,0.001750165,0.001404984,-0.174554614,0.191048474,0.880853493,-0.001510412,-0.001678871,0.007684255,0.999966933,0.000000000,0.000000000,0.000000000,0.000000000,0.000000000,0.000000000,0.520710468,0.000000000,4.181865306
1772689889.148155928,0.014922000,0.006210000,0.053807000,-0.001915670,0.007679130,0.011149360,0.999906520,-0.003660000,0.015400000,0.022272000,0.000497420,-0.000419842,0.000036691,0.002055460,0.021421907,0.008135621,0.012681193,-0.002466910,1.000019283,-0.000827510,0.004200383,0.002795265,0.000000000,0.000000000,0.000000000,0.000000000,0.015157073,0.006180641,0.053847833,0.021132082,0.000202624,0.000009086,0.008639325,0.001157898,0.000551235,-0.174000588,0.190200632,0.880835154,-0.001505634,-0.001671435,0.007684114,0.999966956,0.000000000,0.000000000,0.000000000,0.000000000,0.000000000,0.000000000,0.520710468,0.000000000,4.182443416
1772689889.158156633,0.014917000,0.006199000,0.053800000,-0.001855700,0.007857420,0.011198780,0.999904700,-0.003535000,0.015756000,0.022371000,0.000517640,-0.000445209,0.000461972,0.003530166,0.004542782,0.001446234,0.010516440,-0.002974066,0.999468818,-0.001876809,0.002328213,-0.003608078,0.000000000,0.000000000,0.000000000,0.000000000,0.015148710,0.006188584,0.053833185,0.021484223,0.000366955,-0.000016043,0.007732404,0.000012091,-0.001073959,-0.174151049,0.188312892,0.880030880,-0.001507085,-0.001654962,0.007677119,0.999967018,0.000000000,0.000000000,0.000000000,0.000000000,0.000000000,0.000000000,0.520710468,0.000000000,4.183021540
1772689889.168157101,0.014940000,0.006182000,0.053813000,-0.001874530,0.007815240,0.011143200,0.999905610,-0.003575000,0.015671000,0.022260000,0.000239552,-0.000281468,0.000647623,0.004219871,0.001747335,-0.003163947,0.010865246,-0.004774784,0.998798760,-0.001218487,0.004194125,0.001409827,0.000000000,0.000000000,0.000000000,0.000000000,0.015136822,0.006200354,0.053824876,0.021597676,0.000424400,-0.000131747,0.007179484,-0.000622234,-0.000870322,-0.174337205,0.187079486,0.877712213,-0.001508826,-0.001644181,0.007656899,0.999967169,0.000000000,0.000000000,0.000000000,0.000000000,0.000000000,0.000000000,0.520710468,0.000000000,4.183599650
1772689889.178158283,0.014935000,0.006200000,0.053825000,-0.001952930,0.007756170,0.011121870,0.999906160,-0.003733000,0.015555000,0.022216000,-0.000093136,0.000008527,0.000527741,0.001441142,0.005925354,-0.002579807,0.010906660,-0.001401599,0.999897436,0.002787057,-0.001525551,0.000510257,0.000000000,0.000000000,0.000000000,0.000000000,0.015133250,0.006208197,0.053815466,0.021705201,0.000346211,-0.000266003,0.007682015,0.000253030,-0.000468177,-0.173646038,0.186038549,0.876385648,-0.001502883,-0.001635033,0.007645347,0.999967288,0.000000000,0.000000000,0.000000000,0.000000000,0.000000000,0.000000000,0.520710468,0.000000000,4.184177801
1772689889.188159466,0.014925000,0.006193000,0.053841000,-0.001802200,0.007856580,0.011164840,0.999905180,-0.003429000,0.015753000,0.022304000,-0.000467042,0.000378042,0.000060349,0.000033700,0.011656093,-0.001830106,0.011043496,-0.003814357,1.001608520,0.005406722,-0.003066673,0.000359615,0.000000000,0.000000000,0.000000000,0.000000000,0.015131934,0.006206947,0.053807555,0.021826903,0.000402668,-0.000325083,0.007401687,-0.000032932,0.001184538,-0.172279643,0.186124633,0.875476559,-0.001490967,-0.001635682,0.007637432,0.999967339,0.000000000,0.000000000,0.000000000,0.000000000,0.000000000,0.000000000,0.520710468,0.000000000,4.184755953
1772689889.198159933,0.014920000,0.006200000,0.053834000,-0.001759940,0.008153660,0.011131660,0.999903250,-0.003338000,0.016346000,0.022237000,-0.000470635,0.000409975,-0.000371302,-0.002039863,-0.001546497,-0.002093517,0.010660299,-0.003391786,0.999738653,-0.000670380,-0.002405990,0.000200823,0.000000000,0.000000000,0.000000000,0.000000000,0.015138943,0.006199379,0.053806871,0.021984075,0.000372556,-0.000219124,0.007402761,-0.000463034,0.000846325,-0.171150938,0.186582987,0.875032400,-0.001481093,-0.001639600,0.007633567,0.999967402,0.000000000,0.000000000,0.000000000,0.000000000,0.000000000,0.000000000,0.520710468,0.000000000,4.185334063
1772689889.208160877,0.014909000,0.006211000,0.053808000,-0.001867790,0.008035970,0.011138500,0.999903930,-0.003557000,0.016113000,0.022250000,-0.000238853,0.000071032,-0.000474617,-0.000578690,-0.010082556,-0.000825369,0.011975394,-0.003397273,0.999232397,-0.003249337,0.000833744,0.000642345,0.000000000,0.000000000,0.000000000,0.000000000,0.015145739,0.006198481,0.053813616,0.022121134,0.000317015,-0.000112200,0.008508662,0.000169166,-0.000472466,-0.172120697,0.186756682,0.874313024,-0.001489554,-0.001641171,0.007627272,0.999967456,0.000000000,0.000000000,0.000000000,0.000000000,0.000000000,0.000000000,0.520710468,0.000000000,4.185912200
1772689889.218161106,0.014919000,0.006203000,0.053809000,-0.001964640,0.007788360,0.011129440,0.999905800,-0.003756000,0.015620000,0.022231000,0.000549650,-0.000472228,-0.000439635,-0.001085609,0.017424056,-0.002039322,0.011442262,-0.003572321,0.999708006,-0.003488684,-0.001585638,-0.000535387,0.000000000,0.000000000,0.000000000,0.000000000,0.015144508,0.006197902,0.053828177,0.022376223,0.000287447,-0.000091566,0.008132654,-0.000514644,-0.000620918,-0.172905087,0.187100911,0.872930549,-0.001496396,-0.001644209,0.007615193,0.999967497,0.000000000,0.000000000,0.000000000,0.000000000,0.000000000,0.000000000,0.520710468,0.000000000,4.185109021
1772689889.228161573,0.014918000,0.006202000,0.053812000,-0.001897190,0.007776470,0.011085910,0.999906510,-0.003622000,0.015594000,0.022145000,-0.000112288,0.000091408,0.000762009,-0.000989444,-0.026652242,0.003884876,0.010395578,-0.002920519,0.999363078,0.002030646,-0.003182563,0.000021974,0.000000000,0.000000000,0.000000000,0.000000000,0.015140675,0.006201360,0.053828809,0.022575888,0.000243613,-0.000106823,0.006963830,-0.000256712,-0.000917437,-0.171781870,0.186969662,0.871436129,-0.001486624,-0.001642970,0.007602170,0.999967636,0.000000000,0.000000000,0.000000000,0.000000000,0.000000000,0.000000000,0.520710468,0.000000000,4.184276907
1772689889.238162518,0.014924000,0.006194000,0.053828000,-0.001814200,0.007572890,0.011164730,0.999907350,-0.003459000,0.015185000,0.022304000,-0.000366505,0.000172948,0.000816648,0.001007280,-0.041541672,0.007050810,0.011053159,-0.002048775,1.000288492,-0.000428282,-0.000394655,-0.002547362,0.000000000,0.000000000,0.000000000,0.000000000,0.015136015,0.006206664,0.053816537,0.022605937,0.000258635,-0.000238721,0.008533465,0.001093601,0.000924904,-0.170391084,0.188080824,0.869517333,-0.001474442,-0.001652550,0.007585431,0.999967779,0.000000000,0.000000000,0.000000000,0.000000000,0.000000000,0.000000000,0.520710468,0.000000000,4.183444755
1772689889.248163223,0.014928000,0.006193000,0.053837000,-0.001824530,0.007697460,0.011179060,0.999906220,-0.003477000,0.015435000,0.022332000,-0.001171246,0.000709954,0.001277824,0.000017003,-0.111232794,0.016078952,0.009054472,-0.004682221,0.999769023,-0.002661191,0.000155201,-0.000504582,0.000000000,0.000000000,0.000000000,0.000000000,0.015119924,0.006205111,0.053817973,0.022367485,0.000255132,-0.000226089,0.006488287,-0.000440239,-0.000231585,-0.172232920,0.199020262,0.873229477,-0.001489732,-0.001748182,0.007617653,0.999968017,0.000000000,0.000000000,0.000000000,0.000000000,0.000000000,0.000000000,0.520710468,0.000000000,4.182612622
1772689889.258164406,0.014914000,0.006205000,0.053837000,-0.001881340,0.007787980,0.011244200,0.999904680,-0.003588000,0.015617000,0.022462000,-0.001008767,0.000671223,0.000606367,-0.002928066,-0.142664357,0.017093896,0.009290939,-0.003961190,1.001237936,-0.000869380,0.004145891,-0.000109195,0.000000000,0.000000000,0.000000000,0.000000000,0.015077600,0.006203031,0.053831998,0.021624194,0.000155900,-0.000210959,0.005800354,-0.001454507,0.001460196,-0.173418220,0.201884848,0.874331544,-0.001499869,-0.001773272,0.007627214,0.999967187,0.000000000,0.000000000,0.000000000,0.000000000,0.000000000,0.000000000,0.520710468,0.000000000,4.181780449
1772689889.268165112,0.014846000,0.006249000,0.053887000,-0.001852800,0.004840840,0.011468990,0.999920790,-0.003594000,0.009724000,0.022921000,-0.001118860,0.000678992,0.000666853,-0.004443408,-0.192956729,0.018991966,0.009202362,-0.003239866,1.000474742,-0.000687084,0.001169886,-0.001550368,0.000000000,0.000000000,0.000000000,0.000000000,0.015074991,0.006224013,0.053851903,0.021626455,0.000073239,-0.000008620,0.006186282,0.000925978,0.001102052,-0.174253418,0.199823582,0.872682928,-0.001507319,-0.001755319,0.007612842,0.999967300,0.000000000,0.000000000,0.000000000,0.000000000,0.000000000,0.000000000,0.520710468,0.000000000,4.180948316
1772689889.278166056,0.014903000,0.006209000,0.053812000,-0.001939890,0.005659140,0.011384040,0.999917300,-0.003751000,0.011362000,0.022748000,-0.000665318,0.000330746,0.000687927,-0.003003789,-0.190682558,0.014921923,0.009711213,-0.002375123,1.000135681,0.001284961,0.000230936,0.002780872,0.000000000,0.000000000,0.000000000,0.000000000,0.015086567,0.006222284,0.053849412,0.021614445,0.000063920,0.000080479,0.005979659,-0.000076166,-0.000730355,-0.175161536,0.200144932,0.871913784,-0.001515235,-0.001758173,0.007606112,0.999967388,0.000000000,0.000000000,0.000000000,0.000000000,0.000000000,0.000000000,0.520710468,0.000000000,4.180645466
1772689889.288166285,0.014861000,0.006234000,0.053891000,-0.001871410,0.003229450,0.011671790,0.999924920,-0.003667000,0.006502000,0.023332000,0.000627326,-0.000495420,-0.000045412,0.000826574,-0.095305706,0.003754460,0.009169452,-0.003285139,1.001003351,-0.001893406,0.006651173,0.001052640,0.000000000,0.000000000,0.000000000,0.000000000,0.015096280,0.006218367,0.053854784,0.021598901,0.000102970,0.000084695,0.006075572,0.000547136,0.000792619,-0.175495240,0.199783637,0.872295635,-0.001518165,-0.001755047,0.007609445,0.999967342,0.000000000,0.000000000,0.000000000,0.000000000,0.000000000,0.000000000,0.520710468,0.000000000,4.180645466
1772689889.298166752,0.014915000,0.006201000,0.053836000,-0.001830220,0.004498740,0.011429710,0.999922880,-0.003557000,0.009039000,0.022844000,0.000674952,-0.000529586,0.000037371,0.003380506,-0.023127085,-0.000340155,0.008833588,-0.004468837,0.999088330,-0.001252593,0.001584954,0.000107853,0.000000000,0.000000000,0.000000000,0.000000000,0.015088518,0.006222242,0.053869924,0.021481939,0.000151044,0.000210121,0.005699138,-0.000796357,-0.000267960,-0.175796808,0.197940807,0.871324500,-0.001520933,-0.001738973,0.007600990,0.999967414,0.000000000,0.000000000,0.000000000,0.000000000,0.000000000,0.000000000,0.520710468,0.000000000,4.180645466
1772689889.308167219,0.014861000,0.006231000,0.053893000,-0.001826860,0.002962030,0.011634120,0.999926270,-0.003585000,0.005966000,0.023258000,0.000267056,-0.000263637,0.000030146,0.003589156,0.028086295,0.000468996,0.009475196,-0.002850104,0.999811510,0.001191560,0.002493313,0.001583637,0.000000000,0.000000000,0.000000000,0.000000000,0.015109241,0.006209927,0.053858197,0.021443876,-0.000002295,0.000094959,0.005943303,-0.000328663,0.000476684,-0.174009375,0.195849697,0.870923015,-0.001505480,-0.001720602,0.007597541,0.999967493,0.000000000,0.000000000,0.000000000,0.000000000,0.000000000,0.000000000,0.520710468,0.000000000,4.180645466
1772689889.318167925,0.014916000,0.006200000,0.053854000,-0.001877010,0.004583730,0.011438530,0.999922310,-0.003649000,0.009210000,0.022861000,-0.000065652,0.000100789,-0.000128585,0.001006671,0.042955023,-0.000872305,0.008157864,-0.002602608,0.998342112,0.001128053,0.003681445,0.001792080,0.000000000,0.000000000,0.000000000,0.000000000,0.015105110,0.006211649,0.053851851,0.021371883,0.000024876,0.000046362,0.004957658,0.000739997,-0.001499968,-0.173010460,0.195158803,0.870326654,-0.001496818,-0.001714499,0.007592362,0.999967565,0.000000000,0.000000000,0.000000000,0.000000000,0.000000000,0.000000000,0.520710468,0.000000000,4.180645466
1772689889.328168392,0.014922000,0.006197000,0.053821000,-0.001831320,0.005705570,0.011358900,0.999917530,-0.003533000,0.011452000,0.022698000,0.000636513,-0.000335194,-0.001242434,-0.005088141,0.106357917,-0.007335389,0.008860302,-0.000298572,1.000469929,0.000089898,0.003913349,0.005255176,0.000000000,0.000000000,0.000000000,0.000000000,0.015095894,0.006215690,0.053853491,0.021149811,0.000110578,-0.000104304,0.004736002,0.001819368,-0.000253153,-0.172928158,0.193761661,0.870561869,-0.001496189,-0.001702304,0.007594434,0.999967575,0.000000000,0.000000000,0.000000000,0.000000000,0.000000000,0.000000000,0.520710468,0.000000000,4.180645466
1772689889.338169098,0.014851000,0.006236000,0.053884000,-0.001828850,0.003819270,0.011670090,0.999922940,-0.003568000,0.007681000,0.023327000,0.000482619,-0.000348480,-0.000973125,-0.004971424,0.112282717,-0.008524166,0.009860406,-0.000981578,1.000079503,0.000044531,-0.002801281,-0.000971017,0.000000000,0.000000000,0.000000000,0.000000000,0.015119527,0.006204496,0.053828797,0.021092332,0.000322877,-0.000204552,0.006437439,0.002637420,0.000458637,-0.172535583,0.192476172,0.871440502,-0.001492836,-0.001691072,0.007602124,0.999967575,0.000000000,0.000000000,0.000000000,0.000000000,0.000000000,0.000000000,0.520710468,0.000000000,4.180645466
1772689889.348169804,0.014907000,0.006204000,0.053832000,-0.001898210,0.005255650,0.011482260,0.999918460,-0.003676000,0.010554000,0.022946000,0.001174296,-0.000876104,-0.001748925,-0.003554449,0.184569935,-0.020672738,0.010440323,-0.001098154,0.999510827,-0.001565779,0.001711097,-0.001039579,0.000000000,0.000000000,0.000000000,0.000000000,0.015127202,0.006197765,0.053817420,0.021139517,0.000523870,-0.000215196,0.007059604,0.002041265,-0.000180272,-0.172478655,0.192478710,0.871579483,-0.001492337,-0.001691092,0.007603338,0.999967575,0.000000000,0.000000000,0.000000000,0.000000000,0.000000000,0.000000000,0.520710468,0.000000000,4.180645466
1772689889.358170271,0.014939000,0.006191000,0.053806000,-0.001987920,0.006753840,0.011213700,0.999912340,-0.003824000,0.013552000,0.022403000,0.000142006,-0.000188526,-0.000227684,-0.001850946,0.115079195,-0.016181475,0.008468236,-0.002181981,0.999449658,0.000328737,-0.000631523,0.000767680,0.000000000,0.000000000,0.000000000,0.000000000,0.015125620,0.006197160,0.053815543,0.021215989,0.000696258,-0.000225515,0.005646847,0.000854486,-0.000626787,-0.172545337,0.191604667,0.871293618,-0.001492981,-0.001683466,0.007600853,0.999967584,0.000000000,0.000000000,0.000000000,0.000000000,0.000000000,0.000000000,0.520710468,0.000000000,4.180661330
1772689889.368171453,0.014927000,0.006186000,0.053808000,-0.001993360,0.007388110,0.011179560,0.999908230,-0.003822000,0.014820000,0.022332000,-0.000105296,0.000156263,0.000478987,0.001187940,0.053670303,-0.013030085,0.007824390,-0.003274038,1.000178625,-0.000103455,-0.000745680,-0.000541214,0.000000000,0.000000000,0.000000000,0.000000000,0.015124784,0.006200081,0.053816391,0.021188031,0.000788674,-0.000257085,0.004138967,0.000106603,0.000201764,-0.172609780,0.191328292,0.870323517,-0.001493576,-0.001681046,0.007592392,0.999967640,0.000000000,0.000000000,0.000000000,0.000000000,0.000000000,0.000000000,0.520710468,0.000000000,4.180960830
1772689889.378171444,0.014914000,0.006192000,0.053818000,-0.001867340,0.007705700,0.011135940,0.999906560,-0.003563000,0.015452000,0.022246000,-0.000494021,0.000343060,0.000761290,0.005838289,-0.019564121,-0.005213612,0.010084476,-0.003082102,1.001788171,-0.000052771,-0.003237866,0.002064720,0.000000000,0.000000000,0.000000000,0.000000000,0.015099354,0.006221882,0.053852920,0.020910113,0.000841862,-0.000058579,0.005697526,0.000369722,0.001343739,-0.172677175,0.190707167,0.869172200,-0.001494222,-0.001675615,0.007582352,0.999967725,0.000000000,0.000000000,0.000000000,0.000000000,0.000000000,0.000000000,0.520710468,0.000000000,4.181260294
1772689889.388171673,0.014918000,0.006197000,0.053820000,-0.001913260,0.007788400,0.011070110,0.999906560,-0.003654000,0.015618000,0.022113000,-0.000962364,0.000694551,0.001225846,0.007613177,-0.100653551,0.008154307,0.010113822,-0.003049784,1.001658186,-0.000294384,-0.003580938,0.002309698,0.000000000,0.000000000,0.000000000,0.000000000,0.015095017,0.006225528,0.053858916,0.020865455,0.000848252,-0.000004230,0.006633549,0.000452601,0.001098523,-0.172550591,0.190325173,0.868606315,-0.001493151,-0.001672266,0.007577421,0.999967809,0.000000000,0.000000000,0.000000000,0.000000000,0.000000000,0.000000000,0.520710468,0.000000000,4.181559766
1772689889.398171902,0.014861000,0.006241000,0.053902000,-0.001830260,0.004652370,0.011391660,0.999922610,-0.003554000,0.009346000,0.022767000,-0.000211776,0.000261986,0.000336204,0.006702303,-0.077892110,0.007468435,0.010143168,-0.003017466,1.001528201,-0.000535997,-0.003924011,0.002554676,0.000000000,0.000000000,0.000000000,0.000000000,0.015095648,0.006225195,0.053857873,0.020869299,0.000847061,0.000012049,0.006726988,0.000500977,0.000975276,-0.172656963,0.190441239,0.868679777,-0.001494071,-0.001673286,0.007578058,0.999967795,0.000000000,0.000000000,0.000000000,0.000000000,0.000000000,0.000000000,0.520710468,0.000000000,4.181859237
1772689889.408173084,0.014901000,0.006212000,0.053843000,-0.001805850,0.005474030,0.011288700,0.999919670,-0.003488000,0.010988000,0.022559000,0.000925984,-0.000559887,-0.000895566,0.004017235,0.032639648,-0.000090555,0.010172516,-0.002985145,1.001398203,-0.000777634,-0.004267116,0.002799676,0.000000000,0.000000000,0.000000000,0.000000000,0.015096279,0.006224861,0.053856829,0.020873143,0.000845870,0.000028330,0.006820435,0.000549358,0.000852018,-0.172763346,0.190557315,0.868753246,-0.001494990,-0.001674307,0.007578696,0.999967781,0.000000000,0.000000000,0.000000000,0.000000000,0.000000000,0.000000000,0.520710468,0.000000000,4.182158737
1772689889.418174028,0.014925000,0.006186000,0.053817000,-0.001802980,0.006416170,0.011236060,0.999914660,-0.003462000,0.012872000,0.022451000,0.000631774,-0.000434332,-0.000645254,0.000349227,0.063351073,0.001898543,0.010201865,-0.002952824,1.001268209,-0.001019264,-0.004610213,0.003044671,0.000000000,0.000000000,0.000000000,0.000000000,0.015096910,0.006224528,0.053855785,0.020876987,0.000844679,0.000044610,0.006913880,0.000597738,0.000728762,-0.172869727,0.190673389,0.868826714,-0.001495910,-0.001675328,0.007579334,0.999967767,0.000000000,0.000000000,0.000000000,0.000000000,0.000000000,0.000000000,0.520710468,0.000000000,4.182458229
1772689889.428174734,0.014929000,0.006198000,0.053817000,-0.001814970,0.007183110,0.011228750,0.999909510,-0.003469000,0.014406000,0.022434000,0.000166072,-0.000216535,-0.000204220,-0.000441018,0.053019814,0.002915588,0.010231212,-0.002920505,1.001138218,-0.001260889,-0.004953302,0.003289661,0.000000000,0.000000000,0.000000000,0.000000000,0.015097541,0.006224195,0.053854741,0.020880831,0.000843488,0.000060890,0.007007323,0.000646117,0.000605509,-0.172976104,0.190789459,0.868900179,-0.001496829,-0.001676349,0.007579972,0.999967752,0.000000000,0.000000000,0.000000000,0.000000000,0.000000000,0.000000000,0.520710468,0.000000000,4.182757715
1772689889.438175440,0.014917000,0.006194000,0.053820000,-0.001822620,0.007514910,0.011185710,0.999907540,-0.003477000,0.015070000,0.022346000,0.000130993,-0.000113628,-0.000179746,-0.004709060,0.047915614,0.000461884,0.010260559,-0.002888186,1.001008227,-0.001502514,-0.005296391,0.003534650,0.000000000,0.000000000,0.000000000,0.000000000,0.015098173,0.006223861,0.053853698,0.020884675,0.000842297,0.000077170,0.007100766,0.000694495,0.000482257,-0.173082482,0.190905530,0.868973645,-0.001497749,-0.001677370,0.007580610,0.999967738,0.000000000,0.000000000,0.000000000,0.000000000,0.000000000,0.000000000,0.520710468,0.000000000,4.183057200
1772689889.448175907,0.014927000,0.006188000,0.053825000,-0.001860130,0.007867650,0.011275100,0.999903750,-0.003543000,0.015776000,0.022523000,-0.000486116,0.000490583,0.000843744,-0.007321765,-0.048931987,0.006798856,0.010289906,-0.002855867,1.000878239,-0.001744133,-0.005639471,0.003779633,0.000000000,0.000000000,0.000000000,0.000000000,0.015098804,0.006223528,0.053852654,0.020888519,0.000841107,0.000093450,0.007194207,0.000742873,0.000359007,-0.173188858,0.191021598,0.869047109,-0.001498668,-0.001678391,0.007581248,0.999967724,0.000000000,0.000000000,0.000000000,0.000000000,0.000000000,0.000000000,0.520710468,0.000000000,4.183356679
1772689889.458176613,0.014867000,0.006240000,0.053891000,-0.001899350,0.004806530,0.011522750,0.999920250,-0.003688000,0.009656000,0.023029000,-0.000744528,0.000566879,0.001044371,-0.010232793,-0.107521828,0.012283057,0.010484855,-0.002685252,1.000594229,-0.001636118,-0.005351793,0.003324813,0.000000000,0.000000000,0.000000000,0.000000000,0.015099435,0.006223195,0.053851610,0.020892363,0.000839916,0.000109730,0.007287650,0.000791252,0.000235754,-0.173295235,0.191137669,0.869120574,-0.001499588,-0.001679412,0.007581886,0.999967710,0.000000000,0.000000000,0.000000000,0.000000000,0.000000000,0.000000000,0.520710468,0.000000000,4.183656164
1772689889.468177319,0.014910000,0.006199000,0.053836000,-0.001896630,0.005737200,0.011364780,0.999917160,-0.003663000,0.011517000,0.022709000,-0.001551270,0.000838344,0.001693800,-0.008845309,-0.195093479,0.023404068,0.011521650,-0.001811604,0.999527259,0.000249307,-0.001857588,-0.000687519,0.000000000,0.000000000,0.000000000,0.000000000,0.015108388,0.006214275,0.053841323,0.020972752,0.000825820,0.000099450,0.007980184,0.001270481,-0.000175646,-0.173246117,0.191240416,0.869186595,-0.001499151,-0.001680306,0.007582462,0.999967696,0.000000000,0.000000000,0.000000000,0.000000000,0.000000000,0.000000000,0.520710468,0.000000000,4.183955650
1772689889.478178024,0.014924000,0.006197000,0.053822000,-0.001996820,0.006517240,0.011342510,0.999912440,-0.003846000,0.013079000,0.022661000,-0.001387664,0.000798739,0.001504303,-0.005631036,-0.225485852,0.026051700,0.012253827,-0.001549571,0.999160671,0.000592717,-0.002586205,-0.003357967,0.000000000,0.000000000,0.000000000,0.000000000,0.015119873,0.006207767,0.053830005,0.021163810,0.000886718,0.000039477,0.008998266,0.001881593,-0.000726448,-0.172560564,0.191502228,0.868939872,-0.001493155,-0.001682542,0.007580316,0.999967752,0.000000000,0.000000000,0.000000000,0.000000000,0.000000000,0.000000000,0.520710468,0.000000000,4.184255135
1772689889.488178730,0.014874000,0.006231000,0.053892000,-0.001993880,0.003952580,0.011648040,0.999922360,-0.003895000,0.007951000,0.023281000,-0.000649449,0.000338923,0.000591644,-0.000827965,-0.177925648,0.020154702,0.009438519,-0.003030460,1.001379177,0.003955613,0.000830321,-0.000179784,0.000000000,0.000000000,0.000000000,0.000000000,0.015125663,0.006206234,0.053823975,0.021455171,0.001024538,-0.000040045,0.007622484,0.000833020,0.000233468,-0.171633678,0.192463911,0.867486485,-0.001485025,-0.001690854,0.007567633,0.999967812,0.000000000,0.000000000,0.000000000,0.000000000,0.000000000,0.000000000,0.520710468,0.000000000,4.184554621
1772689889.498179436,0.014835000,0.006242000,0.053916000,-0.001994640,0.002448280,0.011897160,0.999924240,-0.003931000,0.004944000,0.023785000,0.000684956,-0.000331892,-0.000862449,0.000472505,-0.037176802,0.004715070,0.010105804,-0.002846980,1.001369946,-0.001950859,-0.002356720,-0.001527070,0.000000000,0.000000000,0.000000000,0.000000000,0.015129187,0.006203478,0.053823324,0.021571108,0.001043380,0.000027969,0.006280487,0.000000530,0.001643657,-0.170574747,0.191932259,0.867014737,-0.001475826,-0.001686138,0.007563539,0.999967813,0.000000000,0.000000000,0.000000000,0.000000000,0.000000000,0.000000000,0.520710468,0.000000000,4.184854106
1772689889.508179426,0.014838000,0.006244000,0.053908000,-0.001872410,0.001315210,0.011955690,0.999925910,-0.003713000,0.002675000,0.023907000,0.000398670,-0.000008935,-0.000780850,0.000367170,0.015104342,-0.001566240,0.013310106,-0.003073797,1.000109044,0.002232749,0.000822802,-0.000545059,0.000000000,0.000000000,0.000000000,0.000000000,0.015116779,0.006215130,0.053842563,0.021539494,0.001061550,0.000247756,0.008553558,0.000302234,0.000940876,-0.170774891,0.192587474,0.865243251,-0.001477556,-0.001691847,0.007548070,0.999967987,0.000000000,0.000000000,0.000000000,0.000000000,0.000000000,0.000000000,0.520710468,0.000000000,4.185153570
1772689889.518180609,0.014924000,0.006202000,0.053830000,-0.001927620,0.003548140,0.011613550,0.999924410,-0.003773000,0.007141000,0.023214000,0.001077896,-0.000532150,-0.001506848,0.002796627,0.117878965,-0.015975924,0.012501482,-0.003510354,1.001263975,0.001987264,0.000843866,0.000113336,0.000000000,0.000000000,0.000000000,0.000000000,0.015106967,0.006223267,0.053855351,0.021656543,0.001073539,0.000378298,0.009542106,-0.000464862,0.000811557,-0.170114888,0.191752490,0.864138374,-0.001471867,-0.001684502,0.007538448,0.999968074,0.000000000,0.000000000,0.000000000,0.000000000,0.000000000,0.000000000,0.520710468,0.000000000,4.185453070
1772689889.528180838,0.014927000,0.006203000,0.053813000,-0.001946340,0.005308830,0.011485670,0.999918050,-0.003771000,0.010662000,0.022952000,0.001597459,-0.000864216,-0.001927564,0.003718740,0.223623348,-0.024766432,0.011071224,-0.004075663,1.001571692,0.000529052,0.000712912,0.001511139,0.000000000,0.000000000,0.000000000,0.000000000,0.015114586,0.006216818,0.053847337,0.021918237,0.001013019,0.000394962,0.007596035,-0.000791039,0.001568692,-0.169560673,0.191478959,0.863301483,-0.001467062,-0.001682068,0.007531158,0.999968144,0.000000000,0.000000000,0.000000000,0.000000000,0.000000000,0.000000000,0.520710468,0.000000000,4.185752541
1772689889.538181067,0.014921000,0.006203000,0.053812000,-0.002028100,0.006610090,0.011331080,0.999911900,-0.003906000,0.013265000,0.022637000,0.000357317,-0.000069401,-0.000200161,0.004742050,0.149379578,-0.015086338,0.010470174,-0.004051742,1.000108388,-0.001558143,0.000774309,0.002234171,0.000000000,0.000000000,0.000000000,0.000000000,0.015124651,0.006212739,0.053839249,0.022094073,0.000905445,0.000505662,0.008163515,-0.000772394,0.000550036,-0.168976408,0.191404579,0.863723679,-0.001461962,-0.001681386,0.007534851,0.999968141,0.000000000,0.000000000,0.000000000,0.000000000,0.000000000,0.000000000,0.520710468,0.000000000,4.185712722
1772689889.548181534,0.014857000,0.006237000,0.053884000,-0.001918070,0.004483570,0.011648850,0.999920260,-0.003732000,0.009011000,0.023282000,-0.000383501,0.000145095,0.000679867,0.004295645,0.072265866,-0.007285300,0.010207140,-0.002779170,0.999671003,-0.002814092,-0.001920830,0.000651570,0.000000000,0.000000000,0.000000000,0.000000000,0.015105223,0.006226338,0.053869615,0.022065147,0.000824229,0.000668407,0.007153350,-0.000083640,-0.000379091,-0.169722340,0.191313379,0.862572414,-0.001468494,-0.001680625,0.007524795,0.999968188,0.000000000,0.000000000,0.000000000,0.000000000,0.000000000,0.000000000,0.520710468,0.000000000,4.185218117
1772689889.558182240,0.014918000,0.006203000,0.053837000,-0.001845830,0.005805730,0.011365670,0.999916850,-0.003560000,0.011653000,0.022712000,-0.000889933,0.000366505,0.001485424,0.003845523,-0.051248706,0.001588688,0.010066009,-0.002762730,1.001354047,0.000136790,-0.001624175,0.001087934,0.000000000,0.000000000,0.000000000,0.000000000,0.015076587,0.006238232,0.053896547,0.021982937,0.000841216,0.000703289,0.005755905,0.000844403,0.000577826,-0.169836222,0.192754250,0.861489528,-0.001469409,-0.001693192,0.007515325,0.999968290,0.000000000,0.000000000,0.000000000,0.000000000,0.000000000,0.000000000,0.520710468,0.000000000,4.184723500
1772689889.568182230,0.014921000,0.006201000,0.053827000,-0.001860890,0.006785780,0.011367130,0.999910640,-0.003568000,0.013613000,0.022711000,-0.000276476,0.000152534,0.000854330,0.001810469,-0.083724835,-0.000330407,0.012928846,-0.003431842,1.001540947,0.000801931,0.001285937,-0.001324397,0.000000000,0.000000000,0.000000000,0.000000000,0.015071768,0.006241222,0.053898032,0.021848640,0.000875709,0.000796918,0.009886118,-0.000847145,0.002245592,-0.170030388,0.192322051,0.860289844,-0.001471149,-0.001689418,0.007504858,0.999968325,0.000000000,0.000000000,0.000000000,0.000000000,0.000000000,0.000000000,0.520710468,0.000000000,4.184228919
1772689889.578183174,0.014872000,0.006236000,0.053891000,-0.001865650,0.004394760,0.011495280,0.999922530,-0.003630000,0.008832000,0.022975000,0.000442801,-0.000326512,-0.000338321,-0.003607173,-0.027415166,-0.007395754,0.011602755,-0.003853218,1.000468454,0.001263599,-0.005212371,0.003497190,0.000000000,0.000000000,0.000000000,0.000000000,0.015106731,0.006224900,0.053864040,0.022184743,0.000775210,0.000782062,0.008267896,-0.000509774,-0.000597275,-0.168984110,0.192481655,0.858429569,-0.001462036,-0.001690718,0.007488638,0.999968429,0.000000000,0.000000000,0.000000000,0.000000000,0.000000000,0.000000000,0.520710468,0.000000000,4.183734290
1772689889.588183641,0.014917000,0.006196000,0.053840000,-0.001935010,0.005713490,0.011278560,0.999918200,-0.003741000,0.011470000,0.022537000,0.000019443,-0.000031156,-0.000146338,-0.004354685,-0.020083704,-0.003483714,0.011060707,-0.003419052,1.000116837,-0.000494416,-0.003538085,0.003583443,0.000000000,0.000000000,0.000000000,0.000000000,0.015124285,0.006217680,0.053842424,0.022419605,0.000673655,0.000686739,0.007109319,-0.001068107,0.000139326,-0.168511234,0.194244594,0.858640900,-0.001457791,-0.001706074,0.007490467,0.999968442,0.000000000,0.000000000,0.000000000,0.000000000,0.000000000,0.000000000,0.520710468,0.000000000,4.183239686
1772689889.598183870,0.014873000,0.006227000,0.053889000,-0.001916510,0.003739200,0.011497830,0.999925070,-0.003747000,0.007522000,0.022982000,-0.000576941,0.000092728,-0.000082162,0.000210808,-0.023525868,0.002955335,0.012041598,-0.002451424,0.999679643,-0.000402607,0.001382434,-0.001412368,0.000000000,0.000000000,0.000000000,0.000000000,0.015130123,0.006214607,0.053833294,0.022478828,0.000603307,0.000621846,0.008221170,0.000353926,-0.000631643,-0.168130881,0.194893383,0.857667645,-0.001454444,-0.001711698,0.007481971,0.999968432,0.000000000,0.000000000,0.000000000,0.000000000,0.000000000,0.000000000,0.520710468,0.000000000,4.182745093
1772689889.608184814,0.014904000,0.006213000,0.053835000,-0.001893370,0.005170330,0.011329960,0.999920650,-0.003669000,0.010383000,0.022642000,-0.000446161,0.000130935,-0.000205910,0.005511893,-0.023783084,0.003077347,0.012154886,-0.003219747,0.999129761,-0.000172608,0.002131986,0.000155343,0.000000000,0.000000000,0.000000000,0.000000000,0.015110528,0.006224894,0.053853515,0.022518942,0.000652053,0.000646193,0.008215483,0.000323406,-0.000594582,-0.168018761,0.195078525,0.856561845,-0.001453470,-0.001713293,0.007472321,0.999968537,0.000000000,0.000000000,0.000000000,0.000000000,0.000000000,0.000000000,0.520710468,0.000000000,4.182250464
1772689889.618185520,0.014919000,0.006192000,0.053821000,-0.001962610,0.006173200,0.011279860,0.999915400,-0.003786000,0.012390000,0.022537000,-0.000424154,0.000167451,-0.000049958,0.005234147,-0.026199422,0.006848198,0.009683170,-0.003584677,1.000260445,-0.000405186,-0.001629015,0.000488603,0.000000000,0.000000000,0.000000000,0.000000000,0.015115421,0.006222106,0.053854853,0.022668450,0.000637186,0.000573875,0.007057468,-0.000490439,0.000123738,-0.168334539,0.195050035,0.855684766,-0.001456241,-0.001713054,0.007464663,0.999968588,0.000000000,0.000000000,0.000000000,0.000000000,0.000000000,0.000000000,0.520710468,0.000000000,4.181755847
1772689889.628186226,0.014853000,0.006241000,0.053893000,-0.001744750,0.003932590,0.011632940,0.999923080,-0.003398000,0.007905000,0.023253000,-0.000329503,0.000202492,0.000308525,-0.000061038,-0.052753492,0.011831012,0.009820673,-0.004217381,1.001163054,-0.002021870,-0.000045168,-0.000137663,0.000000000,0.000000000,0.000000000,0.000000000,0.015127002,0.006215479,0.053846079,0.022735231,0.000570462,0.000527600,0.006157762,-0.001100837,0.000716846,-0.168750830,0.195733488,0.855321569,-0.001459834,-0.001719040,0.007461478,0.999968588,0.000000000,0.000000000,0.000000000,0.000000000,0.000000000,0.000000000,0.520710468,0.000000000,4.181261231
1772689889.638186455,0.014888000,0.006204000,0.053829000,-0.001814080,0.005094350,0.011396960,0.999920430,-0.003512000,0.010229000,0.022777000,0.001019392,-0.000581797,-0.000585157,-0.002463308,0.039949337,0.002170393,0.009906988,-0.004846922,1.000713743,-0.002374148,0.001196998,-0.000576704,0.000000000,0.000000000,0.000000000,0.000000000,0.015122895,0.006219070,0.053854092,0.022680015,0.000489349,0.000621969,0.005936523,-0.001758126,0.000697588,-0.169787573,0.196090171,0.854816970,-0.001468866,-0.001722214,0.007457055,0.999968641,0.000000000,0.000000000,0.000000000,0.000000000,0.000000000,0.000000000,0.520710468,0.000000000,4.180766638
1772689889.648186684,0.014872000,0.006236000,0.053885000,-0.001844720,0.003190490,0.011582980,0.999926120,-0.003615000,0.006423000,0.023155000,0.000503461,-0.000054483,0.000115881,-0.002945686,0.035204804,0.000189585,0.009605072,-0.003360733,0.998853361,-0.001558574,-0.000081756,-0.002335418,0.000000000,0.000000000,0.000000000,0.000000000,0.015117360,0.006220902,0.053864698,0.022601213,0.000336047,0.000727861,0.006000248,-0.000754900,-0.000936434,-0.170458353,0.195526574,0.853842633,-0.001474771,-0.001717327,0.007448550,0.999968697,0.000000000,0.000000000,0.000000000,0.000000000,0.000000000,0.000000000,0.520710468,0.000000000,4.180645466
