t,px,py,pz,qx,qy,qz,qw,roll,pitch,yaw,vx,vy,vz,wx_vicon,wy_vicon,wz_vicon,imu_acc_x,imu_acc_y,imu_acc_z,imu_gyro_x,imu_gyro_y,imu_gyro_z,motor_motor_m1,motor_motor_m2,motor_motor_m3,motor_motor_m4,est_stateEstimate_x,est_stateEstimate_y,est_stateEstimate_z,est_stateEstimate_vx,est_stateEstimate_vy,est_stateEstimate_vz,est_stateEstimate_ax,est_stateEstimate_ay,est_stateEstimate_az,att_stateEstimate_roll,att_stateEstimate_pitch,att_stateEstimate_yaw,att_stateEstimate_qx,att_stateEstimate_qy,att_stateEstimate_qz,att_stateEstimate_qw,sp_ctrltarget_x,sp_ctrltarget_y,sp_ctrltarget_z,sp_ctrltarget_yaw,pid_controller_roll,pid_controller_pitch,pid_controller_yaw,pid_controller_cmd_thrust,pwr_pm_vbat
1772429357.826545238,0.019783000,0.005597000,0.071981000,-0.008023600,0.019506600,0.018048530,0.999614610,-0.015349000,0.039298000,0.035805000,-0.000184091,0.000132323,-0.000704876,0.015861796,0.013818516,0.000061622,0.015582198,-0.002321434,1.000422282,0.003880562,-0.001305339,-0.001189988,0.000000000,0.000000000,0.000000000,0.000000000,0.020699430,0.005782018,0.071980999,0.047250737,0.009596755,0.000005202,0.014726851,0.004323974,0.000327807,-0.336031532,0.035242709,1.498117369,-0.002928150,-0.000345859,0.013072196,0.999909284,0.000000000,0.000000000,0.000000000,0.000000000,0.000000000,0.000000000,1.497534766,0.000000000,4.148973465
1772429357.836544752,0.019784000,0.005598000,0.071973000,-0.008009120,0.019631160,0.018043500,0.999612380,-0.015316000,0.039546000,0.035794000,0.000076632,0.000001671,-0.000168745,0.003896260,-0.001383202,-0.001190540,0.015099718,-0.001527987,1.001694325,0.001300607,0.000049728,-0.000623129,0.000000000,0.000000000,0.000000000,0.000000000,0.020702715,0.005780916,0.071981757,0.047347328,0.009755499,0.000054329,0.014549844,0.005119455,0.001181033,-0.335332951,0.036513471,1.496221822,-0.002921915,-0.000356820,0.013055626,0.999909554,0.000000000,0.000000000,0.000000000,0.000000000,0.000000000,0.000000000,1.495769571,0.000000000,4.148973465
1772429357.846544743,0.019792000,0.005597000,0.071977000,-0.007998310,0.019603450,0.018044050,0.999613000,-0.015296000,0.039491000,0.035796000,0.000216026,-0.000082362,0.000128108,-0.002678350,-0.009877476,-0.001131001,0.014156503,-0.002190823,0.999823084,0.001332047,-0.002285764,-0.004588071,0.000000000,0.000000000,0.000000000,0.000000000,0.020705858,0.005782381,0.071982043,0.047383379,0.009967864,0.000178931,0.013417083,0.004008297,0.000341442,-0.333761339,0.037060468,1.493895020,-0.002908147,-0.000361355,0.013035314,0.999909935,0.000000000,0.000000000,0.000000000,0.000000000,0.000000000,0.000000000,1.493062537,0.000000000,4.148973465
1772429357.856545448,0.019780000,0.005597000,0.071978000,-0.008005010,0.019328090,0.018061100,0.999618000,-0.015318000,0.038940000,0.035834000,0.000257168,-0.000123971,0.000238132,-0.005016019,-0.013005849,-0.000337677,0.013817498,-0.004328923,0.997739939,-0.002019418,-0.004403045,-0.001254207,0.000000000,0.000000000,0.000000000,0.000000000,0.020708560,0.005786185,0.071983634,0.047340551,0.010054577,0.000158563,0.013036781,0.002755904,-0.001253391,-0.332699656,0.037154979,1.491099966,-0.002898881,-0.000361988,0.013010927,0.999910205,0.000000000,0.000000000,0.000000000,0.000000000,0.000000000,0.000000000,1.490645696,0.000000000,4.148973465
1772429357.866545677,0.019789000,0.005595000,0.071981000,-0.007981740,0.019434210,0.017991890,0.999617370,-0.015270000,0.039151000,0.035695000,0.000223135,-0.000127351,0.000213773,-0.004268935,-0.012110498,0.000605980,0.014246019,-0.004637060,0.999921555,0.001847838,-0.000366373,0.003263602,0.000000000,0.000000000,0.000000000,0.000000000,0.020706318,0.005786860,0.071981644,0.047266538,0.010037205,0.000023360,0.013495425,0.002013921,-0.001170790,-0.331871305,0.037151454,1.489305514,-0.002891659,-0.000361818,0.012995271,0.999910422,0.000000000,0.000000000,0.000000000,0.000000000,0.000000000,0.000000000,1.488677852,0.000000000,4.148973465
1772429357.876545429,0.019793000,0.005592000,0.071982000,-0.008064470,0.019377290,0.018035270,0.999617030,-0.015436000,0.039041000,0.035779000,0.000137005,-0.000096698,0.000107479,-0.001593589,-0.008532349,0.001120131,0.016081836,-0.004558177,0.999022862,0.000099384,0.005693832,0.000897056,0.000000000,0.000000000,0.000000000,0.000000000,0.020702772,0.005787634,0.071980642,0.047246977,0.009913681,-0.000039849,0.014619758,0.001216530,-0.000427579,-0.331889762,0.038848988,1.487319721,-0.002891634,-0.000376582,0.012977900,0.999910567,0.000000000,0.000000000,0.000000000,0.000000000,0.000000000,0.000000000,1.487266669,0.000000000,4.148973465
1772429357.886545420,0.019794000,0.005593000,0.071980000,-0.008050780,0.019406370,0.018099290,0.999615420,-0.015405000,0.039099000,0.035907000,0.000053069,0.000035936,-0.000036733,0.001740483,-0.001601462,-0.002183912,0.014572036,-0.003859668,0.997365292,-0.000663469,0.000487134,-0.004974029,0.000000000,0.000000000,0.000000000,0.000000000,0.020701607,0.005789034,0.071978526,0.047336336,0.009821954,-0.000161252,0.014532176,0.001496174,-0.001729097,-0.331489964,0.037976600,1.486423309,-0.002888247,-0.000368902,0.012970101,0.999910776,0.000000000,0.000000000,0.000000000,0.000000000,0.000000000,0.000000000,1.485714423,0.000000000,4.148973465
1772429357.896544695,0.019797000,0.005597000,0.071983000,-0.008052190,0.019271890,0.018031370,0.999619240,-0.015415000,0.038829000,0.035773000,-0.000038306,0.000042871,-0.000070280,0.003191591,0.000525901,-0.004197476,0.015005558,-0.003994431,1.000228232,-0.002019588,-0.001896578,-0.001783150,0.000000000,0.000000000,0.000000000,0.000000000,0.020700204,0.005786539,0.071976153,0.047351490,0.009702517,-0.000331055,0.013837715,0.001334909,-0.000916180,-0.330964537,0.036081253,1.483756140,-0.002883885,-0.000352237,0.012946877,0.999911066,0.000000000,0.000000000,0.000000000,0.000000000,0.000000000,0.000000000,1.483248090,0.000000000,4.148973465
1772429357.906545162,0.019787000,0.005591000,0.071976000,-0.007998000,0.019392830,0.018017630,0.999617580,-0.015303000,0.039069000,0.035746000,-0.000333198,0.000107168,-0.000094969,0.004286601,-0.001412098,-0.003462365,0.014643319,-0.003816129,0.999466338,0.000123118,-0.000330463,0.004485329,0.000000000,0.000000000,0.000000000,0.000000000,0.020698774,0.005786110,0.071974605,0.047366197,0.009669167,-0.000386078,0.014410241,0.002955826,-0.000077553,-0.330665859,0.036319842,1.482027552,-0.002881257,-0.000354242,0.012931788,0.999911235,0.000000000,0.000000000,0.000000000,0.000000000,0.000000000,0.000000000,1.481727846,0.000000000,4.148973465
1772429357.916545630,0.019787000,0.005597000,0.071982000,-0.007930240,0.019302530,0.017986230,0.999620440,-0.015172000,0.038885000,0.035687000,-0.000305750,0.000100466,-0.000026068,0.004617535,0.003390072,-0.003995834,0.014283708,-0.003709281,0.999524239,0.000935239,-0.000610784,0.004463644,0.000000000,0.000000000,0.000000000,0.000000000,0.020698085,0.005786779,0.071973597,0.047385368,0.009673399,-0.000392635,0.013961959,0.002594828,-0.000065404,-0.330884481,0.036793837,1.481695640,-0.002883112,-0.000358394,0.012928879,0.999911310,0.000000000,0.000000000,0.000000000,0.000000000,0.000000000,0.000000000,1.480899349,0.000000000,4.148973465
1772429357.926545858,0.019787000,0.005600000,0.071977000,-0.007971360,0.019422830,0.017897050,0.999619380,-0.015254000,0.039126000,0.035505000,-0.000182867,0.000072572,-0.000002428,0.000092387,0.009156063,-0.002152205,0.013924526,-0.003613864,0.999713262,0.001534517,-0.001186432,0.003435864,0.000000000,0.000000000,0.000000000,0.000000000,0.020699178,0.005786543,0.071973529,0.047375075,0.009659456,-0.000395352,0.013513687,0.002233838,-0.000053256,-0.331103098,0.037267820,1.481363736,-0.002884967,-0.000362546,0.012925971,0.999911325,0.000000000,0.000000000,0.000000000,0.000000000,0.000000000,0.000000000,1.480670249,0.000000000,4.148973465
1772429357.936547041,0.019783000,0.005593000,0.071979000,-0.008013390,0.019371610,0.017995080,0.999618280,-0.015336000,0.039027000,0.035701000,0.000052428,0.000096406,-0.000022319,-0.003907571,0.007285887,-0.001270282,0.013565310,-0.003518439,0.999902304,0.002133852,-0.001762134,0.002407986,0.000000000,0.000000000,0.000000000,0.000000000,0.020700271,0.005786306,0.071973461,0.047364781,0.009645512,-0.000398069,0.013065373,0.001872814,-0.000041106,-0.331321736,0.037741848,1.481031800,-0.002886823,-0.000366699,0.012923062,0.999911340,0.000000000,0.000000000,0.000000000,0.000000000,0.000000000,0.000000000,1.480503830,0.000000000,4.148973465
1772429357.946547508,0.019781000,0.005601000,0.071979000,-0.007976960,0.019440070,0.018014020,0.999616900,-0.015260000,0.039163000,0.035739000,0.000268940,0.000121601,0.000004545,-0.007630812,0.003426458,-0.003858532,0.013296954,-0.003310739,0.999980573,0.002636099,-0.002338460,0.001425544,0.000000000,0.000000000,0.000000000,0.000000000,0.020701365,0.005786070,0.071973394,0.047354488,0.009631569,-0.000400786,0.013021031,0.002366084,0.000034878,-0.331507773,0.037851643,1.480715079,-0.002888435,-0.000367670,0.012920295,0.999911355,0.000000000,0.000000000,0.000000000,0.000000000,0.000000000,0.000000000,1.480337423,0.000000000,4.148973465
1772429357.956548214,0.019790000,0.005598000,0.071981000,-0.008020330,0.019498450,0.017931010,0.999616910,-0.015348000,0.039280000,0.035570000,0.000195319,-0.000019386,0.000002584,-0.005877097,-0.003806764,-0.002780826,0.013866162,-0.002067717,0.999037565,0.002243536,-0.002920926,0.000861363,0.000000000,0.000000000,0.000000000,0.000000000,0.020702192,0.005786293,0.071972751,0.047335450,0.009648729,-0.000399800,0.013062326,0.003040476,0.000124398,-0.331637020,0.037326648,1.480424828,-0.002889622,-0.000363096,0.012917775,0.999911378,0.000000000,0.000000000,0.000000000,0.000000000,0.000000000,0.000000000,1.480166902,0.000000000,4.148973465
1772429357.966547966,0.019792000,0.005600000,0.071977000,-0.008100420,0.019514340,0.017911350,0.999616310,-0.015508000,0.039314000,0.035528000,0.000246484,0.000022416,0.000073854,-0.002245782,-0.012465324,-0.003408249,0.014435315,-0.000824815,0.998094647,0.001851011,-0.003503336,0.000297235,0.000000000,0.000000000,0.000000000,0.000000000,0.020702972,0.005786597,0.071972005,0.047314840,0.009671487,-0.000398149,0.013336826,0.003756793,-0.000628112,-0.331649355,0.036926370,1.480065734,-0.002889776,-0.000359596,0.012914651,0.999911451,0.000000000,0.000000000,0.000000000,0.000000000,0.000000000,0.000000000,1.479579123,0.000000000,4.148973465
1772429357.976547956,0.019796000,0.005601000,0.071978000,-0.008093660,0.019248270,0.017866800,0.999622320,-0.015506000,0.038781000,0.035443000,0.000103594,0.000062937,0.000033003,0.000457695,-0.014296836,-0.004844653,0.014858611,-0.001804947,0.998461603,0.000291523,-0.000023622,0.002727772,0.000000000,0.000000000,0.000000000,0.000000000,0.020703752,0.005786902,0.071971258,0.047294229,0.009694246,-0.000396497,0.013665945,0.004482959,-0.001577820,-0.330886465,0.037352811,1.479249918,-0.002883074,-0.000363210,0.012907524,0.999911525,0.000000000,0.000000000,0.000000000,0.000000000,0.000000000,0.000000000,1.478991330,0.000000000,4.148973465
1772429357.986547709,0.019792000,0.005599000,0.071981000,-0.008081120,0.019326220,0.017879830,0.999620680,-0.015477000,0.038937000,0.035468000,-0.000038870,0.000022766,-0.000050777,0.004310606,-0.009867760,-0.000276496,0.015244383,-0.002761187,0.999035168,-0.001151654,0.003248515,0.003725400,0.000000000,0.000000000,0.000000000,0.000000000,0.020706578,0.005788676,0.071970203,0.047306108,0.009885052,-0.000543518,0.014372730,0.004025127,-0.001195489,-0.329866255,0.037998226,1.477969028,-0.002874103,-0.000368695,0.012896334,0.999911744,0.000000000,0.000000000,0.000000000,0.000000000,0.000000000,0.000000000,1.477534117,0.000000000,4.148973465
1772429357.996547937,0.019787000,0.005596000,0.071982000,-0.007980480,0.019109530,0.017965850,0.999624110,-0.015280000,0.038501000,0.035647000,-0.000178244,0.000040074,-0.000065598,0.008110863,-0.003096486,0.003971144,0.015346538,-0.002512752,0.999640554,-0.001057110,0.002465741,-0.002202190,0.000000000,0.000000000,0.000000000,0.000000000,0.020706948,0.005790145,0.071970124,0.047382767,0.009979383,-0.000602744,0.014753252,0.003238735,-0.000535104,-0.329473253,0.038079280,1.476268019,-0.002870670,-0.000369315,0.012881492,0.999911924,0.000000000,0.000000000,0.000000000,0.000000000,0.000000000,0.000000000,1.475909937,0.000000000,4.148973465
1772429358.006547928,0.019795000,0.005604000,0.071979000,-0.007995420,0.019236300,0.017876790,0.999623160,-0.015309000,0.038754000,0.035467000,-0.000229915,-0.000040132,-0.000003108,0.007238623,0.000819391,0.005092627,0.014612987,-0.003933898,1.000301968,-0.000132205,0.000407576,-0.002282792,0.000000000,0.000000000,0.000000000,0.000000000,0.020705761,0.005790134,0.071970096,0.047449342,0.010021763,-0.000619374,0.013577689,0.002931296,-0.000502830,-0.329802019,0.037291171,1.474729341,-0.002873633,-0.000362437,0.012868084,0.999912107,0.000000000,0.000000000,0.000000000,0.000000000,0.000000000,0.000000000,1.474220015,0.000000000,4.148973465
1772429358.016548395,0.019784000,0.005602000,0.071977000,-0.007963290,0.019292180,0.017906090,0.999621810,-0.015242000,0.038865000,0.035526000,-0.000066181,-0.000049184,0.000035626,0.003274132,0.000075134,0.003841655,0.013143761,-0.003189550,0.999926789,-0.001247162,-0.001358844,0.001432760,0.000000000,0.000000000,0.000000000,0.000000000,0.020707084,0.005792394,0.071969301,0.047420950,0.010027856,-0.000620414,0.012465973,0.002535277,-0.000147504,-0.329367978,0.036801499,1.472869565,-0.002869906,-0.000358069,0.012851869,0.999912308,0.000000000,0.000000000,0.000000000,0.000000000,0.000000000,0.000000000,1.472488236,0.000000000,4.148973465
1772429358.026548624,0.019790000,0.005599000,0.071975000,-0.007922310,0.019374800,0.018000140,0.999618850,-0.015153000,0.039030000,0.035714000,-0.000025291,-0.000036810,0.000190074,-0.001898480,-0.005359669,0.001468651,0.014519276,-0.003347880,1.000306427,-0.003456037,0.001623005,-0.000874078,0.000000000,0.000000000,0.000000000,0.000000000,0.020706394,0.005794651,0.071967867,0.047358979,0.010014542,-0.000600507,0.014535762,0.002331001,0.000655705,-0.328757279,0.037044805,1.471334227,-0.002864554,-0.000360085,0.012838468,0.999912478,0.000000000,0.000000000,0.000000000,0.000000000,0.000000000,0.000000000,1.471078959,0.000000000,4.148973465
1772429358.036548853,0.019784000,0.005596000,0.071984000,-0.007955350,0.019178700,0.018001090,0.999622350,-0.015226000,0.038639000,0.035718000,-0.000012063,-0.000120066,0.000240268,-0.004740996,-0.001091128,0.002496200,0.015451493,-0.004485088,1.000168513,-0.002645203,0.000336826,0.001326198,0.000000000,0.000000000,0.000000000,0.000000000,0.020703918,0.005794886,0.071966411,0.047358966,0.010000604,-0.000571560,0.014511074,0.003069654,0.000111367,-0.328713717,0.036403130,1.470453601,-0.002864249,-0.000354459,0.012830800,0.999912579,0.000000000,0.000000000,0.000000000,0.000000000,0.000000000,0.000000000,1.470172997,0.000000000,4.148973465
1772429358.046549082,0.019785000,0.005597000,0.071986000,-0.008001220,0.019114520,0.017973610,0.999623710,-0.015321000,0.038512000,0.035662000,-0.000128594,-0.000150486,0.000094250,-0.003390283,0.000769310,0.004898533,0.014815114,-0.004201419,1.000746080,0.001212466,-0.002449399,0.001245738,0.000000000,0.000000000,0.000000000,0.000000000,0.020704137,0.005793464,0.071966546,0.047435900,0.009952958,-0.000527680,0.014602138,0.001243297,0.001228165,-0.329179035,0.035938842,1.469276587,-0.002868365,-0.000350430,0.012820539,0.999912673,0.000000000,0.000000000,0.000000000,0.000000000,0.000000000,0.000000000,1.468936353,0.000000000,4.148973465
1772429358.056549549,0.019795000,0.005599000,0.071986000,-0.008022600,0.019160050,0.017948650,0.999623120,-0.015363000,0.038603000,0.035610000,-0.000043551,0.000036985,-0.000069289,-0.003907949,0.005722066,0.003880038,0.013948214,-0.002063567,1.000145710,0.002332836,-0.001585830,-0.002526793,0.000000000,0.000000000,0.000000000,0.000000000,0.020702639,0.005790684,0.071971258,0.047480131,0.009838572,-0.000415648,0.013074836,0.003284580,0.000306455,-0.329399109,0.035389528,1.469164213,-0.002870347,-0.000345659,0.012819571,0.999912636,0.000000000,0.000000000,0.000000000,0.000000000,0.000000000,0.000000000,1.469260262,0.000000000,4.148973465
1772429358.066550732,0.019780000,0.005598000,0.071987000,-0.008061880,0.019291000,0.018014640,0.999619100,-0.015435000,0.038868000,0.035739000,-0.000064666,0.000052661,-0.000131488,-0.002743828,0.007465747,0.003779463,0.014012317,-0.001309885,0.998705810,-0.000849132,-0.000802918,-0.002509608,0.000000000,0.000000000,0.000000000,0.000000000,0.020702768,0.005789659,0.071974940,0.047412683,0.009930227,-0.000365233,0.012980747,0.004333749,-0.001094800,-0.328826039,0.035311616,1.468531994,-0.002865357,-0.000344899,0.012814058,0.999912840,0.000000000,0.000000000,0.000000000,0.000000000,0.000000000,0.000000000,1.468143812,0.000000000,4.148973465
1772429358.076550722,0.019786000,0.005594000,0.071977000,-0.007999280,0.019448810,0.018091720,0.999615150,-0.015301000,0.039182000,0.035894000,0.000124884,0.000175253,-0.000124825,0.000729587,0.012711870,0.001860596,0.014326330,-0.002343661,1.000407274,-0.003072608,-0.002453511,-0.000939838,0.000000000,0.000000000,0.000000000,0.000000000,0.020706409,0.005790989,0.071976489,0.047376849,0.010084787,-0.000475482,0.013600871,0.004122630,-0.000049419,-0.328218129,0.035447461,1.467301357,-0.002860041,-0.000345986,0.012803318,0.999912953,0.000000000,0.000000000,0.000000000,0.000000000,0.000000000,0.000000000,1.466850626,0.000000000,4.148973465
1772429358.086550713,0.019780000,0.005600000,0.071975000,-0.007993870,0.019376570,0.018070180,0.999616980,-0.015294000,0.039037000,0.035852000,0.000086577,0.000225253,0.000031585,0.002350194,0.012192666,-0.002005821,0.015314356,-0.003222097,1.001273414,-0.002093538,-0.001253436,0.003758601,0.000000000,0.000000000,0.000000000,0.000000000,0.020702335,0.005792656,0.071977638,0.047370934,0.010177056,-0.000413845,0.014014670,0.003009356,0.001185985,-0.328212399,0.035328003,1.465733737,-0.002860009,-0.000344903,0.012789642,0.999913136,0.000000000,0.000000000,0.000000000,0.000000000,0.000000000,0.000000000,1.465055860,0.000000000,4.149189295
1772429358.096551895,0.019792000,0.005605000,0.071984000,-0.008059220,0.019301730,0.018031960,0.999618600,-0.015428000,0.038889000,0.035774000,0.000111014,0.000142619,0.000126010,0.003109165,0.006760311,-0.003948324,0.014021508,-0.005035811,1.000308355,0.000380943,-0.002997616,-0.002490321,0.000000000,0.000000000,0.000000000,0.000000000,0.020701326,0.005792398,0.071975081,0.047409135,0.010164146,-0.000303672,0.013976834,0.002006167,0.000363437,-0.328588678,0.034984878,1.463875020,-0.002863336,-0.000341905,0.012773431,0.999913253,0.000000000,0.000000000,0.000000000,0.000000000,0.000000000,0.000000000,1.463777318,0.000000000,4.149722364
1772429358.106552839,0.019791000,0.005600000,0.071987000,-0.008012230,0.019388390,0.017981520,0.999618210,-0.015333000,0.039060000,0.035673000,0.000159810,0.000046232,0.000053730,0.001909527,0.000908170,-0.004647989,0.015465247,-0.003165372,0.997807035,0.000283661,-0.000844538,0.001657403,0.000000000,0.000000000,0.000000000,0.000000000,0.020699250,0.005793846,0.071972057,0.047411924,0.010074665,-0.000316630,0.014124737,0.002170062,-0.001152664,-0.328605206,0.034869552,1.462915399,-0.002863496,-0.000340876,0.012765060,0.999913434,0.000000000,0.000000000,0.000000000,0.000000000,0.000000000,0.000000000,1.462360106,0.000000000,4.150255420
1772429358.116554022,0.019793000,0.005610000,0.071984000,-0.007959660,0.019609260,0.017922130,0.999615380,-0.015223000,0.039499000,0.035554000,-0.000099922,-0.000145863,-0.000065171,0.000514607,0.002860198,-0.002472759,0.014055779,-0.004057912,1.000068911,-0.001302344,-0.003678033,-0.002333373,0.000000000,0.000000000,0.000000000,0.000000000,0.020702354,0.005796475,0.071973249,0.047466434,0.010038317,-0.000414626,0.013914042,0.002489571,-0.000580018,-0.328905112,0.034580409,1.461272896,-0.002866150,-0.000338346,0.012750734,0.999913550,0.000000000,0.000000000,0.000000000,0.000000000,0.000000000,0.000000000,1.461229831,0.000000000,4.150788489
1772429358.126554728,0.019783000,0.005600000,0.071983000,-0.007986300,0.019511720,0.017981630,0.999616010,-0.015277000,0.039306000,0.035673000,-0.000082090,-0.000234033,-0.000159149,0.000499288,0.000330652,-0.000814076,0.013480250,-0.003818113,0.999487633,0.002146851,0.002783031,-0.001880802,0.000000000,0.000000000,0.000000000,0.000000000,0.020705432,0.005796079,0.071975903,0.047449819,0.009984633,-0.000399411,0.012773644,0.002549653,-0.000113353,-0.329101719,0.035597511,1.460407285,-0.002867756,-0.000347221,0.012743156,0.999913731,0.000000000,0.000000000,0.000000000,0.000000000,0.000000000,0.000000000,1.459871744,0.000000000,4.151321533
1772429358.136555195,0.019788000,0.005594000,0.071979000,-0.007984340,0.019334730,0.018031730,0.999618560,-0.015278000,0.038953000,0.035776000,-0.000148582,-0.000146076,-0.000146601,-0.001564878,-0.006770435,-0.000556819,0.014012371,-0.003851882,0.998059874,0.000858484,-0.002324221,0.003047291,0.000000000,0.000000000,0.000000000,0.000000000,0.020707212,0.005799386,0.071976233,0.047337206,0.009976207,-0.000449869,0.013346348,0.002314429,-0.001504827,-0.328498072,0.037000102,1.457030122,-0.002862343,-0.000359309,0.012713654,0.999914227,0.000000000,0.000000000,0.000000000,0.000000000,0.000000000,0.000000000,1.456004389,0.000000000,4.151854564
1772429358.146555901,0.019787000,0.005598000,0.071974000,-0.008031050,0.019375910,0.017973130,0.999618450,-0.015372000,0.039036000,0.035656000,0.000059091,-0.000001301,0.000087937,-0.004062939,-0.009823807,-0.001671119,0.014676837,-0.004402517,0.999926404,0.000965174,-0.000202916,0.001093957,0.000000000,0.000000000,0.000000000,0.000000000,0.020702234,0.005795439,0.071974330,0.047307295,0.009911093,-0.000625647,0.014116679,0.002193483,-0.000281387,-0.327875768,0.036096646,1.454515282,-0.002857020,-0.000351293,0.012691733,0.999914346,0.000000000,0.000000000,0.000000000,0.000000000,0.000000000,0.000000000,1.454243077,0.000000000,4.152387607
1772429358.156557083,0.019784000,0.005596000,0.071981000,-0.008009610,0.019493350,0.017947200,0.999616800,-0.015326000,0.039269000,0.035603000,0.000076438,0.000082129,0.000294484,-0.001123186,-0.003755265,-0.001772641,0.015039980,-0.004749856,1.001978856,-0.001429110,0.001996708,-0.002041999,0.000000000,0.000000000,0.000000000,0.000000000,0.020701979,0.005790529,0.071970437,0.047338857,0.009834892,-0.000600669,0.014326369,0.001743876,0.001807972,-0.327009633,0.035292684,1.453222785,-0.002849555,-0.000344150,0.012680478,0.999914565,0.000000000,0.000000000,0.000000000,0.000000000,0.000000000,0.000000000,1.452785960,0.000000000,4.152920676
1772429358.166558266,0.019793000,0.005603000,0.071988000,-0.008022380,0.019266080,0.017915530,0.999621670,-0.015361000,0.038815000,0.035543000,0.000089006,0.000176612,0.000189103,0.002335923,0.005206398,-0.001215297,0.014417653,-0.004941758,1.000319571,-0.002893014,0.003249419,0.000738194,0.000000000,0.000000000,0.000000000,0.000000000,0.020701720,0.005788941,0.071967228,0.047387334,0.009720204,-0.000382254,0.014160603,0.000737946,0.000468066,-0.326424223,0.035199699,1.450973366,-0.002844464,-0.000343218,0.012660854,0.999914852,0.000000000,0.000000000,0.000000000,0.000000000,0.000000000,0.000000000,1.450283479,0.000000000,4.153453745
1772429358.176558495,0.019787000,0.005602000,0.071985000,-0.008036100,0.019359970,0.017954810,0.999619050,-0.015383000,0.039004000,0.035619000,0.000057187,0.000108275,-0.000073854,0.002797036,0.008713680,0.000608483,0.013585685,-0.005112416,0.999135371,-0.003618284,0.002617757,0.002954969,0.000000000,0.000000000,0.000000000,0.000000000,0.020700778,0.005785855,0.071970720,0.047394274,0.009531139,-0.000358515,0.013145837,0.001091159,-0.000685110,-0.326729814,0.034598726,1.449313464,-0.002847202,-0.000337966,0.012646384,0.999914937,0.000000000,0.000000000,0.000000000,0.000000000,0.000000000,0.000000000,1.449131522,0.000000000,4.153986763
1772429358.186559439,0.019793000,0.005602000,0.071989000,-0.007992450,0.019471890,0.017951720,0.999617280,-0.015292000,0.039226000,0.035613000,0.000145027,-0.000043182,-0.000239472,0.003160715,0.009086926,0.001678199,0.014203785,-0.003495538,0.999208146,0.000943305,0.004466317,0.000117616,0.000000000,0.000000000,0.000000000,0.000000000,0.020703559,0.005785991,0.071975088,0.047307183,0.009413285,-0.000398341,0.013318215,0.002239813,-0.000599020,-0.327361870,0.033748588,1.449109425,-0.002852812,-0.000330613,0.012644622,0.999914899,0.000000000,0.000000000,0.000000000,0.000000000,0.000000000,0.000000000,1.449210784,0.000000000,4.153916542
1772429358.196560383,0.019786000,0.005600000,0.071983000,-0.007924720,0.019536110,0.017996280,0.999615760,-0.015153000,0.039353000,0.035704000,0.000209130,-0.000149087,-0.000192075,0.002824130,0.005596370,0.000390820,0.013749547,-0.003942587,0.998115601,0.000749598,0.000250478,0.001280221,0.000000000,0.000000000,0.000000000,0.000000000,0.020701889,0.005785046,0.071976392,0.047259462,0.009403481,-0.000450786,0.013463120,0.002357146,-0.000977544,-0.328016583,0.032913848,1.448402519,-0.002858619,-0.000323384,0.012638473,0.999915119,0.000000000,0.000000000,0.000000000,0.000000000,0.000000000,0.000000000,1.447804857,0.000000000,4.153248626
1772429358.206560850,0.019793000,0.005598000,0.071970000,-0.007973610,0.019505050,0.017962920,0.999616580,-0.015253000,0.039292000,0.035636000,0.000090307,-0.000198407,0.000038462,0.002788025,0.002430682,-0.001350958,0.013898218,-0.002853502,0.997173826,-0.001056820,-0.000785100,0.001225713,0.000000000,0.000000000,0.000000000,0.000000000,0.020703108,0.005784617,0.071977838,0.047186148,0.009359995,-0.000574760,0.013086405,0.002240319,-0.002630740,-0.328022877,0.031284630,1.446786502,-0.002858858,-0.000309128,0.012624414,0.999915230,0.000000000,0.000000000,0.000000000,0.000000000,0.000000000,0.000000000,1.446689089,0.000000000,4.152580741
1772429358.216559887,0.019797000,0.005601000,0.071975000,-0.007993250,0.019539870,0.017924220,0.999616440,-0.015292000,0.039361000,0.035557000,0.000067832,-0.000021756,0.000216609,0.000372643,-0.010127884,-0.001960427,0.014538370,-0.003015654,0.998205509,0.001800247,-0.001907279,-0.006184968,0.000000000,0.000000000,0.000000000,0.000000000,0.021117391,0.005866853,0.071971477,0.048299938,0.009601440,-0.000864417,0.014001453,0.002490811,-0.002561824,-0.327458232,0.032777585,1.446804890,-0.002853766,-0.000322093,0.012624541,0.999915242,0.000000000,0.000000000,0.000000000,0.000000000,0.000000000,0.000000000,1.446286694,0.000000000,4.151912952
1772429358.226560116,0.019796000,0.005594000,0.071989000,-0.007948790,0.019464450,0.017934630,0.999618080,-0.015206000,0.039209000,0.035581000,-0.000161383,0.000066744,0.000043823,-0.002984110,-0.013407690,-0.001081747,0.015458368,-0.002735274,0.999458817,-0.003101967,-0.003457220,-0.007205205,0.000000000,0.000000000,0.000000000,0.000000000,0.020615888,0.005765469,0.071963229,0.045819462,0.009222333,-0.000998959,0.014275578,0.002498716,-0.001637549,-0.325177131,0.041612365,1.447611793,-0.002832885,-0.000398953,0.012631370,0.999914624,0.000000000,0.000000000,0.000000000,0.000000000,0.000000000,0.000000000,1.449766863,0.000000000,4.151245084
1772429358.236559868,0.019794000,0.005596000,0.071992000,-0.007942940,0.019293080,0.017941200,0.999621330,-0.015200000,0.038866000,0.035597000,-0.000324048,0.000144542,-0.000064025,-0.003809876,-0.008089960,-0.000718373,0.013950663,-0.002441550,0.998072381,0.003436844,0.001766874,-0.002049983,0.000000000,0.000000000,0.000000000,0.000000000,0.020614349,0.005764845,0.071965208,0.045966397,0.009444040,-0.001148448,0.013285546,0.002595760,-0.002123045,-0.322896139,0.050446724,1.448418658,-0.002812004,-0.000475810,0.012638198,0.999915022,0.000000000,0.000000000,0.000000000,0.000000000,0.000000000,0.000000000,1.449279772,0.000000000,4.150577247
1772429358.246560335,0.019783000,0.005602000,0.071984000,-0.007979010,0.019381160,0.017935900,0.999619430,-0.015269000,0.039044000,0.035583000,-0.000371834,0.000127778,-0.000157440,-0.001623268,-0.002378979,0.000795067,0.014682068,-0.004185811,0.999092138,-0.000099564,-0.002726573,-0.001507794,0.000000000,0.000000000,0.000000000,0.000000000,0.020669599,0.005782998,0.071961511,0.046247632,0.009686464,-0.001489611,0.013465276,0.001957323,-0.000896522,-0.321580994,0.055222556,1.448089461,-0.002800003,-0.000517330,0.012635211,0.999915182,0.000000000,0.000000000,0.000000000,0.000000000,0.000000000,0.000000000,1.447818690,0.000000000,4.149909363
1772429358.256560326,0.019787000,0.005606000,0.071975000,-0.008029430,0.019266900,0.017965470,0.999620710,-0.015373000,0.038817000,0.035642000,-0.000170241,0.000049903,-0.000289297,-0.002172470,0.006020460,0.001474453,0.014532415,-0.003026668,1.000246930,-0.001701698,0.002043328,0.001058331,0.000000000,0.000000000,0.000000000,0.000000000,0.020715801,0.005796505,0.071951452,0.046413381,0.009646123,-0.001534827,0.013726306,0.003461744,-0.000271071,-0.320561662,0.056568037,1.446270106,-0.002790969,-0.000528914,0.012619308,0.999915481,0.000000000,0.000000000,0.000000000,0.000000000,0.000000000,0.000000000,1.445391368,0.000000000,4.149241510
1772429358.266560316,0.019780000,0.005600000,0.071966000,-0.008042320,0.019435850,0.017939480,0.999617800,-0.015394000,0.039155000,0.035587000,0.000160159,-0.000001243,-0.000111500,-0.000499238,0.016218524,0.001191394,0.015361839,-0.002771101,1.001577963,0.000576383,0.003707738,0.000637295,0.000000000,0.000000000,0.000000000,0.000000000,0.020693704,0.005791600,0.071945213,0.046281834,0.009680005,-0.001498321,0.014573594,0.002362042,0.001597753,-0.320305812,0.056559250,1.444903190,-0.002788743,-0.000528776,0.012607383,0.999915481,0.000000000,0.000000000,0.000000000,0.000000000,0.000000000,0.000000000,1.444817711,0.000000000,4.148973465
1772429358.276560307,0.019784000,0.005601000,0.071981000,-0.007992960,0.019551300,0.017938280,0.999615970,-0.015291000,0.039385000,0.035585000,0.000290113,-0.000087374,0.000227584,0.003173431,0.019812798,0.002367599,0.015443517,-0.002134688,0.999314910,-0.000091644,-0.003033579,-0.000749972,0.000000000,0.000000000,0.000000000,0.000000000,0.020686474,0.005789161,0.071952084,0.046341424,0.009660655,-0.001216935,0.014949425,0.002970900,0.000424815,-0.320082656,0.054353312,1.443925517,-0.002787043,-0.000509479,0.012598906,0.999915630,0.000000000,0.000000000,0.000000000,0.000000000,0.000000000,0.000000000,1.443672001,0.000000000,4.148973465
1772429358.286560774,0.019794000,0.005598000,0.071986000,-0.007956150,0.019524410,0.017973520,0.999616150,-0.015217000,0.039330000,0.035658000,0.000233606,-0.000152642,0.000225020,0.002600953,0.015882359,0.001405955,0.014966194,-0.002478210,1.000889735,-0.000302951,0.003591890,0.000213734,0.000000000,0.000000000,0.000000000,0.000000000,0.020688762,0.005787387,0.071957730,0.046437130,0.009742355,-0.001146539,0.013695606,0.004090323,-0.000470085,-0.320515411,0.053852141,1.442903129,-0.002790879,-0.000505128,0.012589996,0.999915847,0.000000000,0.000000000,0.000000000,0.000000000,0.000000000,0.000000000,1.442144544,0.000000000,4.148973465
1772429358.296561241,0.019794000,0.005598000,0.071981000,-0.008015010,0.019707560,0.017991160,0.999611770,-0.015327000,0.039699000,0.035688000,0.000082925,-0.000120241,-0.000038073,-0.000387111,0.012732270,0.000671781,0.014538685,-0.003962396,0.999670954,0.001088047,0.001327563,0.000245244,0.000000000,0.000000000,0.000000000,0.000000000,0.020690905,0.005788141,0.071960329,0.046486121,0.009824063,-0.001020368,0.013246056,0.003089831,-0.000524954,-0.320265445,0.055510435,1.440028714,-0.002788529,-0.000519501,0.012564873,0.999916108,0.000000000,0.000000000,0.000000000,0.000000000,0.000000000,0.000000000,1.439723004,0.000000000,4.148973465
1772429358.306561470,0.019796000,0.005600000,0.071984000,-0.007961150,0.019748600,0.017970220,0.999611770,-0.015219000,0.039778000,0.035648000,-0.000027817,-0.000010120,-0.000242677,-0.004992185,-0.000521346,0.000146822,0.014209612,-0.002572405,0.999630410,0.001102165,-0.002840022,-0.004999326,0.000000000,0.000000000,0.000000000,0.000000000,0.020688948,0.005788914,0.071961268,0.046471945,0.009812308,-0.000942710,0.012999394,0.002830589,-0.000269637,-0.319116841,0.054202514,1.438767195,-0.002778655,-0.000507932,0.012553904,0.999916289,0.000000000,0.000000000,0.000000000,0.000000000,0.000000000,0.000000000,1.438345679,0.000000000,4.148973465
1772429358.316561699,0.019785000,0.005599000,0.071979000,-0.007993060,0.019683070,0.017992120,0.999612410,-0.015284000,0.039649000,0.035691000,-0.000237762,-0.000008664,-0.000207984,-0.006913004,-0.008153867,0.000765330,0.013682398,-0.001460600,1.001009207,-0.002971717,0.000447512,-0.000813757,0.000000000,0.000000000,0.000000000,0.000000000,0.020685988,0.005787391,0.071957526,0.046423428,0.009859351,-0.000915774,0.013036212,0.004250621,0.000296739,-0.317733190,0.054385739,1.436948398,-0.002766570,-0.000509335,0.012538034,0.999916597,0.000000000,0.000000000,0.000000000,0.000000000,0.000000000,0.000000000,1.435931827,0.000000000,4.148973465
1772429358.326561689,0.019786000,0.005593000,0.071967000,-0.008102690,0.019618660,0.017937900,0.999613770,-0.015508000,0.039523000,0.035579000,-0.000232984,-0.000022125,0.000078438,-0.004835156,-0.012210504,0.000154728,0.014136615,-0.001980283,1.000110502,-0.001679466,0.000776234,0.001156619,0.000000000,0.000000000,0.000000000,0.000000000,0.020685101,0.005787012,0.071955314,0.046384236,0.009966878,-0.000879910,0.012697683,0.004861754,-0.000292532,-0.316752930,0.055094048,1.433801422,-0.002757953,-0.000515333,0.012510562,0.999916879,0.000000000,0.000000000,0.000000000,0.000000000,0.000000000,0.000000000,1.433177228,0.000000000,4.148973465
1772429358.336562395,0.019790000,0.005598000,0.071974000,-0.008086250,0.019575240,0.017988750,0.999613840,-0.015475000,0.039436000,0.035682000,0.000020649,-0.000035101,0.000237199,-0.002140112,-0.020936011,-0.000169705,0.014590864,-0.002500002,0.999211731,-0.000387122,0.001104979,0.003127136,0.000000000,0.000000000,0.000000000,0.000000000,0.020685342,0.005788567,0.071956134,0.046350984,0.010081427,-0.000850460,0.013315254,0.003167932,-0.000501061,-0.316847621,0.054901983,1.432775346,-0.002758804,-0.000513642,0.012501612,0.999916940,0.000000000,0.000000000,0.000000000,0.000000000,0.000000000,0.000000000,1.432529387,0.000000000,4.148973465
1772429358.346561909,0.019786000,0.005601000,0.071986000,-0.008095130,0.019357780,0.017993410,0.999617920,-0.015500000,0.039002000,0.035694000,0.000057110,0.000025641,0.000205847,0.000207823,-0.017008954,0.000987703,0.015120075,-0.004163721,1.000698354,-0.001646560,-0.001524964,0.000380666,0.000000000,0.000000000,0.000000000,0.000000000,0.020684397,0.005791434,0.071960421,0.046349729,0.010113708,-0.000835050,0.013987481,0.001713262,-0.000280137,-0.317014091,0.054520819,1.432129504,-0.002760301,-0.000510319,0.012495984,0.999916971,0.000000000,0.000000000,0.000000000,0.000000000,0.000000000,0.000000000,1.432246718,0.000000000,4.148973465
1772429358.356561899,0.019786000,0.005596000,0.071990000,-0.008043550,0.019419020,0.018027640,0.999616530,-0.015393000,0.039123000,0.035764000,0.000206488,0.000008722,0.000091842,0.003245369,-0.010235333,0.000163436,0.015743408,-0.003006794,1.000882845,0.001397100,-0.000346384,0.001288427,0.000000000,0.000000000,0.000000000,0.000000000,0.020683402,0.005792601,0.071967069,0.046417360,0.010034597,-0.000733179,0.014719171,0.001746932,0.001200856,-0.315623158,0.053321699,1.432399080,-0.002748294,-0.000499710,0.012498373,0.999917074,0.000000000,0.000000000,0.000000000,0.000000000,0.000000000,0.000000000,1.431822577,0.000000000,4.148973465
1772429358.366562843,0.019792000,0.005595000,0.071982000,-0.008018430,0.019370140,0.017943490,0.999619190,-0.015348000,0.039023000,0.035597000,0.000244114,-0.000044444,-0.000021251,0.006841644,-0.004645841,0.000086938,0.015865286,-0.002177523,1.000071622,0.000835285,0.000559047,-0.001015196,0.000000000,0.000000000,0.000000000,0.000000000,0.020685882,0.005791232,0.071970280,0.046557340,0.010013562,-0.000596511,0.014443222,0.003877521,0.000536251,-0.315495935,0.054297037,1.430159302,-0.002747087,-0.000508153,0.012478805,0.999917296,0.000000000,0.000000000,0.000000000,0.000000000,0.000000000,0.000000000,1.429804892,0.000000000,4.149044889
1772429358.376562834,0.019796000,0.005599000,0.071978000,-0.008025550,0.019181360,0.017979200,0.999622140,-0.015367000,0.038646000,0.035671000,0.000189763,-0.000019464,-0.000236306,0.006437024,-0.000002240,-0.000194581,0.013243835,-0.002068500,0.998458413,0.003051379,0.000346683,0.001206888,0.000000000,0.000000000,0.000000000,0.000000000,0.020690907,0.005792231,0.071969571,0.046660592,0.010128403,-0.000553780,0.013058413,0.004036256,-0.000338947,-0.313504493,0.053550092,1.428683021,-0.002729798,-0.000501384,0.012465951,0.999917573,0.000000000,0.000000000,0.000000000,0.000000000,0.000000000,0.000000000,1.427835086,0.000000000,4.149583791
1772429358.386564016,0.019787000,0.005599000,0.071976000,-0.007993730,0.019436510,0.018025160,0.999616630,-0.015293000,0.039156000,0.035761000,-0.000004002,0.000111558,-0.000127681,0.005562422,0.003293765,0.002310174,0.013270748,-0.000400883,1.001514742,-0.004936696,0.002104330,0.003059132,0.000000000,0.000000000,0.000000000,0.000000000,0.020691206,0.005794545,0.071967559,0.046563480,0.010233709,-0.000603399,0.011770603,0.003958278,-0.000551593,-0.312579116,0.054812665,1.425858104,-0.002721598,-0.000512233,0.012441276,0.999917778,0.000000000,0.000000000,0.000000000,0.000000000,0.000000000,0.000000000,1.425886920,0.000000000,4.150122758
1772429358.396564245,0.019801000,0.005594000,0.071977000,-0.007966870,0.019398990,0.017973650,0.999618510,-0.015243000,0.039080000,0.035659000,-0.000267172,0.000243532,0.000039569,0.003966482,0.004205082,0.004914508,0.016503028,-0.001469528,1.000332003,-0.003645216,-0.003255335,0.004532378,0.000000000,0.000000000,0.000000000,0.000000000,0.020693894,0.005795508,0.071966744,0.046493351,0.010455496,-0.000501322,0.013831696,0.005517180,0.001382107,-0.312006485,0.053470329,1.425822693,-0.002716747,-0.000500457,0.012441000,0.999917805,0.000000000,0.000000000,0.000000000,0.000000000,0.000000000,0.000000000,1.425640335,0.000000000,4.150661672
1772429358.406564236,0.019794000,0.005600000,0.071985000,-0.007859260,0.019371700,0.018025920,0.999618950,-0.015026000,0.039022000,0.035768000,-0.000333664,0.000121950,-0.000017230,0.003261451,0.013470683,0.005545290,0.016038373,-0.002719028,0.999304246,0.002715900,0.000087912,-0.001710546,0.000000000,0.000000000,0.000000000,0.000000000,0.020695211,0.005798795,0.071970049,0.046629238,0.010620686,-0.000431938,0.015467467,0.003623669,-0.000199507,-0.313374579,0.053827699,1.425264195,-0.002728649,-0.000503710,0.012436111,0.999917805,0.000000000,0.000000000,0.000000000,0.000000000,0.000000000,0.000000000,1.425266926,0.000000000,4.151200574
1772429358.416564226,0.019782000,0.005606000,0.071977000,-0.007949110,0.019413880,0.018057760,0.999616840,-0.015203000,0.039110000,0.035828000,-0.000201457,0.000005944,-0.000182110,0.002061952,0.016233424,0.002843937,0.014685678,-0.005182102,1.000253684,0.002255338,0.000138523,-0.002452762,0.000000000,0.000000000,0.000000000,0.000000000,0.020691990,0.005804501,0.071970637,0.046769781,0.010620322,-0.000447561,0.013814075,0.001617167,-0.000498636,-0.313581721,0.055722716,1.424925305,-0.002730252,-0.000520261,0.012433108,0.999917970,0.000000000,0.000000000,0.000000000,0.000000000,0.000000000,0.000000000,1.424397958,0.000000000,4.151739476
1772429358.426563978,0.019780000,0.005603000,0.071981000,-0.007948850,0.019507510,0.018080520,0.999614610,-0.015198000,0.039298000,0.035872000,0.000137374,-0.000074204,-0.000262393,-0.001724729,0.010897712,-0.001416291,0.012818814,-0.006742166,1.001211386,0.000763122,-0.000993809,-0.002239587,0.000000000,0.000000000,0.000000000,0.000000000,0.020688120,0.005806038,0.071971012,0.046766335,0.010381962,-0.000433803,0.012282345,-0.000168200,0.000222827,-0.311513648,0.055209709,1.422796171,-0.002712272,-0.000515509,0.012414553,0.999918210,0.000000000,0.000000000,0.000000000,0.000000000,0.000000000,0.000000000,1.422387632,0.000000000,4.152278365
1772429358.436564445,0.019786000,0.005602000,0.071972000,-0.007926480,0.019637520,0.018073660,0.999612370,-0.015149000,0.039557000,0.035858000,0.000214083,-0.000218454,-0.000054526,-0.004451165,0.011770986,-0.005076781,0.013803654,-0.004102659,1.000362056,0.002230239,0.002030219,0.000723870,0.000000000,0.000000000,0.000000000,0.000000000,0.020687838,0.005803074,0.071968801,0.046650393,0.010085903,-0.000365713,0.012347276,0.000189559,0.000593689,-0.310822859,0.055404014,1.420968364,-0.002706231,-0.000517087,0.012398600,0.999918431,0.000000000,0.000000000,0.000000000,0.000000000,0.000000000,0.000000000,1.420512578,0.000000000,4.152817293
1772429358.446564436,0.019794000,0.005592000,0.071967000,-0.007938060,0.019771290,0.018001950,0.999610930,-0.015171000,0.039824000,0.035712000,0.000361519,-0.000265812,0.000196581,-0.003904068,0.003146260,-0.008642974,0.014476911,-0.004263785,0.999127043,0.003919749,-0.002596954,0.001997541,0.000000000,0.000000000,0.000000000,0.000000000,0.020691564,0.005794881,0.071964551,0.046659241,0.009868046,-0.000366323,0.013593420,0.001394385,-0.000395920,-0.310216714,0.054849083,1.419332589,-0.002701009,-0.000512140,0.012384343,0.999918559,0.000000000,0.000000000,0.000000000,0.000000000,0.000000000,0.000000000,1.419117544,0.000000000,4.153356195
1772429358.456563950,0.019797000,0.005596000,0.071976000,-0.007964440,0.019590680,0.017967150,0.999614900,-0.015231000,0.039463000,0.035644000,0.000105303,-0.000131896,0.000371737,-0.001721913,-0.009841298,-0.008379177,0.015023026,-0.002083759,1.000419017,0.001473643,0.000754532,-0.001579199,0.000000000,0.000000000,0.000000000,0.000000000,0.020695714,0.005789903,0.071965721,0.046706532,0.009776465,-0.000410094,0.013825173,0.002357016,-0.000731400,-0.310291227,0.053976106,1.418715539,-0.002701757,-0.000504516,0.012378979,0.999918622,0.000000000,0.000000000,0.000000000,0.000000000,0.000000000,0.000000000,1.418719426,0.000000000,4.153895071
1772429358.466563702,0.019801000,0.005595000,0.071983000,-0.008036930,0.019501460,0.017882670,0.999617580,-0.015383000,0.039286000,0.035473000,-0.000288695,0.000059324,0.000269095,-0.002354026,-0.017069223,-0.004109747,0.014715309,-0.004381812,1.002199920,-0.002746672,0.002597924,0.001741941,0.000000000,0.000000000,0.000000000,0.000000000,0.020699640,0.005787626,0.071969795,0.046781397,0.009775992,-0.000381369,0.014566663,0.002165645,0.000689287,-0.309202197,0.054137371,1.418106343,-0.002692239,-0.000505792,0.012373664,0.999918821,0.000000000,0.000000000,0.000000000,0.000000000,0.000000000,0.000000000,1.417142507,0.000000000,4.154084024
1772429358.476562738,0.019783000,0.005594000,0.071993000,-0.008006170,0.019544560,0.017929550,0.999616150,-0.015318000,0.039371000,0.035567000,-0.000560102,0.000164394,0.000021290,-0.001552229,-0.013750662,0.001511948,0.015644536,-0.003867706,1.000474563,-0.002968923,0.001402629,-0.001769026,0.000000000,0.000000000,0.000000000,0.000000000,0.020696477,0.005785322,0.071977707,0.046884142,0.009700510,-0.000187957,0.014610383,0.001735045,0.001799575,-0.308987792,0.052918658,1.415473453,-0.002690511,-0.000495072,0.012350718,0.999919008,0.000000000,0.000000000,0.000000000,0.000000000,0.000000000,0.000000000,1.415325283,0.000000000,4.153586290
1772429358.486562729,0.019784000,0.005600000,0.071982000,-0.007953800,0.019366770,0.017934390,0.999619940,-0.015219000,0.039014000,0.035582000,-0.000399359,0.000172242,-0.000268260,-0.000333161,-0.006687204,0.003141195,0.014952310,-0.004679516,1.001018843,0.003633264,-0.004457229,-0.004539286,0.000000000,0.000000000,0.000000000,0.000000000,0.020693829,0.005785700,0.071980388,0.046977644,0.009621229,-0.000062802,0.014116002,0.001700617,0.000294832,-0.308904095,0.052016231,1.414566013,-0.002689882,-0.000487167,0.012342822,0.999919168,0.000000000,0.000000000,0.000000000,0.000000000,0.000000000,0.000000000,1.414170476,0.000000000,4.153088509
1772429358.496562719,0.019777000,0.005599000,0.071976000,-0.007991480,0.019311610,0.017956570,0.999620310,-0.015296000,0.038905000,0.035625000,-0.000013908,0.000041822,-0.000171426,0.002281316,-0.001145133,0.002377520,0.015379625,-0.005093833,0.999098905,0.002127310,0.003754704,0.000908343,0.000000000,0.000000000,0.000000000,0.000000000,0.020690889,0.005785440,0.071978077,0.047054669,0.009489270,-0.000048396,0.014434601,0.000946673,0.000057834,-0.308798977,0.052488543,1.412857893,-0.002688921,-0.000491237,0.012327908,0.999919393,0.000000000,0.000000000,0.000000000,0.000000000,0.000000000,0.000000000,1.412302050,0.000000000,4.152590727
1772429358.506562471,0.019780000,0.005600000,0.071973000,-0.007994130,0.019452240,0.018017340,0.999616470,-0.015294000,0.039188000,0.035745000,0.000398835,-0.000040288,0.000020921,0.002870804,0.002744574,0.001254775,0.015786966,-0.003873884,1.001748407,0.001552730,0.004697674,0.000400389,0.000000000,0.000000000,0.000000000,0.000000000,0.020690542,0.005784179,0.071975341,0.047162625,0.009363620,-0.000047427,0.014690650,0.000907683,0.000880129,-0.306939187,0.053298389,1.410984211,-0.002672614,-0.000498060,0.012311545,0.999919645,0.000000000,0.000000000,0.000000000,0.000000000,0.000000000,0.000000000,1.410072166,0.000000000,4.152092958
1772429358.516562700,0.019785000,0.005599000,0.071972000,-0.007993730,0.019528440,0.017974600,0.999615750,-0.015292000,0.039339000,0.035658000,0.000602740,-0.000147747,0.000202312,0.000996669,0.006998207,-0.000740488,0.014920500,-0.005646661,1.000314821,0.001788314,-0.002988560,-0.000410387,0.000000000,0.000000000,0.000000000,0.000000000,0.020693665,0.005782041,0.071973881,0.047286818,0.009225658,0.000048460,0.014386427,0.000648574,0.001652990,-0.306106735,0.051996757,1.408456905,-0.002665500,-0.000486554,0.012289526,0.999919890,0.000000000,0.000000000,0.000000000,0.000000000,0.000000000,0.000000000,1.407950700,0.000000000,4.151595164
1772429358.526562214,0.019800000,0.005596000,0.071987000,-0.007968060,0.019414730,0.017902300,0.999619470,-0.015247000,0.039110000,0.035516000,0.000283275,-0.000184111,0.000357052,0.000283161,0.009661477,-0.000354182,0.014939968,-0.005284083,1.000215755,-0.001714981,-0.000681937,-0.000929348,0.000000000,0.000000000,0.000000000,0.000000000,0.020700299,0.005778856,0.071977390,0.047381058,0.009050321,0.000135797,0.014180636,-0.000349366,0.000502151,-0.306278532,0.051184962,1.407114506,-0.002667092,-0.000479458,0.012277831,0.999919989,0.000000000,0.000000000,0.000000000,0.000000000,0.000000000,0.000000000,1.406825547,0.000000000,4.151097406
1772429358.536561966,0.019798000,0.005595000,0.071997000,-0.007908500,0.019437260,0.017967140,0.999618340,-0.015125000,0.039154000,0.035648000,-0.000093027,0.000034965,0.000175544,0.000264074,0.008173542,0.002164285,0.015176740,-0.004415282,0.999452329,-0.003580118,0.001703929,-0.000633944,0.000000000,0.000000000,0.000000000,0.000000000,0.020707510,0.005775092,0.071984297,0.047466692,0.008886477,0.000159348,0.014567696,0.001748798,-0.000847298,-0.306595903,0.050109690,1.406860709,-0.002669978,-0.000470103,0.012275640,0.999919959,0.000000000,0.000000000,0.000000000,0.000000000,0.000000000,0.000000000,1.406880198,0.000000000,4.150599637
1772429358.546561003,0.019795000,0.005594000,0.071980000,-0.007981410,0.019617510,0.017993210,0.999613770,-0.015263000,0.039517000,0.035695000,-0.000527681,0.000183450,-0.000101302,-0.001744109,0.002748487,0.005317533,0.014455433,-0.003904036,0.999498745,-0.001923618,0.000621900,0.000673455,0.000000000,0.000000000,0.000000000,0.000000000,0.020712084,0.005770810,0.071989899,0.047573815,0.008809182,0.000093774,0.013997032,0.001468055,-0.001076510,-0.308270570,0.049332451,1.406482089,-0.002684676,-0.000463491,0.012272348,0.999920020,0.000000000,0.000000000,0.000000000,0.000000000,0.000000000,0.000000000,1.406341246,0.000000000,4.150101903
1772429358.556561708,0.019784000,0.005597000,0.071981000,-0.008007030,0.019567790,0.018005180,0.999614330,-0.015316000,0.039419000,0.035718000,-0.000658509,0.000293687,-0.000276768,-0.001853968,-0.001747566,0.008005081,0.014151564,-0.003592507,0.999683180,-0.001332892,-0.001906423,0.000697426,0.000000000,0.000000000,0.000000000,0.000000000,0.020712475,0.005768202,0.071985198,0.047582912,0.008755791,0.000001785,0.012321111,0.002398831,-0.000159188,-0.308145515,0.048215335,1.406050361,-0.002683706,-0.000453720,0.012268608,0.999920077,0.000000000,0.000000000,0.000000000,0.000000000,0.000000000,0.000000000,1.405941610,0.000000000,4.149604086
1772429358.566561699,0.019773000,0.005602000,0.071982000,-0.007995330,0.019541290,0.018035290,0.999614400,-0.015292000,0.039366000,0.035780000,-0.000418163,0.000293066,-0.000282382,-0.000958449,-0.010754924,0.005056700,0.014988637,-0.003101899,0.998711772,0.000973025,-0.001331731,-0.001117686,0.000000000,0.000000000,0.000000000,0.000000000,0.020706862,0.005768526,0.071982770,0.047510356,0.008770756,-0.000039293,0.014036074,0.001901199,-0.001231340,-0.307954874,0.047646432,1.405489082,-0.002682105,-0.000448722,0.012263725,0.999920149,0.000000000,0.000000000,0.000000000,0.000000000,0.000000000,0.000000000,1.405268738,0.000000000,4.149106304
1772429358.576561689,0.019774000,0.005610000,0.071977000,-0.007977880,0.019528190,0.018104270,0.999613540,-0.015255000,0.039340000,0.035918000,-0.000009965,0.000090579,-0.000140579,-0.000676079,-0.019107525,-0.000182877,0.015097132,-0.002273866,0.999289122,0.001928801,-0.000850904,-0.000257956,0.000000000,0.000000000,0.000000000,0.000000000,0.020699583,0.005771423,0.071981018,0.047556009,0.008790584,-0.000157580,0.014098044,0.003231614,-0.001274850,-0.307443924,0.047418388,1.404106248,-0.002677677,-0.000446645,0.012251665,0.999920372,0.000000000,0.000000000,0.000000000,0.000000000,0.000000000,0.000000000,1.403625214,0.000000000,4.148973465
1772429358.586561918,0.019778000,0.005603000,0.071977000,-0.007991730,0.019300090,0.018072300,0.999618440,-0.015292000,0.038884000,0.035857000,0.000435878,-0.000193590,0.000113462,0.000590931,-0.016416139,-0.003405167,0.014005807,-0.001653435,1.000575978,-0.000353130,0.000178696,0.002420915,0.000000000,0.000000000,0.000000000,0.000000000,0.020698032,0.005776777,0.071976981,0.047590964,0.008958647,-0.000246043,0.014316529,0.003161269,-0.000927471,-0.306525974,0.048422673,1.402159161,-0.002669567,-0.000455265,0.012234654,0.999920501,0.000000000,0.000000000,0.000000000,0.000000000,0.000000000,0.000000000,1.401883943,0.000000000,4.148973465
1772429358.596562862,0.019787000,0.005602000,0.071982000,-0.007959080,0.019266370,0.018043770,0.999619870,-0.015229000,0.038815000,0.035802000,0.000711714,-0.000296329,0.000156605,-0.001275651,-0.002204726,-0.005676088,0.014110012,-0.002683947,1.000109088,-0.000041031,0.005247522,0.001753495,0.000000000,0.000000000,0.000000000,0.000000000,0.020703070,0.005778603,0.071976302,0.047541361,0.009164627,-0.000230610,0.014721133,0.002474901,-0.000523260,-0.305559801,0.048393935,1.400515408,-0.002661146,-0.000454873,0.012220316,0.999920742,0.000000000,0.000000000,0.000000000,0.000000000,0.000000000,0.000000000,1.400164460,0.000000000,4.148973465
1772429358.606562853,0.019794000,0.005598000,0.071981000,-0.007989340,0.019216620,0.017967150,0.999621970,-0.015294000,0.038715000,0.035648000,0.000644736,-0.000289666,0.000252856,-0.001117484,0.013167849,-0.006475997,0.015983881,-0.004328552,0.999025952,-0.002261318,0.004089505,0.001294924,0.000000000,0.000000000,0.000000000,0.000000000,0.020710116,0.005776281,0.071975441,0.047708877,0.009133006,-0.000329753,0.014661932,0.001761101,-0.001249507,-0.304592530,0.047860810,1.398973586,-0.002652768,-0.000450082,0.012206880,0.999920969,0.000000000,0.000000000,0.000000000,0.000000000,0.000000000,0.000000000,1.398598185,0.000000000,4.148973465
1772429358.616563082,0.019793000,0.005591000,0.071979000,-0.008035740,0.019380400,0.017961740,0.999618530,-0.015381000,0.039045000,0.035633000,0.000330653,-0.000177001,0.000340268,-0.000207446,0.016132657,-0.006346230,0.015793756,-0.005555584,0.998299474,-0.000161621,-0.000059902,0.001794283,0.000000000,0.000000000,0.000000000,0.000000000,0.020715625,0.005771716,0.071975027,0.047867224,0.008999630,-0.000454926,0.015366309,0.000141109,-0.000621771,-0.303805167,0.047172792,1.397952603,-0.002645975,-0.000443971,0.012197989,0.999921042,0.000000000,0.000000000,0.000000000,0.000000000,0.000000000,0.000000000,1.397660500,0.000000000,4.148973465
1772429358.626563072,0.019805000,0.005593000,0.071992000,-0.007994260,0.019544700,0.017953490,0.999615810,-0.015293000,0.039372000,0.035616000,-0.000131274,0.000108100,0.000138170,0.000155493,0.008892441,-0.003184307,0.015126035,-0.005546754,0.997628266,0.001869168,0.000182655,0.002444233,0.000000000,0.000000000,0.000000000,0.000000000,0.020723393,0.005769499,0.071978412,0.048025051,0.008797490,-0.000531596,0.014624309,0.000182295,-0.002494983,-0.303751786,0.046533521,1.396864526,-0.002645582,-0.000438362,0.012188509,0.999921143,0.000000000,0.000000000,0.000000000,0.000000000,0.000000000,0.000000000,1.396527313,0.000000000,4.148973465
1772429358.636564016,0.019797000,0.005602000,0.071989000,-0.008013910,0.019640290,0.017959010,0.999613680,-0.015329000,0.039564000,0.035625000,-0.000514822,0.000221543,-0.000187219,0.000194592,-0.004008033,0.001787786,0.014802008,-0.004352387,0.998246662,0.001350288,0.001757026,0.003029219,0.000000000,0.000000000,0.000000000,0.000000000,0.020724726,0.005770261,0.071977217,0.048100876,0.008629415,-0.000787155,0.014413085,0.000743602,-0.002202212,-0.303526386,0.047099292,1.395076521,-0.002643562,-0.000443234,0.012172895,0.999921440,0.000000000,0.000000000,0.000000000,0.000000000,0.000000000,0.000000000,1.394517926,0.000000000,4.148973465
1772429358.646563530,0.019790000,0.005597000,0.071986000,-0.007965530,0.019559400,0.017943390,0.999615930,-0.015235000,0.039400000,0.035597000,-0.000608431,0.000240171,-0.000383528,0.001126853,-0.010836957,0.006977195,0.014954893,-0.004220403,0.999838195,-0.001604058,0.001600855,0.004212134,0.000000000,0.000000000,0.000000000,0.000000000,0.020722491,0.005767169,0.071973536,0.048154580,0.008518124,-0.000919138,0.013811233,0.000823879,-0.000627485,-0.302760345,0.047770296,1.393467469,-0.002636812,-0.000448970,0.012158842,0.999921555,0.000000000,0.000000000,0.000000000,0.000000000,0.000000000,0.000000000,1.393168537,0.000000000,4.148973465
1772429358.656564236,0.019782000,0.005600000,0.071985000,-0.007994780,0.019183760,0.017940000,0.999623040,-0.015307000,0.038650000,0.035594000,-0.000423602,0.000190152,-0.000330051,0.000871061,-0.012644534,0.008142887,0.015600443,-0.004349249,0.999309307,-0.003268178,0.004957714,0.002979190,0.000000000,0.000000000,0.000000000,0.000000000,0.020717015,0.005766375,0.071969529,0.048171181,0.008406258,-0.000915905,0.014485285,0.001787457,-0.000445178,-0.302071377,0.048039848,1.392871868,-0.002630774,-0.000451236,0.012153641,0.999921620,0.000000000,0.000000000,0.000000000,0.000000000,0.000000000,0.000000000,1.392820334,0.000000000,4.148973465
1772429358.666563988,0.019773000,0.005607000,0.071970000,-0.008009010,0.019235280,0.018045190,0.999620040,-0.015330000,0.038755000,0.035803000,-0.000128186,0.000032323,-0.000175097,-0.000540009,-0.003021587,0.005940040,0.014295695,-0.004454825,0.997949686,0.000926302,-0.000656561,-0.001433630,0.000000000,0.000000000,0.000000000,0.000000000,0.020711344,0.005768166,0.071960598,0.048227176,0.008365002,-0.000972687,0.014119243,0.001608110,-0.001527492,-0.302160222,0.047405364,1.392507117,-0.002631618,-0.000445700,0.012150473,0.999921620,0.000000000,0.000000000,0.000000000,0.000000000,0.000000000,0.000000000,1.392336294,0.000000000,4.148973465
1772429358.676564455,0.019780000,0.005601000,0.071970000,-0.007990960,0.019388600,0.018130620,0.999615680,-0.015285000,0.039062000,0.035973000,0.000381294,-0.000158955,0.000191511,-0.001356118,0.008060977,0.001884933,0.014972393,-0.004252247,0.997101673,0.002582897,-0.000339311,-0.003207057,0.000000000,0.000000000,0.000000000,0.000000000,0.020712309,0.005765645,0.071954952,0.048232027,0.008293370,-0.001160721,0.013827387,0.000984338,-0.002816050,-0.302296492,0.046931349,1.391136394,-0.002632863,-0.000441547,0.012138523,0.999921882,0.000000000,0.000000000,0.000000000,0.000000000,0.000000000,0.000000000,1.390555091,0.000000000,4.148973465
1772429358.686564445,0.019789000,0.005599000,0.071982000,-0.007986710,0.019480000,0.018093630,0.999614610,-0.015275000,0.039244000,0.035897000,0.000548485,-0.000263889,0.000330944,-0.003876602,0.012600485,-0.004245831,0.015184922,-0.005334712,0.999337452,-0.000873197,0.001859084,-0.000711347,0.000000000,0.000000000,0.000000000,0.000000000,0.020717203,0.005762693,0.071956356,0.048282634,0.008183063,-0.001370492,0.014235970,0.000745664,-0.001336166,-0.301531263,0.047458888,1.389050078,-0.002626138,-0.000446021,0.012120308,0.999922105,0.000000000,0.000000000,0.000000000,0.000000000,0.000000000,0.000000000,1.388622018,0.000000000,4.148973465
1772429358.696564913,0.019795000,0.005601000,0.071992000,-0.008007990,0.019492740,0.017998270,0.999615910,-0.015321000,0.039269000,0.035706000,0.000384422,-0.000260257,0.000176069,-0.004997743,0.011222589,-0.008801010,0.013856495,-0.004447059,0.999751290,-0.000290554,0.001637324,-0.003149960,0.000000000,0.000000000,0.000000000,0.000000000,0.020722986,0.005760490,0.071960946,0.048352944,0.008032276,-0.001353438,0.013657011,0.001232718,-0.000166802,-0.300935458,0.047633140,1.387356837,-0.002620927,-0.000447440,0.012105531,0.999922289,0.000000000,0.000000000,0.000000000,0.000000000,0.000000000,0.000000000,1.386913257,0.000000000,4.148973465
1772429358.706565142,0.019795000,0.005594000,0.071985000,-0.008060750,0.019547740,0.017934000,0.999615570,-0.015427000,0.039380000,0.035574000,0.000066472,-0.000103011,0.000071873,-0.005178600,0.000393862,-0.009090435,0.013864693,-0.002591423,1.001045345,0.000457603,-0.002653684,0.004362820,0.000000000,0.000000000,0.000000000,0.000000000,0.020726436,0.005755755,0.071961023,0.048322957,0.007992101,-0.001321224,0.012956195,0.002444825,0.000383770,-0.300887857,0.047101786,1.385803674,-0.002620573,-0.000442763,0.012091991,0.999922455,0.000000000,0.000000000,0.000000000,0.000000000,0.000000000,0.000000000,1.385278598,0.000000000,4.148973465
1772429358.716565609,0.019798000,0.005589000,0.071986000,-0.008090310,0.019446610,0.017939810,0.999617200,-0.015489000,0.039179000,0.035586000,-0.000318668,0.000093007,-0.000124612,-0.001478124,-0.004332969,-0.003204987,0.015339040,-0.003079235,0.999670392,-0.004956365,-0.000418378,-0.003014548,0.000000000,0.000000000,0.000000000,0.000000000,0.020728938,0.005751393,0.071961383,0.048295044,0.008070460,-0.001205130,0.013592581,0.002530834,0.000848455,-0.300864966,0.045382959,1.384242248,-0.002620561,-0.000427726,0.012078406,0.999922550,0.000000000,0.000000000,0.000000000,0.000000000,0.000000000,0.000000000,1.383949783,0.000000000,4.148973465
1772429358.726565838,0.019787000,0.005596000,0.071978000,-0.008112420,0.019403180,0.017905120,0.999618480,-0.015536000,0.039092000,0.035516000,-0.000456760,0.000294794,-0.000236811,0.001978264,-0.007744515,0.002867491,0.014815021,-0.004983190,1.001247913,0.001063251,-0.001270758,-0.003313190,0.000000000,0.000000000,0.000000000,0.000000000,0.020727732,0.005750871,0.071960204,0.048319119,0.008069800,-0.001152503,0.014449210,0.000962075,0.000096351,-0.301469490,0.045219832,1.383042497,-0.002625858,-0.000426339,0.012067938,0.999922694,0.000000000,0.000000000,0.000000000,0.000000000,0.000000000,0.000000000,1.382603940,0.000000000,4.148973465
