t,px,py,pz,qx,qy,qz,qw,roll,pitch,yaw,vx,vy,vz,wx_vicon,wy_vicon,wz_vicon,imu_acc_x,imu_acc_y,imu_acc_z,imu_gyro_x,imu_gyro_y,imu_gyro_z,motor_motor_m1,motor_motor_m2,motor_motor_m3,motor_motor_m4,est_stateEstimate_x,est_stateEstimate_y,est_stateEstimate_z,est_stateEstimate_vx,est_stateEstimate_vy,est_stateEstimate_vz,est_stateEstimate_ax,est_stateEstimate_ay,est_stateEstimate_az,att_stateEstimate_roll,att_stateEstimate_pitch,att_stateEstimate_yaw,att_stateEstimate_qx,att_stateEstimate_qy,att_stateEstimate_qz,att_stateEstimate_qw,sp_ctrltarget_x,sp_ctrltarget_y,sp_ctrltarget_z,sp_ctrltarget_yaw,pid_controller_roll,pid_controller_pitch,pid_controller_yaw,pid_controller_cmd_thrust,pwr_pm_vbat
1772725133.589071274,0.015840000,0.007817000,0.072050000,0.023824770,0.024395000,-0.000997990,0.999417960,0.047648000,0.048829000,-0.000833000,-0.001101186,0.000113229,0.001042464,-0.027391122,0.002508936,0.007027255,0.006193637,-0.006137744,1.000590975,-0.000330566,0.005743128,0.001346255,0.000000000,0.000000000,0.000000000,0.000000000,0.016656277,0.007040459,0.071999775,0.042616099,-0.040745308,-0.001943867,0.012339452,-0.012735803,0.000329548,0.392256685,-0.372178751,-0.050747950,0.003424495,0.003246335,-0.000453972,0.999987774,0.000000000,0.000000000,0.000000000,0.000000000,0.000000000,0.000000000,0.194956720,0.000000000,4.201759815
1772725133.599072218,0.015842000,0.007813000,0.072039000,0.023853310,0.024440720,-0.000906730,0.999416250,0.047710000,0.048916000,-0.000647000,-0.000732538,0.000207984,0.000164258,-0.003536339,0.005281676,0.008278094,0.005498699,-0.003514063,1.000369772,-0.001800151,0.002210461,0.002570879,0.000000000,0.000000000,0.000000000,0.000000000,0.016653510,0.007033554,0.072004187,0.042676548,-0.040899330,-0.001829284,0.012420966,-0.010737323,0.000429154,0.392249408,-0.373797091,-0.049945575,0.003424415,0.003260481,-0.000447018,0.999987730,0.000000000,0.000000000,0.000000000,0.000000000,0.000000000,0.000000000,0.194956720,0.000000000,4.201759815
1772725133.609072685,0.015829000,0.007820000,0.072050000,0.023840490,0.024394050,-0.000830830,0.999417770,0.047688000,0.048819000,-0.000498000,-0.000385451,0.000260431,-0.000342153,0.010853903,0.002447980,0.008638437,0.004967241,-0.003896500,0.999304800,0.000677023,-0.001006420,-0.001623366,0.000000000,0.000000000,0.000000000,0.000000000,0.016654267,0.007033111,0.072007726,0.042711132,-0.040844505,-0.001741162,0.011804271,-0.010828141,0.000096168,0.391286020,-0.375177905,-0.049719020,0.003416007,0.003272541,-0.000445055,0.999987721,0.000000000,0.000000000,0.000000000,0.000000000,0.000000000,0.000000000,0.194956720,0.000000000,4.201759815
1772725133.619072914,0.015826000,0.007823000,0.072051000,0.023839090,0.024453700,-0.000884060,0.999416300,0.047682000,0.048941000,-0.000602000,-0.000084402,0.000275466,-0.000552293,0.017499757,-0.004161126,0.008220169,0.004555442,-0.005164818,1.002745912,-0.000060859,0.000450002,0.000363507,0.000000000,0.000000000,0.000000000,0.000000000,0.016652251,0.007035596,0.072011872,0.042695543,-0.040804868,-0.001664436,0.011480727,-0.012431876,0.001565571,0.391992425,-0.374315763,-0.050621856,0.003422193,0.003264988,-0.000452928,0.999987721,0.000000000,0.000000000,0.000000000,0.000000000,0.000000000,0.000000000,0.194956720,0.000000000,4.201759815
1772725133.629073143,0.015817000,0.007821000,0.072049000,0.023881770,0.024424560,-0.000898380,0.999415980,0.047767000,0.048883000,-0.000630000,0.000146135,0.000257984,-0.000541687,0.018125740,-0.012720987,0.007133216,0.004625351,-0.005730422,1.000844918,0.000206729,-0.003414774,-0.001852937,0.000000000,0.000000000,0.000000000,0.000000000,0.016653968,0.007033938,0.072016033,0.042659183,-0.040858661,-0.001483821,0.010773158,-0.012105678,0.001349412,0.392037555,-0.375083423,-0.050816524,0.003422596,0.003271681,-0.000454651,0.999987721,0.000000000,0.000000000,0.000000000,0.000000000,0.000000000,0.000000000,0.194956720,0.000000000,4.201759815
1772725133.639073849,0.015829000,0.007838000,0.072030000,0.024087390,0.024352410,-0.000821100,0.999412870,0.048182000,0.048735000,-0.000469000,0.000281682,0.000212879,-0.000385859,0.014451353,-0.021406349,0.005493801,0.004973281,-0.005595509,0.999129200,-0.003155618,0.000329186,0.001968897,0.000000000,0.000000000,0.000000000,0.000000000,0.016350526,0.007329373,0.072022437,0.036813895,-0.035507512,-0.001122971,0.009898614,-0.010454188,0.000412740,0.283517219,-0.264755354,-0.052249252,0.002475194,0.002309292,-0.000461784,0.999990760,0.000000000,0.000000000,0.000000000,0.000000000,0.000000000,0.000000000,0.194956720,0.000000000,4.201759815
1772725133.649073839,0.015840000,0.007824000,0.072017000,0.024219670,0.024017830,-0.000647010,0.999417900,0.048455000,0.048058000,-0.000130000,0.000285024,0.000067366,-0.000258528,0.011928515,-0.029303265,0.004370562,0.004682627,-0.004324048,1.000582671,-0.001115342,-0.002001178,-0.000229570,0.000000000,0.000000000,0.000000000,0.000000000,0.015927922,0.007739199,0.072028220,0.028832098,-0.028086189,-0.000857158,0.009212018,-0.008844892,0.000146372,0.290598018,-0.272376830,-0.052931743,0.002537031,0.002375757,-0.000467941,0.999992847,0.000000000,0.000000000,0.000000000,0.000000000,0.000000000,0.000000000,0.194956720,0.000000000,4.201759815
1772725133.659074068,0.015845000,0.007824000,0.072033000,0.024157940,0.024095780,-0.000741710,0.999417450,0.048327000,0.048218000,-0.000319000,-0.000053943,0.000000369,0.000030964,-0.000748527,-0.029189525,0.000950495,0.005189800,-0.003427390,1.000544482,0.001647301,-0.000962303,-0.000510902,0.000000000,0.000000000,0.000000000,0.000000000,0.016043095,0.007619965,0.072030809,0.029814751,-0.029025505,-0.000830345,0.010421046,-0.008650920,-0.000055755,0.297963694,-0.280410375,-0.053720172,0.002601358,0.002445815,-0.000475160,0.999992482,0.000000000,0.000000000,0.000000000,0.000000000,0.000000000,0.000000000,0.194956720,0.000000000,4.201759815
1772725133.669074774,0.015822000,0.007827000,0.072044000,0.024065430,0.023977650,-0.000797140,0.999422480,0.048139000,0.047984000,-0.000440000,-0.000166978,0.000005264,0.000073815,-0.009299777,-0.022633617,-0.003716474,0.006038358,-0.003265269,0.998698993,0.000970054,0.000128656,0.001097458,0.000000000,0.000000000,0.000000000,0.000000000,0.016236188,0.007437994,0.072022832,0.030913723,-0.030035927,-0.000755769,0.011095840,-0.008712354,-0.001249687,0.304810580,-0.287598579,-0.054197490,0.002661147,0.002508504,-0.000479635,0.999992210,0.000000000,0.000000000,0.000000000,0.000000000,0.000000000,0.000000000,0.194956720,0.000000000,4.201759815
1772725133.679075241,0.015832000,0.007839000,0.072030000,0.024083840,0.023629530,-0.000839230,0.999430290,0.048173000,0.047290000,-0.000540000,-0.000376690,0.000007517,-0.000039569,-0.010110408,-0.014783398,-0.003725106,0.005354453,-0.003685346,0.998387160,-0.001664449,-0.003294469,-0.000384513,0.000000000,0.000000000,0.000000000,0.000000000,0.016344596,0.007325602,0.072020574,0.031941949,-0.030847350,-0.000865291,0.010369709,-0.009213909,-0.001787647,0.308646914,-0.291058171,-0.053934474,0.002694633,0.002538684,-0.000477505,0.999992024,0.000000000,0.000000000,0.000000000,0.000000000,0.000000000,0.000000000,0.194956720,0.000000000,4.201759815
1772725133.689075947,0.015824000,0.007823000,0.072035000,0.024068420,0.023708160,-0.000782060,0.999428850,0.048145000,0.047445000,-0.000422000,-0.000120571,0.000208722,-0.000158431,-0.003836409,-0.002634579,-0.001737754,0.005325793,-0.004289261,0.999414510,-0.001005093,0.000037876,-0.001857879,0.000000000,0.000000000,0.000000000,0.000000000,0.016404115,0.007269228,0.072013368,0.032665519,-0.031418504,-0.001043455,0.010806878,-0.010026700,-0.000595644,0.308093279,-0.289971598,-0.054128246,0.002689802,0.002529200,-0.000479158,0.999992073,0.000000000,0.000000000,0.000000000,0.000000000,0.000000000,0.000000000,0.194956720,0.000000000,4.201759815
1772725133.699075937,0.015823000,0.007829000,0.072026000,0.023857990,0.023826980,-0.000820660,0.999431040,0.047722000,0.047684000,-0.000504000,-0.000065929,0.000063850,-0.000070668,0.000979559,0.005339141,0.004184484,0.005447454,-0.004081566,1.000704815,-0.000619103,0.000871226,0.000748838,0.000000000,0.000000000,0.000000000,0.000000000,0.016447429,0.007235286,0.072007598,0.033327151,-0.032031772,-0.001111366,0.010397810,-0.009154236,0.000881280,0.307311323,-0.289808074,-0.054430492,0.002682984,0.002527769,-0.000481774,0.999992073,0.000000000,0.000000000,0.000000000,0.000000000,0.000000000,0.000000000,0.194956720,0.000000000,4.201759815
1772725133.709076643,0.015835000,0.007834000,0.072022000,0.024095950,0.023762700,-0.000763500,0.999426900,0.048201000,0.047553000,-0.000381000,0.000046018,0.000062102,0.000242638,0.003711199,0.013845684,0.002824323,0.004886564,-0.004516308,1.000907091,0.000750551,0.000164932,0.000092237,0.000000000,0.000000000,0.000000000,0.000000000,0.016468376,0.007216250,0.072013715,0.033852349,-0.032459480,-0.000980445,0.009888696,-0.009768599,0.000589500,0.306421908,-0.290684376,-0.054183615,0.002675220,0.002535426,-0.000479621,0.999992073,0.000000000,0.000000000,0.000000000,0.000000000,0.000000000,0.000000000,0.194956720,0.000000000,4.201759815
1772725133.719076872,0.015822000,0.007832000,0.072032000,0.024122130,0.023826600,-0.000727460,0.999424780,0.048255000,0.047679000,-0.000305000,-0.000220707,0.000118629,0.000312801,0.004255448,0.006148334,0.003204408,0.005029185,-0.004942249,0.999281235,-0.001646936,-0.001788145,-0.001282364,0.000000000,0.000000000,0.000000000,0.000000000,0.016478470,0.007203600,0.072021077,0.034231231,-0.032867375,-0.000849259,0.009901984,-0.010754551,-0.000746452,0.305921348,-0.290266526,-0.054485531,0.002670857,0.002531775,-0.000482235,0.999992117,0.000000000,0.000000000,0.000000000,0.000000000,0.000000000,0.000000000,0.194956720,0.000000000,4.201759815
1772725133.729077816,0.015831000,0.007836000,0.072046000,0.024072040,0.023999510,-0.000801200,0.999421790,0.048152000,0.048028000,-0.000447000,-0.000031216,0.000134538,0.000109577,0.004573496,-0.001393729,-0.000505286,0.004655513,-0.005691403,0.998688223,0.003329504,-0.003980353,0.005012767,0.000000000,0.000000000,0.000000000,0.000000000,0.016482295,0.007197374,0.072021843,0.034413251,-0.033113056,-0.000835547,0.009813644,-0.010720049,-0.001234026,0.306193210,-0.289248722,-0.054556217,0.002673227,0.002522890,-0.000482834,0.999992132,0.000000000,0.000000000,0.000000000,0.000000000,0.000000000,0.000000000,0.194956720,0.000000000,4.201759815
1772725133.739078045,0.015813000,0.007830000,0.072043000,0.024040230,0.023913600,-0.000725560,0.999424670,0.048092000,0.047853000,-0.000301000,0.000137879,-0.000276632,0.000056333,0.001447394,0.001108799,-0.002044204,0.005075167,-0.004520310,0.998904587,0.001507715,-0.000751015,0.003205726,0.000000000,0.000000000,0.000000000,0.000000000,0.016486839,0.007194729,0.072020605,0.034519256,-0.033251298,-0.000867805,0.010006349,-0.009979252,-0.000758497,0.306596240,-0.288173212,-0.054577309,0.002676740,0.002513502,-0.000483002,0.999992132,0.000000000,0.000000000,0.000000000,0.000000000,0.000000000,0.000000000,0.194956720,0.000000000,4.201759815
1772725133.749078274,0.015830000,0.007834000,0.072033000,0.024114470,0.023813090,-0.000800420,0.999425230,0.048237000,0.047655000,-0.000452000,0.000108217,-0.000430031,0.000007789,-0.004719605,0.009698859,-0.004805203,0.005494820,-0.003349217,0.999120950,-0.000314075,0.002478323,0.001398685,0.000000000,0.000000000,0.000000000,0.000000000,0.016491384,0.007192085,0.072019366,0.034625262,-0.033389539,-0.000900063,0.010199054,-0.009238456,-0.000282967,0.306999270,-0.287097702,-0.054598401,0.002680253,0.002504114,-0.000483169,0.999992132,0.000000000,0.000000000,0.000000000,0.000000000,0.000000000,0.000000000,0.194956720,0.000000000,4.201759815
1772725133.759078741,0.015822000,0.007829000,0.072028000,0.024070450,0.023745190,-0.000746730,0.999427950,0.048151000,0.047517000,-0.000350000,0.000335412,-0.000466958,0.000153128,-0.005366492,0.017088069,-0.006158663,0.005585895,-0.002707273,0.998202050,-0.001099991,0.003198654,-0.000584950,0.000000000,0.000000000,0.000000000,0.000000000,0.016497427,0.007181000,0.072014457,0.034905981,-0.033774875,-0.000980710,0.009840136,-0.008135681,-0.001948913,0.307013457,-0.286487946,-0.054721852,0.002680377,0.002498790,-0.000484233,0.999992144,0.000000000,0.000000000,0.000000000,0.000000000,0.000000000,0.000000000,0.194956720,0.000000000,4.201759815
1772725133.769078732,0.015840000,0.007820000,0.072037000,0.024044090,0.024135630,-0.000895600,0.999419110,0.048092000,0.048305000,-0.000630000,-0.000017502,-0.000212141,0.000242055,-0.005732149,0.019417987,-0.005958745,0.005269196,-0.003766696,0.998322912,-0.002024832,-0.001219906,-0.001360718,0.000000000,0.000000000,0.000000000,0.000000000,0.016511363,0.007168654,0.072016630,0.035229882,-0.033891188,-0.001095291,0.010133521,-0.009065514,-0.001469212,0.305991177,-0.286975212,-0.055018427,0.002671465,0.002503040,-0.000486810,0.999992192,0.000000000,0.000000000,0.000000000,0.000000000,0.000000000,0.000000000,0.194956720,0.000000000,4.201759815
1772725133.779079676,0.015834000,0.007811000,0.072046000,0.023995960,0.024192520,-0.000823800,0.999418950,0.047999000,0.048415000,-0.000486000,-0.000036403,0.000141453,0.000258489,-0.007899717,0.015145898,-0.007313276,0.005725207,-0.005013437,0.999593014,0.000188300,-0.001761296,-0.001131277,0.000000000,0.000000000,0.000000000,0.000000000,0.016516453,0.007158525,0.072020855,0.035492863,-0.034062565,-0.001246791,0.010495799,-0.010700052,-0.000115876,0.304670611,-0.286101993,-0.055361752,0.002659945,0.002495417,-0.000489757,0.999992227,0.000000000,0.000000000,0.000000000,0.000000000,0.000000000,0.000000000,0.194956720,0.000000000,4.201759815
1772725133.789079666,0.015819000,0.007821000,0.072052000,0.023946890,0.024308080,-0.000874960,0.999417280,0.047898000,0.048649000,-0.000585000,-0.000250097,0.000034790,0.000118396,-0.008010508,0.008692032,0.000274887,0.006505895,-0.004656804,0.999305906,0.002139886,0.001636959,0.001041351,0.000000000,0.000000000,0.000000000,0.000000000,0.016516431,0.007156392,0.072024457,0.035732185,-0.034350776,-0.001210734,0.011895050,-0.009289406,-0.000974315,0.304433860,-0.283994335,-0.055871088,0.002657881,0.002477014,-0.000494148,0.999992311,0.000000000,0.000000000,0.000000000,0.000000000,0.000000000,0.000000000,0.194956720,0.000000000,4.201759815
1772725133.799079418,0.015834000,0.007825000,0.072049000,0.023884990,0.024230470,-0.000897560,0.999420620,0.047773000,0.048495000,-0.000637000,-0.000381896,-0.000525408,0.000741667,-0.025139345,0.023592078,-0.000169149,0.006309840,-0.004389923,0.999177817,0.002523144,0.000241666,-0.000405594,0.000000000,0.000000000,0.000000000,0.000000000,0.016523372,0.007155847,0.072023084,0.036081881,-0.034578898,-0.001241827,0.011409678,-0.009884451,-0.000931590,0.305168425,-0.284008547,-0.055812644,0.002664290,0.002477136,-0.000493654,0.999992292,0.000000000,0.000000000,0.000000000,0.000000000,0.000000000,0.000000000,0.194956720,0.000000000,4.201759815
1772725133.809080362,0.015813000,0.007835000,0.072032000,0.023969600,0.024013220,-0.000837740,0.999423900,0.047945000,0.048057000,-0.000524000,0.000492697,0.000028399,-0.000903497,0.007930417,-0.034157814,0.014622344,0.005400864,-0.004619113,0.999059024,-0.001332903,0.001099852,0.002076406,0.000000000,0.000000000,0.000000000,0.000000000,0.016525251,0.007155135,0.072015092,0.036402102,-0.034794016,-0.001311281,0.010083076,-0.010301526,-0.000469799,0.305693963,-0.283597416,-0.055690489,0.002668872,0.002473549,-0.000492590,0.999992251,0.000000000,0.000000000,0.000000000,0.000000000,0.000000000,0.000000000,0.194956720,0.000000000,4.201759815
1772725133.819081306,0.015838000,0.007819000,0.072037000,0.023894350,0.023995420,-0.000810270,0.999426150,0.047796000,0.048020000,-0.000473000,0.001014065,0.000449612,-0.001680208,0.049347407,-0.079614693,0.024478274,0.005291897,-0.006076488,0.999166923,-0.000418658,-0.003279445,0.001632946,0.000000000,0.000000000,0.000000000,0.000000000,0.016537519,0.007139030,0.072015344,0.036640756,-0.035092264,-0.001336255,0.009675028,-0.011000685,-0.000803245,0.304706589,-0.282368872,-0.054115142,0.002660216,0.002462868,-0.000478792,0.999992292,0.000000000,0.000000000,0.000000000,0.000000000,0.000000000,0.000000000,0.194956720,0.000000000,4.201759815
1772725133.829081535,0.015831000,0.007797000,0.072044000,0.023956820,0.024104010,-0.000603390,0.999422180,0.047931000,0.048228000,-0.000051000,0.000958179,0.000626108,-0.001630946,0.072441379,-0.103704131,0.028532866,0.004931082,-0.006160661,1.000538273,-0.001000205,-0.001049061,0.001358283,0.000000000,0.000000000,0.000000000,0.000000000,0.016545476,0.007126974,0.072017019,0.036786984,-0.035452333,-0.001362694,0.009733059,-0.011040467,0.000699970,0.303553684,-0.280942353,-0.053363267,0.002650134,0.002450442,-0.000472173,0.999992361,0.000000000,0.000000000,0.000000000,0.000000000,0.000000000,0.000000000,0.194956720,0.000000000,4.201759815
1772725133.839082003,0.015840000,0.007809000,0.072044000,0.024024730,0.023729260,-0.000679050,0.999429470,0.048062000,0.047482000,-0.000217000,0.000313345,0.000777759,-0.000989278,0.068021019,-0.095278337,0.018061034,0.004572205,-0.004278078,1.002002884,-0.000801798,0.001524452,0.000280441,0.000000000,0.000000000,0.000000000,0.000000000,0.016576634,0.007156486,0.071952501,0.036968909,-0.035685084,-0.001524205,0.009123578,-0.009559398,0.002083723,0.303220611,-0.281189727,-0.053232844,0.002647225,0.002452605,-0.000471034,0.999992371,0.000000000,0.000000000,0.000000000,0.000000000,0.000000000,0.000000000,0.194956720,0.000000000,4.201759815
1772725133.849082708,0.015898000,0.007891000,0.071899000,0.025921020,0.021094530,-0.000242600,0.999441380,0.051872000,0.042191000,0.000609000,-0.000164647,0.000749884,-0.000252195,0.041661679,-0.062101432,0.002639447,0.004337036,-0.004361282,1.002060283,0.000724082,0.003658786,0.001857470,0.000000000,0.000000000,0.000000000,0.000000000,0.016576605,0.007160112,0.071948534,0.036971214,-0.035752692,-0.001429242,0.008497455,-0.009155536,0.002233712,0.302909909,-0.281081602,-0.053551953,0.002644520,0.002451656,-0.000473809,0.999992371,0.000000000,0.000000000,0.000000000,0.000000000,0.000000000,0.000000000,0.194956720,0.000000000,4.201759815
1772725133.859083176,0.015829000,0.007844000,0.072019000,0.025279130,0.022329110,-0.000475930,0.999430910,0.050580000,0.044672000,0.000178000,-0.000981955,0.000416007,0.000564764,0.001155009,-0.011828579,-0.012050704,0.004101872,-0.004444483,1.002117679,0.002249926,0.005793068,0.003434461,0.000000000,0.000000000,0.000000000,0.000000000,0.016569825,0.007157147,0.071958958,0.036939540,-0.035799815,-0.001280779,0.009502404,-0.009133603,0.001420086,0.302599216,-0.280973481,-0.053871055,0.002641815,0.002450706,-0.000476585,0.999992371,0.000000000,0.000000000,0.000000000,0.000000000,0.000000000,0.000000000,0.194956720,0.000000000,4.201759815
1772725133.869083643,0.015829000,0.007835000,0.072031000,0.024747940,0.022740940,-0.000669930,0.999434810,0.049509000,0.045505000,-0.000214000,-0.000875758,-0.000458373,0.001396796,-0.044285224,0.048721723,-0.021269558,0.004697311,-0.004120934,1.001651994,0.001036794,0.001558199,0.003702205,0.000000000,0.000000000,0.000000000,0.000000000,0.016562605,0.007153034,0.071971514,0.036917634,-0.035860566,-0.001111622,0.010507354,-0.009111669,0.000606459,0.302644700,-0.281514736,-0.053389804,0.002642204,0.002455440,-0.000472399,0.999992371,0.000000000,0.000000000,0.000000000,0.000000000,0.000000000,0.000000000,0.194956720,0.000000000,4.201759815
1772725133.879083633,0.015815000,0.007835000,0.072036000,0.024388650,0.023084140,-0.000831590,0.999435650,0.048783000,0.046199000,-0.000537000,-0.000675273,-0.001085860,0.001757636,-0.071135503,0.093296892,-0.023820031,0.005035319,-0.003598411,1.000903875,0.001461591,-0.000456919,0.003014432,0.000000000,0.000000000,0.000000000,0.000000000,0.016552684,0.007143672,0.071994000,0.036958502,-0.035981828,-0.000836924,0.010166256,-0.008773098,0.001531756,0.303177910,-0.282425175,-0.051904638,0.002646829,0.002463417,-0.000459471,0.999992371,0.000000000,0.000000000,0.000000000,0.000000000,0.000000000,0.000000000,0.194956720,0.000000000,4.201759815
1772725133.889083624,0.015826000,0.007832000,0.072034000,0.024216700,0.023376930,-0.000810040,0.999433050,0.048440000,0.046784000,-0.000487000,-0.000113636,-0.000857343,0.001221602,-0.070420822,0.094006143,-0.023912421,0.004675486,-0.004841550,0.999266566,0.000006515,0.002515750,0.001022551,0.000000000,0.000000000,0.000000000,0.000000000,0.016543977,0.007138006,0.072008809,0.037042742,-0.036060961,-0.000630720,0.010007100,-0.010816943,-0.001491612,0.303358644,-0.283142887,-0.050758900,0.002648384,0.002469706,-0.000449493,0.999992351,0.000000000,0.000000000,0.000000000,0.000000000,0.000000000,0.000000000,0.194956720,0.000000000,4.201759815
1772725133.899083853,0.015820000,0.007820000,0.072046000,0.023991320,0.023655700,-0.000832190,0.999431900,0.047988000,0.047342000,-0.000529000,0.000691978,-0.000202836,-0.000298233,-0.030191908,0.043907360,-0.009726823,0.004782860,-0.004929842,0.999780946,-0.002559509,0.001973142,-0.001501302,0.000000000,0.000000000,0.000000000,0.000000000,0.016544572,0.007131634,0.072017401,0.037103167,-0.036205288,-0.000628722,0.009366050,-0.010422801,0.000033632,0.303101091,-0.284338195,-0.050513626,0.002646136,0.002480144,-0.000447374,0.999992333,0.000000000,0.000000000,0.000000000,0.000000000,0.000000000,0.000000000,0.194956720,0.000000000,4.201759815
1772725133.909084082,0.015845000,0.007815000,0.072043000,0.023902610,0.023921850,-0.000841840,0.999427690,0.047811000,0.047875000,-0.000540000,0.000180400,-0.000273213,0.000171387,-0.022156459,0.040378605,-0.005883256,0.005132955,-0.004028204,1.000368854,0.000086947,0.002679751,0.002196884,0.000000000,0.000000000,0.000000000,0.000000000,0.016548389,0.007120593,0.072026294,0.037170109,-0.036417942,-0.000622578,0.010402943,-0.008777369,0.000963694,0.301966990,-0.285127544,-0.051273917,0.002636258,0.002487019,-0.000454003,0.999992371,0.000000000,0.000000000,0.000000000,0.000000000,0.000000000,0.000000000,0.194956720,0.000000000,4.201759815
1772725133.919084311,0.015832000,0.007827000,0.072043000,0.023881930,0.024032500,-0.000983810,0.999425400,0.047763000,0.048103000,-0.000820000,-0.000006352,0.000106624,-0.000153186,-0.010845716,0.018693181,0.000086395,0.005219645,-0.003152084,0.999959996,0.002202134,-0.003032184,0.001292855,0.000000000,0.000000000,0.000000000,0.000000000,0.016556414,0.007115647,0.072029671,0.037284577,-0.036467872,-0.000523105,0.009875602,-0.008910853,-0.000208672,0.301937986,-0.286744176,-0.050166244,0.002635987,0.002501153,-0.000444373,0.999992332,0.000000000,0.000000000,0.000000000,0.000000000,0.000000000,0.000000000,0.194956720,0.000000000,4.201759815
1772725133.929085016,0.015827000,0.007823000,0.072045000,0.023694530,0.024211320,-0.000993790,0.999425530,0.047387000,0.048461000,-0.000840000,-0.000339666,0.000648155,-0.000349515,-0.000226449,-0.000433841,0.000180118,0.006199496,-0.004117616,0.999508099,-0.001086970,0.000753809,0.001046379,0.000000000,0.000000000,0.000000000,0.000000000,0.016555824,0.007115781,0.072032040,0.037386144,-0.036449037,-0.000495293,0.011395143,-0.008927265,-0.000558436,0.302272317,-0.286244404,-0.050178118,0.002638903,0.002496790,-0.000444473,0.999992311,0.000000000,0.000000000,0.000000000,0.000000000,0.000000000,0.000000000,0.194956720,0.000000000,4.201759815
1772725133.939085245,0.015827000,0.007811000,0.072050000,0.023635660,0.024232460,-0.000890730,0.999426510,0.047274000,0.048498000,-0.000636000,-0.000183236,0.000507460,-0.000363831,0.008032024,-0.005712243,0.001667972,0.006158302,-0.004413518,0.998989682,0.000575159,-0.003291409,-0.000968442,0.000000000,0.000000000,0.000000000,0.000000000,0.016555609,0.007113369,0.072034048,0.037520916,-0.036447574,-0.000502969,0.012002960,-0.009709906,-0.001201962,0.302015347,-0.285640088,-0.050146091,0.002636658,0.002491518,-0.000444174,0.999992331,0.000000000,0.000000000,0.000000000,0.000000000,0.000000000,0.000000000,0.194956720,0.000000000,4.201759815
1772725133.949085712,0.015821000,0.007842000,0.072026000,0.023888530,0.023907800,-0.000827590,0.999428370,0.047783000,0.047846000,-0.000513000,-0.000225719,0.000217910,-0.000125758,0.010975716,-0.005328931,0.003965482,0.006053222,-0.004657646,0.998467908,0.002551268,-0.007854479,-0.003096014,0.000000000,0.000000000,0.000000000,0.000000000,0.016556318,0.007109807,0.072035858,0.037644005,-0.036493266,-0.000531803,0.011513613,-0.010015126,-0.000599614,0.301629033,-0.285191843,-0.049971347,0.002633281,0.002487612,-0.000442630,0.999992361,0.000000000,0.000000000,0.000000000,0.000000000,0.000000000,0.000000000,0.194956720,0.000000000,4.201759815
1772725133.959085464,0.015825000,0.007847000,0.072025000,0.024027270,0.023803600,-0.000816790,0.999427540,0.048061000,0.047637000,-0.000489000,0.000154682,0.000017113,-0.000066783,0.012727249,-0.007217649,0.003232245,0.005901024,-0.004732032,0.999117411,0.001536213,-0.005970503,-0.003084162,0.000000000,0.000000000,0.000000000,0.000000000,0.016556505,0.007109672,0.072035304,0.037714195,-0.036522151,-0.000554021,0.010746996,-0.010199653,0.000317583,0.301547143,-0.284594800,-0.050189149,0.002632569,0.002482397,-0.000444515,0.999992380,0.000000000,0.000000000,0.000000000,0.000000000,0.000000000,0.000000000,0.194956720,0.000000000,4.201759815
1772725133.969085932,0.015825000,0.007839000,0.072041000,0.023938480,0.024036380,-0.001002700,0.999423930,0.047875000,0.048112000,-0.000854000,0.000181216,-0.000201865,0.000090093,0.010805175,-0.011047895,-0.001992874,0.005745206,-0.004793422,0.999856677,0.000291969,-0.003592568,-0.002908439,0.000000000,0.000000000,0.000000000,0.000000000,0.016556241,0.007112508,0.072032701,0.037738529,-0.036536469,-0.000570506,0.010184595,-0.010254858,0.000899629,0.301543848,-0.283959283,-0.050508324,0.002632545,0.002476844,-0.000447286,0.999992394,0.000000000,0.000000000,0.000000000,0.000000000,0.000000000,0.000000000,0.194956720,0.000000000,4.201759815
1772725133.979086399,0.015836000,0.007808000,0.072044000,0.023932240,0.024203970,-0.000892390,0.999420140,0.047868000,0.048442000,-0.000626000,0.000132149,-0.000612724,0.000384965,0.001118040,-0.006000849,-0.000449995,0.005589388,-0.004854811,1.000595944,-0.000952274,-0.001214633,-0.002732716,0.000000000,0.000000000,0.000000000,0.000000000,0.016555977,0.007115345,0.072030097,0.037762862,-0.036550787,-0.000586991,0.010127323,-0.009990238,0.000652736,0.301540552,-0.283323767,-0.050827500,0.002632520,0.002471290,-0.000450056,0.999992408,0.000000000,0.000000000,0.000000000,0.000000000,0.000000000,0.000000000,0.194956720,0.000000000,4.201759815
1772725133.989085913,0.015820000,0.007828000,0.072042000,0.023965740,0.023927910,-0.000825020,0.999426040,0.047938000,0.047886000,-0.000503000,0.000156100,-0.000810199,0.000502118,-0.007811863,0.000301080,0.002419799,0.005433585,-0.004916195,1.001335141,-0.002196399,0.001163076,-0.002557010,0.000000000,0.000000000,0.000000000,0.000000000,0.016555714,0.007118180,0.072027494,0.037787194,-0.036565104,-0.000603475,0.010070056,-0.009725644,0.000405866,0.301537257,-0.282688312,-0.051146645,0.002632496,0.002465738,-0.000452827,0.999992421,0.000000000,0.000000000,0.000000000,0.000000000,0.000000000,0.000000000,0.194956720,0.000000000,4.201759815
1772725133.999086618,0.015836000,0.007824000,0.072037000,0.023988880,0.023715120,-0.000902180,0.999430490,0.047980000,0.047464000,-0.000666000,0.000050544,-0.000273932,0.000131721,-0.004603408,-0.000858404,0.005541424,0.004644456,-0.004521007,1.000237462,0.000735750,-0.001296566,-0.001300946,0.000000000,0.000000000,0.000000000,0.000000000,0.016555912,0.007121689,0.072024432,0.037822118,-0.036585815,-0.000605632,0.010012783,-0.009461018,0.000158968,0.301140259,-0.282800312,-0.051344311,0.002629037,0.002466712,-0.000454546,0.999992430,0.000000000,0.000000000,0.000000000,0.000000000,0.000000000,0.000000000,0.194956720,0.000000000,4.201759815
1772725134.009087086,0.015829000,0.007810000,0.072048000,0.023937440,0.023813800,-0.000874410,0.999429410,0.047879000,0.047660000,-0.000608000,0.000015754,0.000119328,-0.000103885,-0.000927783,0.008521098,0.005036835,0.004310518,-0.004738323,0.999897855,0.000692812,-0.001070712,-0.001459764,0.000000000,0.000000000,0.000000000,0.000000000,0.016558273,0.007128062,0.072019641,0.037902938,-0.036637093,-0.000543328,0.009435633,-0.009866010,-0.000384291,0.300780833,-0.282388902,-0.051770322,0.002625908,0.002463114,-0.000458246,0.999992430,0.000000000,0.000000000,0.000000000,0.000000000,0.000000000,0.000000000,0.194956720,0.000000000,4.201759815
1772725134.019087315,0.015828000,0.007810000,0.072053000,0.023860560,0.024098460,-0.000741540,0.999424530,0.047732000,0.048223000,-0.000333000,-0.000250000,0.000311053,-0.000123446,0.001352569,0.019950554,0.001290621,0.004505478,-0.005239724,0.999744064,-0.001100649,0.000095862,-0.000944458,0.000000000,0.000000000,0.000000000,0.000000000,0.016559962,0.007127020,0.072025079,0.037883556,-0.036693462,-0.000562482,0.009488141,-0.010410665,-0.001018375,0.300523889,-0.280542878,-0.052705487,0.002623678,0.002446984,-0.000466359,0.999992436,0.000000000,0.000000000,0.000000000,0.000000000,0.000000000,0.000000000,0.194956720,0.000000000,4.201759815
1772725134.029087543,0.015833000,0.007821000,0.072042000,0.023869720,0.024171670,-0.000845240,0.999422460,0.047745000,0.048375000,-0.000536000,-0.000249845,0.000226477,-0.000273019,0.003948963,0.020546108,0.003545091,0.004836661,-0.004541640,0.999150089,-0.000295212,-0.001303458,0.002468648,0.000000000,0.000000000,0.000000000,0.000000000,0.016565914,0.007110765,0.072029181,0.037894677,-0.036883038,-0.000562937,0.009925666,-0.008953900,0.000084817,0.299690764,-0.279594129,-0.053138285,0.002616413,0.002438698,-0.000470097,0.999992491,0.000000000,0.000000000,0.000000000,0.000000000,0.000000000,0.000000000,0.194956720,0.000000000,4.201759815
1772725134.039088011,0.015824000,0.007831000,0.072034000,0.024040620,0.024137020,-0.000793300,0.999419240,0.048090000,0.048303000,-0.000426000,-0.000496174,0.000537724,-0.000425214,0.008543329,0.000309254,0.002417784,0.005394556,-0.002730988,1.000495956,-0.000255365,0.000388070,0.002907629,0.000000000,0.000000000,0.000000000,0.000000000,0.016563798,0.007109162,0.072029808,0.037900634,-0.036923502,-0.000582403,0.010280154,-0.008070945,0.000754907,0.299881446,-0.278267536,-0.053033531,0.002618070,0.002427123,-0.000469156,0.999992527,0.000000000,0.000000000,0.000000000,0.000000000,0.000000000,0.000000000,0.194956720,0.000000000,4.201759815
1772725134.049088717,0.015821000,0.007827000,0.072035000,0.024015110,0.024269630,-0.000803930,0.999416640,0.048038000,0.048569000,-0.000442000,-0.000032634,0.000363656,-0.000390288,0.012075486,-0.024485632,-0.003179082,0.005553175,-0.003375464,1.001015202,-0.002212920,0.000047784,0.003023643,0.000000000,0.000000000,0.000000000,0.000000000,0.016562661,0.007109224,0.072029584,0.037928111,-0.036905447,-0.000582051,0.010540499,-0.008076822,0.000693440,0.299627726,-0.278317204,-0.052685568,0.002615849,0.002427565,-0.000466116,0.999992549,0.000000000,0.000000000,0.000000000,0.000000000,0.000000000,0.000000000,0.194956720,0.000000000,4.201759815
1772725134.059089422,0.015811000,0.007830000,0.072035000,0.024075590,0.023979980,-0.000772990,0.999422200,0.048160000,0.047988000,-0.000391000,0.000325991,-0.000188151,0.000013811,0.009354713,-0.030227563,-0.002181171,0.005781757,-0.004656846,1.001066869,-0.003537437,-0.000777690,0.001800999,0.000000000,0.000000000,0.000000000,0.000000000,0.016561039,0.007114771,0.072028372,0.037963225,-0.036716893,-0.000508706,0.010074852,-0.010656885,0.001102624,0.296395582,-0.276252730,-0.052297951,0.002587627,0.002409571,-0.000462623,0.999992615,0.000000000,0.000000000,0.000000000,0.000000000,0.000000000,0.000000000,0.194956720,0.000000000,4.201759815
1772725134.069089174,0.015829000,0.007828000,0.072030000,0.024066520,0.023775290,-0.000785670,0.999427300,0.048141000,0.047579000,-0.000427000,0.000647747,-0.000448388,0.000277914,0.003720487,-0.029127894,0.001726554,0.006320290,-0.005408427,1.000970393,-0.002946149,-0.001110689,-0.000970329,0.000000000,0.000000000,0.000000000,0.000000000,0.016413675,0.007253140,0.072034386,0.036661290,-0.035549911,-0.000388655,0.010262417,-0.010701021,0.001038540,0.287173572,-0.266808356,-0.052269387,0.002507112,0.002327192,-0.000461981,0.999992988,0.000000000,0.000000000,0.000000000,0.000000000,0.000000000,0.000000000,0.194956720,0.000000000,4.201759815
1772725134.079089165,0.015826000,0.007829000,0.072035000,0.024145180,0.023572110,-0.000895510,0.999430120,0.048293000,0.047178000,-0.000652000,0.000837899,-0.000468182,0.000334732,-0.003653857,-0.017902286,0.001608630,0.006858836,-0.006160026,1.000873916,-0.002354848,-0.001443695,-0.003741723,0.000000000,0.000000000,0.000000000,0.000000000,0.016266307,0.007391512,0.072040400,0.035359323,-0.034382902,-0.000268600,0.010632566,-0.010042907,0.000843656,0.277951342,-0.257363758,-0.052240822,0.002426596,0.002244810,-0.000461339,0.999993361,0.000000000,0.000000000,0.000000000,0.000000000,0.000000000,0.000000000,0.194956720,0.000000000,4.201759815
1772725134.089089155,0.015855000,0.007812000,0.072044000,0.024114180,0.023596520,-0.000863360,0.999430320,0.048233000,0.047225000,-0.000588000,0.000300000,-0.000319348,0.000436908,-0.011817935,0.007006109,0.003300698,0.005981603,-0.004591818,1.000396414,-0.002731804,-0.001862632,-0.000019666,0.000000000,0.000000000,0.000000000,0.000000000,0.016226956,0.007428168,0.072043554,0.034856952,-0.033972722,-0.000167548,0.010970075,-0.009379301,0.000553859,0.276124386,-0.256177298,-0.052906831,0.002410661,0.002234450,-0.000467084,0.999993486,0.000000000,0.000000000,0.000000000,0.000000000,0.000000000,0.000000000,0.194956720,0.000000000,4.201759815
1772725134.099089146,0.015844000,0.007808000,0.072049000,0.024004140,0.023843190,-0.000696270,0.999427250,0.048021000,0.047711000,-0.000247000,-0.000155361,0.000027739,0.000305789,-0.020100280,0.024160131,0.002200402,0.006470611,-0.004009902,0.999341270,-0.001540165,-0.001608424,0.001073456,0.000000000,0.000000000,0.000000000,0.000000000,0.016361652,0.007301090,0.072041264,0.035703153,-0.034810800,-0.000125874,0.010882985,-0.008644253,-0.000970686,0.277737565,-0.259636229,-0.053273697,0.002424760,0.002264620,-0.000470389,0.999993384,0.000000000,0.000000000,0.000000000,0.000000000,0.000000000,0.000000000,0.194956720,0.000000000,4.201759815
1772725134.109089613,0.015839000,0.007822000,0.072042000,0.023942020,0.023696930,-0.000746810,0.999432180,0.047894000,0.047420000,-0.000358000,-0.000634325,0.000465851,-0.000208295,-0.014111883,0.019630015,0.001896062,0.007448807,-0.004264958,0.998717460,-0.000412751,-0.001812069,0.000071735,0.000000000,0.000000000,0.000000000,0.000000000,0.016390796,0.007273836,0.072039542,0.035927968,-0.034985797,-0.000142080,0.011524551,-0.008856698,-0.000960311,0.276785090,-0.260141333,-0.052941354,0.002416443,0.002269039,-0.000467481,0.999993384,0.000000000,0.000000000,0.000000000,0.000000000,0.000000000,0.000000000,0.194956720,0.000000000,4.201759815
1772725134.119089127,0.015830000,0.007821000,0.072047000,0.023780890,0.024082690,-0.000773860,0.999426780,0.047570000,0.048193000,-0.000402000,-0.000803653,0.000687957,-0.000483353,-0.001941936,0.010254776,-0.001916034,0.007926906,-0.004573416,0.998964385,-0.000552804,-0.003055006,-0.000851782,0.000000000,0.000000000,0.000000000,0.000000000,0.016419938,0.007246585,0.072037820,0.036152761,-0.035160777,-0.000158284,0.012280241,-0.009217605,-0.000709396,0.276846691,-0.259766298,-0.052995601,0.002416980,0.002265765,-0.000467948,0.999993384,0.000000000,0.000000000,0.000000000,0.000000000,0.000000000,0.000000000,0.194956720,0.000000000,4.201759815
1772725134.129089594,0.015808000,0.007830000,0.072047000,0.023724230,0.024235280,-0.000781160,0.999424440,0.047457000,0.048499000,-0.000412000,-0.000631722,0.000464841,-0.000318765,0.007477416,0.005093256,-0.005337407,0.008405049,-0.004881903,0.999211333,-0.000692871,-0.004298062,-0.001775387,0.000000000,0.000000000,0.000000000,0.000000000,0.016450907,0.007217433,0.072035962,0.036421859,-0.035354815,-0.000184940,0.013036002,-0.009578547,-0.000458457,0.276908298,-0.259391228,-0.053049853,0.002417517,0.002262490,-0.000468414,0.999993384,0.000000000,0.000000000,0.000000000,0.000000000,0.000000000,0.000000000,0.194956720,0.000000000,4.201759815
1772725134.139089108,0.015828000,0.007842000,0.072026000,0.023891260,0.023826760,-0.000832250,0.999430240,0.047788000,0.047684000,-0.000526000,0.000124981,-0.000139957,-0.000020765,0.009552659,0.004195724,-0.004395627,0.008523280,-0.004958255,0.999419480,-0.000868999,-0.004764618,-0.002137083,0.000000000,0.000000000,0.000000000,0.000000000,0.016493538,0.007176138,0.072033232,0.036976991,-0.035671293,-0.000279290,0.012978184,-0.009569965,-0.000350851,0.276962980,-0.259109264,-0.053085984,0.002417994,0.002260029,-0.000468725,0.999993385,0.000000000,0.000000000,0.000000000,0.000000000,0.000000000,0.000000000,0.194956720,0.000000000,4.201759815
1772725134.149089575,0.015818000,0.007834000,0.072022000,0.024164490,0.023821920,-0.000814610,0.999423800,0.048336000,0.047674000,-0.000478000,0.000390404,-0.000598505,0.000330459,0.006134696,0.010261740,-0.000598064,0.008309262,-0.004820317,0.999591845,-0.001078451,-0.004514401,-0.001980096,0.000000000,0.000000000,0.000000000,0.000000000,0.016499398,0.007170355,0.072033021,0.037033788,-0.035702997,-0.000281919,0.012791228,-0.009502732,-0.000265984,0.277006026,-0.258983847,-0.053091642,0.002418369,0.002258934,-0.000468772,0.999993390,0.000000000,0.000000000,0.000000000,0.000000000,0.000000000,0.000000000,0.194956720,0.000000000,4.201759815
1772725134.159089565,0.015820000,0.007822000,0.072050000,0.024052230,0.024104250,-0.000859510,0.999419700,0.048110000,0.048241000,-0.000559000,0.000275797,-0.000579760,0.000436636,-0.001609470,0.010821148,0.000079335,0.008095254,-0.004682385,0.999764201,-0.001287893,-0.004264196,-0.001823117,0.000000000,0.000000000,0.000000000,0.000000000,0.016505258,0.007164573,0.072032809,0.037090582,-0.035734699,-0.000284547,0.012604281,-0.009435502,-0.000181120,0.277049071,-0.258858437,-0.053097300,0.002418745,0.002257839,-0.000468820,0.999993396,0.000000000,0.000000000,0.000000000,0.000000000,0.000000000,0.000000000,0.194956720,0.000000000,4.201759815
1772725134.169089556,0.015838000,0.007807000,0.072055000,0.023830290,0.024316720,-0.000786460,0.999419930,0.047669000,0.048662000,-0.000414000,0.000187238,-0.000530711,0.000392114,-0.015696330,0.022952843,-0.001548355,0.007881247,-0.004544454,0.999936557,-0.001497336,-0.004013990,-0.001666137,0.000000000,0.000000000,0.000000000,0.000000000,0.016511119,0.007158791,0.072032597,0.037147377,-0.035766401,-0.000287176,0.012417335,-0.009368272,-0.000096256,0.277092116,-0.258733026,-0.053102958,0.002419120,0.002256745,-0.000468867,0.999993402,0.000000000,0.000000000,0.000000000,0.000000000,0.000000000,0.000000000,0.194956720,0.000000000,4.201759815
1772725134.179090023,0.015838000,0.007810000,0.072048000,0.023803720,0.024250790,-0.000818050,0.999422140,0.047614000,0.048532000,-0.000481000,-0.000214103,0.000058081,0.000050835,-0.019837906,0.024739904,-0.003469547,0.007667229,-0.004406515,1.000108921,-0.001706788,-0.003763773,-0.001509150,0.000000000,0.000000000,0.000000000,0.000000000,0.016516979,0.007153009,0.072032385,0.037204173,-0.035798105,-0.000289804,0.012230379,-0.009301039,-0.000011388,0.277135162,-0.258607610,-0.053108616,0.002419495,0.002255650,-0.000468915,0.999993408,0.000000000,0.000000000,0.000000000,0.000000000,0.000000000,0.000000000,0.194956720,0.000000000,4.201759815
1772725134.189090490,0.015819000,0.007817000,0.072050000,0.023798510,0.024355250,-0.000841770,0.999419700,0.047603000,0.048742000,-0.000524000,-0.000105206,0.000574631,-0.000402972,-0.009862246,0.003681982,-0.005334383,0.007453212,-0.004268577,1.000281285,-0.001916240,-0.003513555,-0.001352163,0.000000000,0.000000000,0.000000000,0.000000000,0.016522840,0.007147226,0.072032174,0.037260970,-0.035829808,-0.000292433,0.012043423,-0.009233806,0.000073479,0.277178209,-0.258482193,-0.053114275,0.002419871,0.002254555,-0.000468963,0.999993414,0.000000000,0.000000000,0.000000000,0.000000000,0.000000000,0.000000000,0.194956720,0.000000000,4.201759815
1772725134.199091196,0.015814000,0.007828000,0.072039000,0.023715090,0.024316020,-0.000860930,0.999422630,0.047435000,0.048664000,-0.000568000,-0.000279371,0.000581547,-0.000485179,0.004792173,-0.014018568,-0.003445279,0.007239189,-0.004130635,1.000453654,-0.002125697,-0.003263332,-0.001195172,0.000000000,0.000000000,0.000000000,0.000000000,0.016528700,0.007141443,0.072031962,0.037317769,-0.035861512,-0.000295062,0.011856463,-0.009166571,0.000158349,0.277221257,-0.258356774,-0.053119933,0.002420246,0.002253460,-0.000469010,0.999993420,0.000000000,0.000000000,0.000000000,0.000000000,0.000000000,0.000000000,0.194956720,0.000000000,4.201759815
1772725134.209091425,0.015832000,0.007825000,0.072034000,0.023669790,0.024409630,-0.000920500,0.999421360,0.047341000,0.048854000,-0.000685000,-0.000215346,0.000307013,-0.000075427,0.010905311,-0.016260643,-0.002754691,0.007025176,-0.003992700,1.000626014,-0.002335145,-0.003013121,-0.001038189,0.000000000,0.000000000,0.000000000,0.000000000,0.016534561,0.007135661,0.072031750,0.037374564,-0.035893215,-0.000297691,0.011669512,-0.009099340,0.000243215,0.277264302,-0.258231360,-0.053125591,0.002420621,0.002252365,-0.000469058,0.999993425,0.000000000,0.000000000,0.000000000,0.000000000,0.000000000,0.000000000,0.194956720,0.000000000,4.201759815
1772725134.219091892,0.015816000,0.007842000,0.072035000,0.023903940,0.024187530,-0.000912810,0.999421200,0.047810000,0.048410000,-0.000669000,-0.000046309,-0.000003244,0.000175330,0.008739406,-0.017306268,-0.000587874,0.006811158,-0.003854762,1.000798378,-0.002544597,-0.002762903,-0.000881202,0.000000000,0.000000000,0.000000000,0.000000000,0.016540421,0.007129879,0.072031538,0.037431361,-0.035924919,-0.000300319,0.011482556,-0.009032107,0.000328083,0.277307349,-0.258105944,-0.053131250,0.002420996,0.002251271,-0.000469105,0.999993431,0.000000000,0.000000000,0.000000000,0.000000000,0.000000000,0.000000000,0.194956720,0.000000000,4.201759815
1772725134.229092360,0.015829000,0.007824000,0.072045000,0.023969340,0.023894180,-0.000899130,0.999426700,0.047941000,0.047822000,-0.000653000,0.000036869,-0.000300505,0.000119134,0.011831367,-0.022441038,0.001319383,0.006597141,-0.003716824,1.000970743,-0.002754049,-0.002512686,-0.000724215,0.000000000,0.000000000,0.000000000,0.000000000,0.016546282,0.007124096,0.072031327,0.037488158,-0.035956622,-0.000302948,0.011044969,-0.009002523,-0.000079557,0.277350396,-0.257980528,-0.053136908,0.002421372,0.002250176,-0.000469153,0.999993437,0.000000000,0.000000000,0.000000000,0.000000000,0.000000000,0.000000000,0.194956720,0.000000000,4.201759815
1772725134.239092827,0.015816000,0.007817000,0.072047000,0.023937060,0.023938060,-0.000847350,0.999426470,0.047879000,0.047908000,-0.000548000,0.000117813,-0.000573680,0.000198679,0.009789630,-0.020144191,0.002790619,0.006381337,-0.003761984,1.000754364,-0.002827037,-0.001917995,-0.000376902,0.000000000,0.000000000,0.000000000,0.000000000,0.016552142,0.007118314,0.072031115,0.037544955,-0.035988326,-0.000305577,0.010480047,-0.008992067,-0.000737418,0.277389767,-0.257855949,-0.053131500,0.002421715,0.002249089,-0.000469104,0.999993443,0.000000000,0.000000000,0.000000000,0.000000000,0.000000000,0.000000000,0.194956720,0.000000000,4.201759815
1772725134.249092817,0.015822000,0.007821000,0.072047000,0.023936540,0.024052790,-0.000905100,0.999423680,0.047876000,0.048140000,-0.000658000,0.000325369,-0.000531819,0.000055789,0.006675581,-0.017714010,0.005659426,0.006266605,-0.004969407,0.998634502,-0.002595025,0.000624085,0.000832005,0.000000000,0.000000000,0.000000000,0.000000000,0.016555429,0.007122336,0.072027922,0.037643902,-0.035962753,-0.000302315,0.010641335,-0.009855454,-0.000884435,0.276998415,-0.257869261,-0.051848271,0.002418274,0.002249233,-0.000457898,0.999993443,0.000000000,0.000000000,0.000000000,0.000000000,0.000000000,0.000000000,0.194956720,0.000000000,4.201759815
1772725134.259093046,0.015821000,0.007821000,0.072041000,0.023937500,0.023780820,-0.000883020,0.999430180,0.047878000,0.047595000,-0.000627000,0.000535102,-0.000268532,-0.000011946,0.003424001,-0.015871423,0.006171803,0.006485150,-0.005445064,0.999814467,-0.003814773,0.000655976,-0.000139067,0.000000000,0.000000000,0.000000000,0.000000000,0.016557409,0.007125909,0.072027642,0.037783149,-0.036063351,-0.000394068,0.010889664,-0.010149299,-0.000825454,0.277028963,-0.258341953,-0.052389656,0.002418554,0.002253347,-0.000462633,0.999993443,0.000000000,0.000000000,0.000000000,0.000000000,0.000000000,0.000000000,0.194956720,0.000000000,4.201759815
1772725134.269093037,0.015835000,0.007806000,0.072037000,0.024127060,0.023660990,-0.000814540,0.999428530,0.048261000,0.047352000,-0.000487000,0.000137180,0.000092075,0.000203283,0.000479925,-0.011249587,0.007360600,0.005802904,-0.004806470,0.998842592,0.001287366,-0.000337989,-0.000406175,0.000000000,0.000000000,0.000000000,0.000000000,0.016571147,0.007119601,0.072031034,0.037962587,-0.036196290,-0.000409407,0.010481131,-0.010050000,-0.000786173,0.275778951,-0.257739273,-0.052318609,0.002407642,0.002248094,-0.000461976,0.999993443,0.000000000,0.000000000,0.000000000,0.000000000,0.000000000,0.000000000,0.194956720,0.000000000,4.201759815
1772725134.279092789,0.015843000,0.007807000,0.072052000,0.023984500,0.023704830,-0.000782860,0.999430940,0.047977000,0.047438000,-0.000428000,0.000063287,0.000308042,0.000159577,-0.003102826,-0.002119732,0.007353607,0.006227258,-0.004958213,1.000237081,0.000310942,0.001513338,-0.000351784,0.000000000,0.000000000,0.000000000,0.000000000,0.016578157,0.007111864,0.072035022,0.038052035,-0.036316098,-0.000471955,0.009899618,-0.009232888,-0.000050126,0.276103770,-0.257627851,-0.052742510,0.002410484,0.002247112,-0.000465679,0.999993443,0.000000000,0.000000000,0.000000000,0.000000000,0.000000000,0.000000000,0.194956720,0.000000000,4.201759815
1772725134.289092302,0.015834000,0.007823000,0.072046000,0.024053590,0.023637090,-0.000711120,0.999430940,0.048119000,0.047299000,-0.000285000,-0.000311403,0.000539336,-0.000020591,-0.010533247,0.014425882,0.003574376,0.004860262,-0.003207186,1.001146558,-0.001054988,-0.001044552,0.000203634,0.000000000,0.000000000,0.000000000,0.000000000,0.016578935,0.007111723,0.072035035,0.038093902,-0.036325573,-0.000467148,0.009692797,-0.008354765,0.000785169,0.275617086,-0.257926686,-0.052901060,0.002406241,0.002249718,-0.000467060,0.999993443,0.000000000,0.000000000,0.000000000,0.000000000,0.000000000,0.000000000,0.194956720,0.000000000,4.201759815
1772725134.299092054,0.015823000,0.007829000,0.072052000,0.023916220,0.023687950,-0.000753800,0.999433000,0.047842000,0.047403000,-0.000374000,-0.000387471,0.000558489,-0.000280847,-0.011618856,0.025295874,0.000375973,0.005507027,-0.004906392,1.001270518,0.004292067,0.003330024,0.001224451,0.000000000,0.000000000,0.000000000,0.000000000,0.016600801,0.007089948,0.072035824,0.038147233,-0.036332306,-0.000370031,0.010065575,-0.009186779,0.000656417,0.275724731,-0.257926311,-0.053331377,0.002407189,0.002249705,-0.000470817,0.999993443,0.000000000,0.000000000,0.000000000,0.000000000,0.000000000,0.000000000,0.194956720,0.000000000,4.201759815
1772725134.309092045,0.015814000,0.007825000,0.072053000,0.023793750,0.024060440,-0.000723440,0.999427050,0.047599000,0.048146000,-0.000301000,-0.000205711,0.000283916,-0.000329080,-0.008335200,0.024940319,-0.002772362,0.006612113,-0.005529808,1.000109413,0.001022661,-0.003538359,-0.001148111,0.000000000,0.000000000,0.000000000,0.000000000,0.016407650,0.007269065,0.072037648,0.036463148,-0.034728770,-0.000219954,0.010676392,-0.009458331,0.000374282,0.266982948,-0.247298576,-0.052841473,0.002330851,0.002157007,-0.000466157,0.999993781,0.000000000,0.000000000,0.000000000,0.000000000,0.000000000,0.000000000,0.194956720,0.000000000,4.201759815
1772725134.319092274,0.015832000,0.007838000,0.072026000,0.023882220,0.024114900,-0.000757590,0.999423600,0.047774000,0.048257000,-0.000363000,0.000199048,-0.000193571,-0.000256546,0.003199895,0.009714840,-0.000602901,0.006386480,-0.004833474,0.999533081,-0.000094177,-0.004302754,-0.001853427,0.000000000,0.000000000,0.000000000,0.000000000,0.016483277,0.007204797,0.072028392,0.037037567,-0.035231706,-0.000271268,0.010346113,-0.009694480,-0.001060201,0.263443655,-0.241969755,-0.052710516,0.002299941,0.002110522,-0.000464838,0.999994007,0.000000000,0.000000000,0.000000000,0.000000000,0.000000000,0.000000000,0.194956720,0.000000000,4.201759815
1772725134.329092264,0.015822000,0.007829000,0.072035000,0.023805470,0.024098450,-0.000802850,0.999425800,0.047618000,0.048226000,-0.000458000,0.000519659,-0.000497592,0.000111577,0.007435543,-0.005043156,0.000295535,0.005918808,-0.004133181,0.999619330,-0.000636166,-0.002614823,-0.002285307,0.000000000,0.000000000,0.000000000,0.000000000,0.016513489,0.007172462,0.072026359,0.037352456,-0.035540462,-0.000329537,0.011157280,-0.009674373,-0.000838879,0.262752250,-0.241135788,-0.052001704,0.002293891,0.002103261,-0.000458623,0.999994066,0.000000000,0.000000000,0.000000000,0.000000000,0.000000000,0.000000000,0.194956720,0.000000000,4.201759815
1772725134.339092493,0.015834000,0.007816000,0.072039000,0.023979480,0.023998040,-0.000700940,0.999424130,0.047971000,0.048021000,-0.000250000,0.000343202,-0.000492774,0.000289783,0.006798179,-0.009351657,0.000343470,0.005330686,-0.003518444,1.000030015,-0.000739068,-0.000159043,-0.002434428,0.000000000,0.000000000,0.000000000,0.000000000,0.016535566,0.007146609,0.072036297,0.037618429,-0.035739552,-0.000358060,0.009709854,-0.008789121,-0.000323291,0.262462020,-0.241085410,-0.051590499,0.002291351,0.002102831,-0.000455028,0.999994099,0.000000000,0.000000000,0.000000000,0.000000000,0.000000000,0.000000000,0.194956720,0.000000000,4.201759815
1772725134.349092722,0.015840000,0.007815000,0.072053000,0.023973470,0.023977560,-0.000783480,0.999424700,0.047955000,0.047984000,-0.000417000,-0.000070999,-0.000208877,0.000191084,0.001855593,-0.011497781,-0.001706936,0.005292097,-0.004568385,1.000596213,0.000390920,0.002991111,-0.000925595,0.000000000,0.000000000,0.000000000,0.000000000,0.016551454,0.007130399,0.072041280,0.037732125,-0.035846991,-0.000394284,0.009945036,-0.009098504,0.000910746,0.262031669,-0.240160539,-0.052295080,0.002287605,0.002094747,-0.000461150,0.999994075,0.000000000,0.000000000,0.000000000,0.000000000,0.000000000,0.000000000,0.194956720,0.000000000,4.201759815
1772725134.359092712,0.015834000,0.007816000,0.072046000,0.024047430,0.023660980,-0.000695240,0.999430540,0.048107000,0.047346000,-0.000252000,-0.000549146,0.000168959,-0.000087723,-0.000881180,-0.004125647,-0.001681092,0.006509593,-0.005092886,0.999799112,0.001838184,0.001325086,0.001655563,0.000000000,0.000000000,0.000000000,0.000000000,0.016561043,0.007121466,0.072041350,0.037804578,-0.035883561,-0.000323597,0.010619898,-0.009973901,-0.000206733,0.261853791,-0.239518683,-0.052648069,0.002286056,0.002089140,-0.000464215,0.999994054,0.000000000,0.000000000,0.000000000,0.000000000,0.000000000,0.000000000,0.194956720,0.000000000,4.201759815
1772725134.369092703,0.015829000,0.007816000,0.072048000,0.023890500,0.023945120,-0.000808300,0.999427450,0.047788000,0.047920000,-0.000472000,-0.000589977,0.000474690,-0.000325544,-0.000719081,-0.000474468,-0.002319953,0.006836988,-0.003432907,0.998959174,0.001147540,-0.000564731,0.001091920,0.000000000,0.000000000,0.000000000,0.000000000,0.016557220,0.007120836,0.072041601,0.037906626,-0.035954162,-0.000348236,0.011106416,-0.007560541,-0.000959947,0.262604589,-0.239989841,-0.051642523,0.002292592,0.002093269,-0.000455463,0.999994071,0.000000000,0.000000000,0.000000000,0.000000000,0.000000000,0.000000000,0.194956720,0.000000000,4.201759815
1772725134.379092455,0.015814000,0.007824000,0.072037000,0.023816780,0.024138180,-0.000818690,0.999424550,0.047640000,0.048306000,-0.000487000,-0.000392366,0.000331683,-0.000241706,-0.000036886,-0.000861622,-0.004646257,0.005709783,-0.003914063,0.999147577,0.000845393,0.001995572,-0.000465298,0.000000000,0.000000000,0.000000000,0.000000000,0.016529653,0.007151107,0.072035704,0.037865166,-0.035657499,-0.000481184,0.009768017,-0.008644748,-0.000353933,0.263801647,-0.240060096,-0.051415291,0.002303034,0.002093881,-0.000453503,0.999994017,0.000000000,0.000000000,0.000000000,0.000000000,0.000000000,0.000000000,0.194956720,0.000000000,4.201759815
1772725134.389092684,0.015814000,0.007836000,0.072024000,0.023987380,0.023796490,-0.000797760,0.999428680,0.047982000,0.047622000,-0.000453000,0.000167172,-0.000171251,-0.000044037,0.006778186,-0.002642139,0.001365687,0.005666807,-0.005252505,0.999675580,0.001179980,0.001923441,-0.001231935,0.000000000,0.000000000,0.000000000,0.000000000,0.016348173,0.007336002,0.072029730,0.036466775,-0.034345665,-0.000616058,0.009069391,-0.008498822,0.000311960,0.262863670,-0.236543622,-0.051331104,0.002294833,0.002063200,-0.000452682,0.999994457,0.000000000,0.000000000,0.000000000,0.000000000,0.000000000,0.000000000,0.194956720,0.000000000,4.201759815
1772725134.399091959,0.015815000,0.007829000,0.072039000,0.024044710,0.023863470,-0.000764660,0.999425740,0.048099000,0.047754000,-0.000381000,0.000733120,-0.000541570,0.000326360,0.003997072,0.000903905,0.003442945,0.005878788,-0.005256273,1.000626810,0.000475124,0.000750151,-0.003136139,0.000000000,0.000000000,0.000000000,0.000000000,0.016260640,0.007401554,0.072035951,0.035466735,-0.034219433,-0.000694290,0.009561894,-0.009045980,0.000950142,0.256743250,-0.228288625,-0.052350156,0.002241408,0.001991166,-0.000461304,0.999994650,0.000000000,0.000000000,0.000000000,0.000000000,0.000000000,0.000000000,0.194956720,0.000000000,4.201759815
1772725134.409092665,0.015833000,0.007814000,0.072053000,0.024000140,0.023831780,-0.000792380,0.999427540,0.048008000,0.047692000,-0.000440000,0.000721155,-0.000422378,0.000076379,0.005510549,-0.005245354,0.005366051,0.005845034,-0.005331284,1.000152775,0.001197093,0.002520343,0.000619570,0.000000000,0.000000000,0.000000000,0.000000000,0.016424573,0.007240893,0.072031680,0.036414921,-0.035194189,-0.000643469,0.009495850,-0.010376692,-0.000068423,0.254089691,-0.224164701,-0.054343212,0.002218270,0.001955150,-0.000478569,0.999994516,0.000000000,0.000000000,0.000000000,0.000000000,0.000000000,0.000000000,0.194956720,0.000000000,4.201759815
1772725134.419092417,0.015847000,0.007808000,0.072042000,0.024050880,0.023818050,-0.000807640,0.999426640,0.048109000,0.047666000,-0.000469000,0.000402098,-0.000044852,0.000044561,-0.001486494,0.000375884,0.002250869,0.004611260,-0.004456973,0.998972546,0.000082501,-0.000314221,0.000804306,0.000000000,0.000000000,0.000000000,0.000000000,0.016496512,0.007174336,0.072034617,0.036868185,-0.035697172,-0.000636043,0.008529354,-0.008325452,-0.001253088,0.253844348,-0.223747968,-0.055209260,0.002216142,0.001951498,-0.000486114,0.999994516,0.000000000,0.000000000,0.000000000,0.000000000,0.000000000,0.000000000,0.194956720,0.000000000,4.201759815
1772725134.429092884,0.015843000,0.007804000,0.072044000,0.024026610,0.023920790,-0.000629090,0.999424900,0.048069000,0.047863000,-0.000108000,-0.000071931,0.000391570,-0.000088015,-0.004918319,0.001739938,0.000511483,0.004240465,-0.004415000,0.998748181,0.000313210,0.000298859,-0.001135400,0.000000000,0.000000000,0.000000000,0.000000000,0.016525154,0.007148818,0.072035079,0.036988793,-0.035905472,-0.000735543,0.007913586,-0.009520600,-0.001781977,0.253483596,-0.223660299,-0.055038308,0.002212991,0.001950738,-0.000484615,0.999994516,0.000000000,0.000000000,0.000000000,0.000000000,0.000000000,0.000000000,0.194956720,0.000000000,4.201759815
1772725134.439092636,0.015839000,0.007822000,0.072041000,0.023862550,0.023989700,-0.000766790,0.999427080,0.047734000,0.048007000,-0.000388000,-0.000472087,0.000804779,-0.000261325,-0.003038923,-0.007243703,-0.003911260,0.005184199,-0.005621399,1.000212005,-0.000186679,0.002419357,-0.000198606,0.000000000,0.000000000,0.000000000,0.000000000,0.016532946,0.007132748,0.072036612,0.036988839,-0.035973651,-0.000883918,0.009709941,-0.009032885,-0.000322607,0.253122871,-0.223572636,-0.054867368,0.002209840,0.001949978,-0.000483115,0.999994516,0.000000000,0.000000000,0.000000000,0.000000000,0.000000000,0.000000000,0.194956720,0.000000000,4.201759815
1772725134.449093819,0.015818000,0.007844000,0.072022000,0.024088890,0.023684480,-0.000800880,0.999428900,0.048185000,0.047398000,-0.000460000,-0.000651865,0.000641531,0.000016492,-0.000396944,-0.014276688,-0.005815718,0.004982274,-0.006174689,1.001010244,0.000843895,-0.000273039,-0.000540983,0.000000000,0.000000000,0.000000000,0.000000000,0.016529030,0.007148385,0.072022932,0.037007681,-0.035999771,-0.000866585,0.009008418,-0.010932856,0.001104847,0.252797326,-0.223727690,-0.054761563,0.002206998,0.001951334,-0.000482189,0.999994516,0.000000000,0.000000000,0.000000000,0.000000000,0.000000000,0.000000000,0.194956720,0.000000000,4.201759815
1772725134.459094286,0.015824000,0.007838000,0.072051000,0.023911730,0.023767060,-0.000793610,0.999431200,0.047831000,0.047563000,-0.000450000,-0.000361325,0.000208644,0.000287374,-0.000184322,-0.014925963,-0.007208682,0.004249710,-0.005664959,1.000863259,0.001748044,-0.003558944,-0.001981501,0.000000000,0.000000000,0.000000000,0.000000000,0.016179040,0.007482403,0.072038249,0.033655173,-0.033105408,-0.000693351,0.008302298,-0.009114404,0.000527375,0.247816069,-0.219353136,-0.054346894,0.002163503,0.001913187,-0.000478407,0.999995268,0.000000000,0.000000000,0.000000000,0.000000000,0.000000000,0.000000000,0.194956720,0.000000000,4.201759815
1772725134.469094038,0.015827000,0.007830000,0.072045000,0.024007100,0.023654570,-0.000828540,0.999431560,0.048020000,0.047340000,-0.000521000,0.000090754,-0.000215773,0.000150039,0.005998022,-0.015718674,-0.005630705,0.004838144,-0.005060035,1.001021060,-0.000403707,-0.001078445,-0.001558298,0.000000000,0.000000000,0.000000000,0.000000000,0.016353809,0.007306366,0.072035579,0.034489639,-0.034028373,-0.000694876,0.008249255,-0.010209735,-0.000356202,0.237135203,-0.209035307,-0.053548401,0.002070240,0.001823207,-0.000471071,0.999995069,0.000000000,0.000000000,0.000000000,0.000000000,0.000000000,0.000000000,0.194956720,0.000000000,4.201759815
1772725134.479094267,0.015822000,0.007831000,0.072041000,0.023983880,0.023602110,-0.000931680,0.999433260,0.047968000,0.047240000,-0.000731000,0.000347514,-0.000589181,0.000161383,0.006971823,-0.007338686,0.000440345,0.005426605,-0.004455082,1.001178869,-0.002555560,0.001402173,-0.001135075,0.000000000,0.000000000,0.000000000,0.000000000,0.016452875,0.007202329,0.072031490,0.035128032,-0.034804536,-0.000729592,0.007774584,-0.008893309,-0.001509655,0.236896434,-0.207567019,-0.053361299,0.002068148,0.001810398,-0.000469408,0.999995112,0.000000000,0.000000000,0.000000000,0.000000000,0.000000000,0.000000000,0.194956720,0.000000000,4.201759815
1772725134.489095211,0.015828000,0.007818000,0.072050000,0.024037370,0.023520400,-0.000827570,0.999434000,0.048080000,0.047071000,-0.000524000,0.000537044,-0.000638676,0.000085995,-0.000280166,0.007057648,0.000651989,0.005396244,-0.005062476,1.000974610,-0.002062909,0.000430583,-0.000842185,0.000000000,0.000000000,0.000000000,0.000000000,0.016515443,0.007136187,0.072020102,0.035014683,-0.034535083,-0.000837501,0.008834409,-0.010298671,0.001002827,0.236585464,-0.205702013,-0.053039895,0.002065421,0.001794130,-0.000466564,0.999995758,0.000000000,0.000000000,0.000000000,0.000000000,0.000000000,0.000000000,0.194956720,0.000000000,4.201759815
