t,px,py,pz,qx,qy,qz,qw,roll,pitch,yaw,vx,vy,vz,wx_vicon,wy_vicon,wz_vicon,imu_acc_x,imu_acc_y,imu_acc_z,imu_gyro_x,imu_gyro_y,imu_gyro_z,motor_motor_m1,motor_motor_m2,motor_motor_m3,motor_motor_m4,est_stateEstimate_x,est_stateEstimate_y,est_stateEstimate_z,est_stateEstimate_vx,est_stateEstimate_vy,est_stateEstimate_vz,est_stateEstimate_ax,est_stateEstimate_ay,est_stateEstimate_az,att_stateEstimate_roll,att_stateEstimate_pitch,att_stateEstimate_yaw,att_stateEstimate_qx,att_stateEstimate_qy,att_stateEstimate_qz,att_stateEstimate_qw,sp_ctrltarget_x,sp_ctrltarget_y,sp_ctrltarget_z,sp_ctrltarget_yaw,pid_controller_roll,pid_controller_pitch,pid_controller_yaw,pid_controller_cmd_thrust,pwr_pm_vbat
1772691781.617103815,0.005743000,0.010035000,0.070865000,-0.009841730,0.007783500,0.721467020,0.692335100,-0.002397000,0.024981000,1.611971000,-0.007393519,-0.008294763,0.017570821,0.523534679,0.756238159,0.154780293,-0.007571145,0.000559116,0.998280199,-0.005706648,-0.001353880,0.000704463,0.000000000,0.000000000,0.000000000,0.000000000,0.005670884,0.010243079,0.070941813,0.000471196,0.013440129,-0.003102907,0.000833718,0.003042753,-0.001108933,0.053412634,-0.644307123,74.567314266,-0.003035108,0.004755960,0.605749115,0.795748907,0.000000000,0.000000000,0.000000000,0.000000000,0.000000000,0.000000000,73.753936768,0.000000000,4.212316990
1772691781.627104044,0.005687000,0.009985000,0.070988000,-0.009905190,0.009167480,0.721634620,0.692142560,-0.000481000,0.026990000,1.612505000,-0.002880461,-0.001272379,0.004215563,0.099622312,0.069707521,0.044187511,-0.006805164,0.000933716,0.997312035,-0.000721296,-0.004722206,0.000419053,0.000000000,0.000000000,0.000000000,0.000000000,0.005663214,0.010246877,0.070935763,0.000548057,0.013428716,-0.003111336,0.001214742,0.003932354,-0.002556439,0.051974766,-0.644231149,74.659989859,-0.003048529,0.004745371,0.606392470,0.795263765,0.000000000,0.000000000,0.000000000,0.000000000,0.000000000,0.000000000,73.753936768,0.000000000,4.212316990
1772691781.637104034,0.005670000,0.009970000,0.071008000,-0.009924580,0.010219750,0.721861140,0.691891290,0.001021000,0.028474000,1.613202000,-0.000296543,0.002068883,-0.002544932,-0.117749111,-0.264374792,-0.015869492,-0.010594532,0.002036048,0.999641842,-0.001153906,-0.001668629,-0.001380199,0.000000000,0.000000000,0.000000000,0.000000000,0.005663016,0.010244468,0.070933333,0.000687422,0.013494054,-0.003219041,-0.000386804,0.001724867,-0.001139303,0.052395977,-0.642706946,74.758410101,-0.003041608,0.004734412,0.607075230,0.794753522,0.000000000,0.000000000,0.000000000,0.000000000,0.000000000,0.000000000,73.753936768,0.000000000,4.212316990
1772691781.647103548,0.005711000,0.010034000,0.070879000,-0.009889190,0.008323150,0.721601600,0.692187880,-0.001679000,0.025797000,1.612378000,0.000794601,0.002682870,-0.004361717,-0.177484851,-0.331567519,-0.037559154,-0.007883905,0.002473528,0.998099137,0.001134892,0.003739154,0.000434370,0.000000000,0.000000000,0.000000000,0.000000000,0.005685577,0.010261570,0.070888027,0.000758523,0.013428128,-0.003399144,-0.001004237,0.002658499,-0.000881345,0.052201989,-0.642240374,74.851777977,-0.003044336,0.004727670,0.607722501,0.794244860,0.000000000,0.000000000,0.000000000,0.000000000,0.000000000,0.000000000,73.753936768,0.000000000,4.212316990
1772691781.657102823,0.005664000,0.010061000,0.070926000,-0.007756020,0.005109670,0.721710830,0.692132370,-0.003362000,0.018269000,1.612601000,0.000829333,0.001523428,-0.002885842,-0.129156885,-0.217249376,-0.031583835,-0.006686929,0.002404921,1.000321897,-0.001729842,0.000612793,-0.001700854,0.000000000,0.000000000,0.000000000,0.000000000,0.005717326,0.010278148,0.070843830,0.000766901,0.013390032,-0.003570994,-0.000739173,0.004504022,-0.000918635,0.053015388,-0.643233860,74.932040092,-0.003047286,0.004736736,0.608278520,0.793744686,0.000000000,0.000000000,0.000000000,0.000000000,0.000000000,0.000000000,73.753936768,0.000000000,4.212316990
1772691781.667102814,0.005706000,0.010051000,0.070874000,-0.008573950,0.005101090,0.721424010,0.692421740,-0.004514000,0.019436000,1.611773000,0.000244017,-0.000455595,0.000231644,-0.021477951,-0.007046888,-0.010566933,-0.006579887,0.003757551,1.000247788,-0.002221229,-0.000939040,0.003579090,0.000000000,0.000000000,0.000000000,0.000000000,0.005713958,0.010216903,0.070879755,0.000655120,0.012974229,-0.003211286,-0.000673870,0.005161205,0.000842261,0.052188678,-0.643156353,74.873954938,-0.003050200,0.004733358,0.607876199,0.793972498,0.000000000,0.000000000,0.000000000,0.000000000,0.000000000,0.000000000,73.753936768,0.000000000,4.212316990
1772691781.677102327,0.005663000,0.009994000,0.070976000,-0.009103300,0.007410590,0.721633910,0.692175350,-0.001907000,0.023399000,1.612441000,-0.000086111,-0.001053595,0.001404353,0.046071823,0.138991215,-0.000287911,-0.007947148,0.002724306,0.996254607,0.001171183,-0.002404310,-0.005145368,0.000000000,0.000000000,0.000000000,0.000000000,0.005696026,0.010153459,0.070930134,0.000478423,0.012694674,-0.002728516,-0.000720546,0.003647176,-0.002400315,0.052687363,-0.638628998,74.973418327,-0.003026811,0.004702008,0.608565237,0.793604985,0.000000000,0.000000000,0.000000000,0.000000000,0.000000000,0.000000000,73.753936768,0.000000000,4.212316990
1772691781.687102318,0.005721000,0.010016000,0.070894000,-0.009616170,0.007001730,0.721431670,0.692383460,-0.003215000,0.023573000,1.611845000,-0.000409693,-0.001338502,0.001744485,0.102106904,0.240609724,0.015958182,-0.008347831,0.002504216,0.998141120,0.000476549,-0.000306475,-0.001969431,0.000000000,0.000000000,0.000000000,0.000000000,0.005685843,0.010113192,0.070933275,0.000213822,0.012143464,-0.002725045,-0.000912819,0.003074625,-0.001916275,0.053284911,-0.632987376,75.119760883,-0.002998636,0.004662325,0.609577964,0.792069382,0.000000000,0.000000000,0.000000000,0.000000000,0.000000000,0.000000000,73.753936768,0.000000000,4.212316990
1772691781.697102308,0.005677000,0.009978000,0.070992000,-0.010071100,0.009240210,0.721677350,0.692094640,-0.000604000,0.027330000,1.612631000,-0.000260742,-0.000589841,0.000612297,0.101980950,0.232446609,0.018654665,-0.008229180,0.002232674,0.999047010,-0.000058820,0.002312065,0.001145297,0.000000000,0.000000000,0.000000000,0.000000000,0.005681698,0.010090856,0.070917673,-0.000057265,0.011555404,-0.002873926,-0.000557320,0.002383450,-0.000907083,0.054684583,-0.625254167,75.471748617,-0.002962021,0.004607146,0.612010187,0.790640638,0.000000000,0.000000000,0.000000000,0.000000000,0.000000000,0.000000000,73.753936768,0.000000000,4.212316990
1772691781.707102299,0.005653000,0.009989000,0.071006000,-0.010335160,0.010877450,0.721824000,0.691914000,0.001402000,0.029977000,1.613124000,-0.000929255,-0.000502293,0.001300506,0.102960597,0.152828584,0.032640271,-0.007503540,0.002306677,0.997852206,0.001866204,-0.001159485,0.003058671,0.000000000,0.000000000,0.000000000,0.000000000,0.005695840,0.010171644,0.070886512,-0.000134482,0.011895395,-0.002929210,-0.000635578,0.003744982,-0.001504596,0.053629035,-0.628748263,75.621739293,-0.002994016,0.004621720,0.613045002,0.790138632,0.000000000,0.000000000,0.000000000,0.000000000,0.000000000,0.000000000,73.753936768,0.000000000,4.212316990
1772691781.717102051,0.005696000,0.010035000,0.070889000,-0.010549960,0.009532700,0.721571740,0.692193650,-0.000849000,0.028426000,1.612338000,0.000039549,-0.000150136,-0.000231022,0.055082970,0.079625052,0.018166378,-0.008299059,0.002520570,0.997038402,0.002311324,-0.002914973,0.002629501,0.000000000,0.000000000,0.000000000,0.000000000,0.005681014,0.010195892,0.070913805,-0.000195030,0.012151411,-0.002937466,-0.000903363,0.003036767,-0.003407647,0.053468875,-0.629830630,75.698334725,-0.003004001,0.004626322,0.613572924,0.789716563,0.000000000,0.000000000,0.000000000,0.000000000,0.000000000,0.000000000,73.753936768,0.000000000,4.212316990
1772691781.727102280,0.005661000,0.009976000,0.070986000,-0.010349020,0.010717780,0.721852060,0.691887000,0.001153000,0.029776000,1.613198000,0.000433373,-0.000362996,-0.000205497,0.022456946,0.023631976,0.008875056,-0.008657941,0.001452065,0.997146776,0.001343899,-0.000827354,0.000104772,0.000000000,0.000000000,0.000000000,0.000000000,0.005669277,0.010217440,0.070918998,-0.000264396,0.012356259,-0.003077782,0.000644070,0.002387765,-0.002328787,0.053329347,-0.629933498,75.774240320,-0.003008576,0.004624292,0.614095804,0.789318707,0.000000000,0.000000000,0.000000000,0.000000000,0.000000000,0.000000000,73.753936768,0.000000000,4.212316990
1772691781.737101555,0.005673000,0.009977000,0.070985000,-0.010419740,0.011273120,0.721895380,0.691831930,0.001859000,0.030647000,1.613349000,0.000907751,0.000154002,-0.000913696,-0.020594185,-0.033475851,-0.006087501,-0.007755978,0.001063247,0.997829674,-0.001976091,0.001867108,0.000518757,0.000000000,0.000000000,0.000000000,0.000000000,0.005676855,0.010242721,0.070880695,-0.000252057,0.012428076,-0.003394860,0.000741303,0.002436424,-0.002218514,0.053995403,-0.629621359,75.850747792,-0.003005405,0.004623709,0.614622547,0.788895895,0.000000000,0.000000000,0.000000000,0.000000000,0.000000000,0.000000000,73.753936768,0.000000000,4.212316990
1772691781.747101545,0.005673000,0.009962000,0.070995000,-0.010459610,0.011571590,0.721975890,0.691742370,0.002239000,0.031117000,1.613596000,-0.000307013,-0.000271970,0.001064900,0.010464197,-0.016364531,0.007555861,-0.006247940,0.001677942,0.998385796,-0.003489088,0.004226745,0.000351776,0.000000000,0.000000000,0.000000000,0.000000000,0.005667916,0.010230547,0.070901886,-0.000143951,0.012417764,-0.003389787,0.000492666,0.004785027,-0.001247557,0.053727789,-0.630683664,75.928296361,-0.003016078,0.004627539,0.615156194,0.788490645,0.000000000,0.000000000,0.000000000,0.000000000,0.000000000,0.000000000,73.753936768,0.000000000,4.212316990
1772691781.757102013,0.005727000,0.010019000,0.070890000,-0.010317210,0.009340820,0.721592050,0.692178610,-0.000802000,0.027824000,1.612389000,-0.000458023,0.000383625,0.000227254,0.002995598,-0.023855377,0.005176300,-0.004148448,0.000580834,0.998617106,0.000951719,0.002395310,-0.002414506,0.000000000,0.000000000,0.000000000,0.000000000,0.005669852,0.010224379,0.070912518,-0.000077508,0.012545208,-0.003389013,0.001918126,0.006388302,-0.001345812,0.053444763,-0.632035063,76.000230723,-0.003028189,0.004633422,0.615650942,0.788092097,0.000000000,0.000000000,0.000000000,0.000000000,0.000000000,0.000000000,73.753936768,0.000000000,4.212316990
1772691781.767102480,0.005678000,0.009991000,0.070977000,-0.010214190,0.010192030,0.721785380,0.691966510,0.000577000,0.028854000,1.612982000,-0.000160762,0.000902643,-0.001107091,-0.028455199,-0.047372380,-0.005886469,-0.004576469,0.000342821,0.998471141,0.001325644,0.000812904,-0.000015794,0.000000000,0.000000000,0.000000000,0.000000000,0.005674515,0.010219718,0.070916809,0.000117688,0.012857081,-0.003357720,0.001120403,0.005364077,-0.001350740,0.054174968,-0.632516540,76.068822395,-0.003028531,0.004638844,0.616122481,0.787705969,0.000000000,0.000000000,0.000000000,0.000000000,0.000000000,0.000000000,73.753936768,0.000000000,4.212316990
1772691781.777102709,0.005646000,0.010002000,0.070988000,-0.010083610,0.010794910,0.721917260,0.691821690,0.001635000,0.029500000,1.613390000,-0.000336869,0.000106313,-0.000273427,-0.013915530,-0.031857969,0.000219871,-0.007756133,0.001652557,0.999253826,-0.001245881,-0.003262580,0.000799443,0.000000000,0.000000000,0.000000000,0.000000000,0.005702873,0.010246060,0.070870544,0.000434937,0.013266817,-0.003566162,0.000234537,0.003268968,-0.000458697,0.054562927,-0.632620854,76.114586346,-0.003028277,0.004640437,0.616437012,0.787386014,0.000000000,0.000000000,0.000000000,0.000000000,0.000000000,0.000000000,73.753936768,0.000000000,4.212316990
1772691781.787103415,0.005643000,0.009976000,0.071006000,-0.009977980,0.011098780,0.722072520,0.691656370,0.002227000,0.029767000,1.613853000,-0.000374981,-0.000934655,0.001089822,0.024540887,0.024636497,0.011533076,-0.008196227,0.001583982,0.999439487,-0.000829706,-0.002368865,0.000136866,0.000000000,0.000000000,0.000000000,0.000000000,0.005701372,0.010246465,0.070874255,0.000435883,0.013277947,-0.003539780,0.000157922,0.001780632,0.000233185,0.054434801,-0.632368123,76.127714759,-0.003028329,0.004637665,0.616527216,0.787270852,0.000000000,0.000000000,0.000000000,0.000000000,0.000000000,0.000000000,73.753936768,0.000000000,4.212316990
1772691781.797103882,0.005713000,0.010020000,0.070876000,-0.010209120,0.009223660,0.721669980,0.692100520,-0.000819000,0.027506000,1.612610000,0.000469173,-0.000680420,0.000256488,0.011575711,0.025457457,0.006543026,-0.008636310,0.001515409,0.999625144,-0.000413541,-0.001475172,-0.000525694,0.000000000,0.000000000,0.000000000,0.000000000,0.005699872,0.010246870,0.070877965,0.000436830,0.013289076,-0.003513399,-0.000164814,0.001420110,0.000037957,0.054306678,-0.632115399,76.140842858,-0.003028380,0.004634892,0.616617418,0.787155692,0.000000000,0.000000000,0.000000000,0.000000000,0.000000000,0.000000000,73.753936768,0.000000000,4.212316990
1772691781.807104349,0.005676000,0.009979000,0.070977000,-0.010196420,0.010313950,0.721832820,0.691915490,0.000780000,0.028997000,1.613125000,0.001096058,0.000263326,-0.000856236,-0.026890886,-0.003763488,-0.012296696,-0.009076392,0.001446836,0.999810800,0.000002624,-0.000581479,-0.001188255,0.000000000,0.000000000,0.000000000,0.000000000,0.005698371,0.010247275,0.070881675,0.000437776,0.013300206,-0.003487018,-0.000487550,0.001059588,-0.000157271,0.054178556,-0.631862674,76.153970958,-0.003028431,0.004632120,0.616707620,0.787040532,0.000000000,0.000000000,0.000000000,0.000000000,0.000000000,0.000000000,73.753936768,0.000000000,4.212316990
1772691781.817104340,0.005679000,0.009966000,0.070992000,-0.010228060,0.010724410,0.721918260,0.691819630,0.001333000,0.029611000,1.613390000,-0.000032653,-0.000008955,0.000728555,0.001094760,0.019405214,-0.001319818,-0.009516454,0.001378266,0.999996448,0.000418769,0.000312171,-0.001850785,0.000000000,0.000000000,0.000000000,0.000000000,0.005696870,0.010247679,0.070885385,0.000438722,0.013311335,-0.003460638,-0.000810271,0.000699083,-0.000352491,0.054050439,-0.631609962,76.167098432,-0.003028482,0.004629348,0.616797818,0.786925378,0.000000000,0.000000000,0.000000000,0.000000000,0.000000000,0.000000000,73.753936768,0.000000000,4.212316990
1772691781.827104807,0.005672000,0.009964000,0.071013000,-0.010427650,0.011400820,0.721980710,0.691740650,0.002037000,0.030835000,1.613602000,-0.000293532,0.000660529,0.000095027,-0.001463158,0.004232331,-0.000007809,-0.009956537,0.001309692,1.000182105,0.000834934,0.001205864,-0.002513345,0.000000000,0.000000000,0.000000000,0.000000000,0.005695370,0.010248084,0.070889095,0.000439668,0.013322465,-0.003434257,-0.001133007,0.000338561,-0.000547719,0.053922316,-0.631357237,76.180226531,-0.003028533,0.004626575,0.616888020,0.786810218,0.000000000,0.000000000,0.000000000,0.000000000,0.000000000,0.000000000,73.753936768,0.000000000,4.212316990
1772691781.837105036,0.005714000,0.010043000,0.070886000,-0.010265350,0.009221110,0.721671760,0.692097870,-0.000900000,0.027584000,1.612615000,-0.000666376,0.000375583,0.000155711,0.001389458,-0.005533430,0.002924240,-0.010408134,0.001530188,0.998951327,0.000388012,-0.002844750,-0.000656203,0.000000000,0.000000000,0.000000000,0.000000000,0.005685397,0.010250963,0.070898805,0.000406720,0.013252423,-0.003325112,-0.001455735,-0.000021952,-0.000742943,0.054228586,-0.632033531,76.239082458,-0.003032450,0.004631312,0.617292102,0.786695061,0.000000000,0.000000000,0.000000000,0.000000000,0.000000000,0.000000000,73.753936768,0.000000000,4.212316990
1772691781.847105503,0.005657000,0.009997000,0.070989000,-0.010361350,0.010471120,0.721811470,0.691932940,0.000778000,0.029453000,1.613070000,0.000400583,0.000840347,-0.002011832,-0.050645835,-0.056984288,-0.018392039,-0.009079462,0.002168694,0.998733301,0.001503590,0.002718745,-0.000432304,0.000000000,0.000000000,0.000000000,0.000000000,0.005668902,0.010249655,0.070915947,0.000332850,0.013045714,-0.003176638,0.000113134,0.001192280,-0.001815506,0.053835402,-0.630964989,76.305172292,-0.003032056,0.004620110,0.617745794,0.786459317,0.000000000,0.000000000,0.000000000,0.000000000,0.000000000,0.000000000,73.753936768,0.000000000,4.212316990
1772691781.857106447,0.005654000,0.009979000,0.070994000,-0.010182150,0.010710250,0.721977110,0.691759110,0.001379000,0.029525000,1.613559000,0.000405983,0.000124767,-0.001280324,-0.052289302,-0.062844585,-0.019583932,-0.008574048,0.003775794,0.999110140,0.004166911,0.002518270,0.000824766,0.000000000,0.000000000,0.000000000,0.000000000,0.005671193,0.010246516,0.070908156,0.000287054,0.012865953,-0.003208397,-0.002606063,0.003433270,-0.000554342,0.053814995,-0.633098231,76.374884907,-0.003046519,0.004632785,0.618223948,0.786089950,0.000000000,0.000000000,0.000000000,0.000000000,0.000000000,0.000000000,73.753936768,0.000000000,4.212316990
1772691781.867105961,0.005714000,0.010031000,0.070880000,-0.010174810,0.008845590,0.721625180,0.692152670,-0.001319000,0.026933000,1.612466000,-0.000033120,-0.000788967,0.000311791,-0.019266621,-0.027957428,-0.005793042,-0.009739100,0.002917997,0.998803326,0.002661385,-0.001238166,0.004444328,0.000000000,0.000000000,0.000000000,0.000000000,0.005689004,0.010251876,0.070876817,0.000205164,0.012860358,-0.003294974,-0.001504101,0.001872423,-0.000300224,0.055317294,-0.633759327,76.437782452,-0.003042330,0.004643758,0.618655246,0.785739115,0.000000000,0.000000000,0.000000000,0.000000000,0.000000000,0.000000000,73.753936768,0.000000000,4.212316990
1772691781.877105951,0.005664000,0.009976000,0.070973000,-0.010192980,0.009842720,0.721747420,0.692011480,0.000101000,0.028340000,1.612858000,0.000239860,-0.000422941,-0.000004040,-0.015942920,-0.015875237,-0.002296735,-0.009091418,0.001941780,0.997591692,0.002814451,-0.001913654,0.003668089,0.000000000,0.000000000,0.000000000,0.000000000,0.005684394,0.010239859,0.070896660,0.000013728,0.012793248,-0.003168448,-0.001286295,0.001711078,-0.002543307,0.056356389,-0.633576979,76.498089620,-0.003036666,0.004646519,0.619068578,0.785428508,0.000000000,0.000000000,0.000000000,0.000000000,0.000000000,0.000000000,73.753936768,0.000000000,4.212316990
1772691781.887106419,0.005720000,0.010015000,0.070882000,-0.010208890,0.008400490,0.721533890,0.692252880,-0.002013000,0.026366000,1.612186000,0.000438598,0.000337763,-0.000756741,-0.031708054,-0.032767599,-0.006971708,-0.007148634,0.001363075,0.997001267,0.004014492,-0.002750759,0.003520533,0.000000000,0.000000000,0.000000000,0.000000000,0.005680879,0.010226298,0.070916699,-0.000063023,0.012615273,-0.003121122,0.000221643,0.002648739,-0.002815192,0.057652481,-0.633461275,76.562603130,-0.003029778,0.004651024,0.619510534,0.785069501,0.000000000,0.000000000,0.000000000,0.000000000,0.000000000,0.000000000,73.753936768,0.000000000,4.212316990
1772691781.897105932,0.005672000,0.009978000,0.070978000,-0.010159010,0.009505940,0.721777580,0.691985230,-0.000338000,0.027825000,1.612932000,-0.000740813,-0.000331663,0.001319795,0.027074869,0.023252191,0.011411514,-0.006364681,0.000108823,0.997411076,0.001654243,-0.003041633,0.002655713,0.000000000,0.000000000,0.000000000,0.000000000,0.005682839,0.010231487,0.070914067,-0.000003276,0.012695916,-0.003325951,0.002275046,0.003878592,-0.002225038,0.058993542,-0.633002272,76.637845467,-0.003021166,0.004653147,0.620025792,0.784657366,0.000000000,0.000000000,0.000000000,0.000000000,0.000000000,0.000000000,73.753936768,0.000000000,4.212316990
1772691781.907105446,0.005657000,0.009981000,0.070989000,-0.010206910,0.010223910,0.721909260,0.691836910,0.000639000,0.028887000,1.613342000,-0.000462355,-0.000193143,0.000689919,0.035469204,0.032224800,0.015175416,-0.006232434,0.000829561,0.997903567,0.001435328,0.002134894,0.000153957,0.000000000,0.000000000,0.000000000,0.000000000,0.005691153,0.010253829,0.070881863,0.000191005,0.012898260,-0.003542292,0.001614769,0.004489405,-0.002139680,0.059237998,-0.632183154,76.699595479,-0.003017564,0.004647235,0.620448471,0.784325209,0.000000000,0.000000000,0.000000000,0.000000000,0.000000000,0.000000000,73.753936768,0.000000000,4.212316990
1772691781.917105198,0.005711000,0.010030000,0.070878000,-0.010160600,0.008606640,0.721646180,0.692134010,-0.001644000,0.026582000,1.612518000,-0.000025466,-0.000067929,0.000173038,0.028517586,0.022999895,0.012006392,-0.006073352,0.001806444,0.998563611,0.002822804,0.002044937,0.000688573,0.000000000,0.000000000,0.000000000,0.000000000,0.005678752,0.010247317,0.070899777,0.000298156,0.013017670,-0.003531370,0.000680719,0.005024334,-0.001689999,0.060140900,-0.632904873,76.758264287,-0.003017679,0.004655518,0.620849888,0.784031631,0.000000000,0.000000000,0.000000000,0.000000000,0.000000000,0.000000000,73.753936768,0.000000000,4.212316990
1772691781.927104712,0.005664000,0.009978000,0.070981000,-0.010080510,0.009833750,0.721814600,0.691943180,0.000246000,0.028165000,1.613052000,0.000556955,-0.000052215,-0.000897884,0.006797256,0.041481268,-0.001700684,-0.006420239,0.002199556,0.998437002,0.001288908,-0.002071499,-0.001421093,0.000000000,0.000000000,0.000000000,0.000000000,0.005674447,0.010246928,0.070903189,0.000406461,0.013161717,-0.003566620,0.000452728,0.004586006,-0.002019660,0.061348310,-0.633303799,76.812759907,-0.003013797,0.004663357,0.621222552,0.783703949,0.000000000,0.000000000,0.000000000,0.000000000,0.000000000,0.000000000,73.753936768,0.000000000,4.212316990
1772691781.937105417,0.005659000,0.009975000,0.070990000,-0.010112380,0.010760040,0.721952000,0.691785570,0.001546000,0.029493000,1.613489000,0.000257323,0.000411772,-0.000507829,-0.014788442,-0.027104765,-0.004818848,-0.007433175,0.002181937,0.998456290,0.000421624,-0.000803285,-0.002239115,0.000000000,0.000000000,0.000000000,0.000000000,0.005695703,0.010265197,0.070861197,0.000504130,0.013376954,-0.003741696,-0.000354561,0.003930647,-0.001276870,0.061445493,-0.633014672,76.865129706,-0.003013693,0.004660528,0.621580574,0.783421151,0.000000000,0.000000000,0.000000000,0.000000000,0.000000000,0.000000000,73.753936768,0.000000000,4.212316990
1772691781.947105885,0.005717000,0.010013000,0.070884000,-0.010246340,0.008931680,0.721688380,0.692084620,-0.001291000,0.027156000,1.612652000,-0.000361422,0.000691512,0.000019639,-0.030095629,-0.108317431,-0.001745184,-0.007981073,0.001129976,0.998982061,0.003626006,0.002764568,0.000716575,0.000000000,0.000000000,0.000000000,0.000000000,0.005684827,0.010251752,0.070880929,0.000440063,0.013421590,-0.003668054,0.000284524,0.003898479,-0.000873627,0.061485115,-0.632954134,76.915922798,-0.003015162,0.004658995,0.621927727,0.783129569,0.000000000,0.000000000,0.000000000,0.000000000,0.000000000,0.000000000,73.753936768,0.000000000,4.212316990
1772691781.957106113,0.005672000,0.009982000,0.070977000,-0.010018370,0.009814010,0.721900040,0.691855230,0.000307000,0.028048000,1.613298000,-0.000811287,0.000926885,0.000234810,-0.036718520,-0.155075825,0.002289949,-0.006691972,-0.000194239,0.999019534,0.000266501,0.003959152,0.001968909,0.000000000,0.000000000,0.000000000,0.000000000,0.005703605,0.010262292,0.070850710,0.000481942,0.013445732,-0.003740350,0.001465949,0.004133701,-0.001155316,0.062314789,-0.633535605,76.965983919,-0.003014686,0.004666153,0.622269745,0.782854203,0.000000000,0.000000000,0.000000000,0.000000000,0.000000000,0.000000000,73.753936768,0.000000000,4.212316990
1772691781.967106342,0.005706000,0.010037000,0.070870000,-0.010145530,0.008335160,0.721577900,0.692208730,-0.002017000,0.026184000,1.612311000,-0.000541143,0.000760587,-0.000056235,-0.039747564,-0.156706702,0.001762327,-0.007064680,0.001145132,0.997258275,0.004201861,-0.001931414,-0.002428077,0.000000000,0.000000000,0.000000000,0.000000000,0.005696148,0.010253496,0.070873067,0.000600736,0.013474927,-0.003585305,0.000684448,0.003510387,-0.001588127,0.061268791,-0.633572089,77.023306172,-0.003024360,0.004659212,0.622661270,0.782541895,0.000000000,0.000000000,0.000000000,0.000000000,0.000000000,0.000000000,73.753936768,0.000000000,4.212316990
1772691781.977106333,0.005604000,0.010013000,0.071048000,-0.007733070,0.007400820,0.722077690,0.691729170,-0.000010000,0.021408000,1.613721000,-0.000729702,-0.000576205,0.001191843,0.009358441,-0.068241530,0.010927982,-0.009905669,0.001988565,0.998354923,0.000940509,-0.003576263,-0.000702371,0.000000000,0.000000000,0.000000000,0.000000000,0.005683254,0.010248214,0.070897478,0.000653279,0.013532241,-0.003536333,-0.000714723,0.002263994,-0.001965075,0.062195872,-0.631506755,77.079909647,-0.003009103,0.004648661,0.623047702,0.782240321,0.000000000,0.000000000,0.000000000,0.000000000,0.000000000,0.000000000,73.753936768,0.000000000,4.212316990
1772691781.987106323,0.005683000,0.010032000,0.070897000,-0.008444550,0.006651480,0.721793110,0.692025400,-0.002086000,0.021398000,1.612877000,-0.000301243,-0.001363327,0.001487841,0.059906019,0.051475915,0.016695771,-0.010667815,0.003105809,0.998704450,-0.000180876,-0.000273756,-0.004493399,0.000000000,0.000000000,0.000000000,0.000000000,0.005694059,0.010261594,0.070872178,0.000660081,0.013497170,-0.003667363,-0.001907871,0.001144165,-0.001002255,0.062426708,-0.629770049,77.132579838,-0.003000217,0.004636682,0.623407194,0.782011638,0.000000000,0.000000000,0.000000000,0.000000000,0.000000000,0.000000000,73.753936768,0.000000000,4.212316990
1772691781.997106791,0.005653000,0.009985000,0.070987000,-0.009062090,0.008717720,0.721972510,0.691807470,0.000049000,0.025150000,1.613463000,0.000118862,-0.001662939,0.001425429,0.091942066,0.166897392,0.019557213,-0.009996453,0.002647773,0.998441229,-0.000805496,0.004469909,-0.000918465,0.000000000,0.000000000,0.000000000,0.000000000,0.005696981,0.010264074,0.070864498,0.000557124,0.013345588,-0.003689152,-0.001134515,-0.000327130,-0.000970076,0.061912473,-0.629390504,77.166610220,-0.003003036,0.004630403,0.623639419,0.781771945,0.000000000,0.000000000,0.000000000,0.000000000,0.000000000,0.000000000,73.753936768,0.000000000,4.212316990
1772691782.007106781,0.005670000,0.009961000,0.070990000,-0.009568210,0.009946700,0.722007400,0.691747660,0.001126000,0.027581000,1.613613000,0.000647437,-0.001201847,0.000605595,0.092495613,0.226592892,0.012867916,-0.007973078,0.002948127,0.997888860,0.001326964,0.003816699,0.000515303,0.000000000,0.000000000,0.000000000,0.000000000,0.005684098,0.010249219,0.070889852,0.000345819,0.013090444,-0.003556017,-0.002536813,0.003416885,-0.001893075,0.061687335,-0.629782415,77.214282381,-0.003008632,0.004630600,0.623964563,0.781503335,0.000000000,0.000000000,0.000000000,0.000000000,0.000000000,0.000000000,73.753936768,0.000000000,4.212316990
1772691782.017107010,0.005675000,0.009963000,0.070983000,-0.009862720,0.010657800,0.721953190,0.691789510,0.001744000,0.028991000,1.613487000,0.000947709,0.000243396,-0.001088385,0.038173691,0.181919609,-0.007011270,-0.006248493,0.002827746,0.997680570,0.001344212,0.002145205,-0.000395051,0.000000000,0.000000000,0.000000000,0.000000000,0.005682799,0.010244767,0.070890371,0.000219004,0.013001766,-0.003581974,0.000109786,0.005257667,-0.002900640,0.062511291,-0.630044987,77.266569798,-0.003006559,0.004635507,0.624320978,0.781231058,0.000000000,0.000000000,0.000000000,0.000000000,0.000000000,0.000000000,73.753936768,0.000000000,4.212316990
1772691782.027107239,0.005667000,0.009973000,0.071001000,-0.010141730,0.011497180,0.722016700,0.691705750,0.002573000,0.030555000,1.613710000,-0.000077486,0.001008295,-0.000444989,0.003505511,0.058866122,-0.006312648,-0.006208268,0.002151938,0.998789723,-0.000601634,0.002697805,-0.000556423,0.000000000,0.000000000,0.000000000,0.000000000,0.005696811,0.010252762,0.070861901,0.000158494,0.013165388,-0.003771635,-0.000760171,0.004377626,-0.001293037,0.062801558,-0.630040940,77.314791315,-0.003006508,0.004635795,0.624649640,0.780970743,0.000000000,0.000000000,0.000000000,0.000000000,0.000000000,0.000000000,73.753936768,0.000000000,4.212316990
1772691782.037107706,0.005655000,0.009981000,0.071001000,-0.010455890,0.011993520,0.722074930,0.691631850,0.002859000,0.031695000,1.613903000,0.000094678,0.001307014,-0.001551847,-0.047335857,-0.021519292,-0.015585756,-0.006820678,0.000980686,0.999156101,-0.000600361,0.000732804,-0.001837330,0.000000000,0.000000000,0.000000000,0.000000000,0.005688671,0.010251796,0.070873552,0.000127197,0.013335974,-0.003749832,0.001008404,0.004208788,-0.000984832,0.062542816,-0.630328634,77.364750573,-0.003011861,0.004635032,0.624990046,0.780689817,0.000000000,0.000000000,0.000000000,0.000000000,0.000000000,0.000000000,73.753936768,0.000000000,4.212316990
1772691782.047107697,0.005717000,0.010030000,0.070878000,-0.010481400,0.009770050,0.721685570,0.692072700,-0.000406000,0.028656000,1.612677000,-0.000730129,0.000079468,0.000489822,-0.011887034,-0.013513481,-0.000201539,-0.007075474,-0.000120482,0.999169692,0.001285039,-0.000251275,-0.001240145,0.000000000,0.000000000,0.000000000,0.000000000,0.005686841,0.010272943,0.070855202,0.000147345,0.013474776,-0.003723826,0.002012792,0.003461784,-0.000200820,0.061704365,-0.628355354,77.418450559,-0.003008971,0.004615609,0.625355871,0.780405095,0.000000000,0.000000000,0.000000000,0.000000000,0.000000000,0.000000000,73.753936768,0.000000000,4.212316990
1772691782.057107449,0.005657000,0.010004000,0.070968000,-0.010275170,0.010214070,0.721847500,0.691900480,0.000527000,0.028973000,1.613163000,-0.000386830,-0.000688443,0.000887685,0.013005870,-0.004450893,0.007526308,-0.007391225,0.000682537,0.998705648,-0.000704505,0.000533950,0.000094706,0.000000000,0.000000000,0.000000000,0.000000000,0.005655712,0.010276020,0.070900571,0.000244051,0.013470724,-0.003491021,0.001112351,0.003199057,-0.000980940,0.061371647,-0.627132154,77.465655784,-0.003006460,0.004604224,0.625677362,0.780128476,0.000000000,0.000000000,0.000000000,0.000000000,0.000000000,0.000000000,73.753936768,0.000000000,4.212316990
1772691782.067107677,0.005656000,0.009988000,0.070979000,-0.010142070,0.010487810,0.721932310,0.691809860,0.001111000,0.029159000,1.613420000,0.000878711,-0.000367444,-0.000929818,-0.010124019,0.006235385,-0.009098051,-0.007848568,0.001518794,0.996671559,-0.002180446,-0.000664592,0.000685314,0.000000000,0.000000000,0.000000000,0.000000000,0.005668963,0.010279055,0.070875241,0.000408508,0.013430398,-0.003504416,0.000688638,0.003023166,-0.003102555,0.060308967,-0.626170228,77.516917472,-0.003010495,0.004590527,0.626026337,0.779871673,0.000000000,0.000000000,0.000000000,0.000000000,0.000000000,0.000000000,73.753936768,0.000000000,4.212316990
1772691782.077107906,0.005657000,0.009964000,0.071001000,-0.010219260,0.011130320,0.721996980,0.691731200,0.001935000,0.030159000,1.613636000,0.000779838,0.000198019,-0.000506605,-0.033525746,-0.057593957,-0.011660740,-0.009330678,0.001485632,0.997046500,0.002276184,-0.002215774,0.001275180,0.000000000,0.000000000,0.000000000,0.000000000,0.005666789,0.010258102,0.070899678,0.000454677,0.013322712,-0.003515033,0.000086651,0.002203375,-0.002573361,0.059672449,-0.624693055,77.563138573,-0.003008602,0.004575786,0.626340890,0.779599771,0.000000000,0.000000000,0.000000000,0.000000000,0.000000000,0.000000000,73.753936768,0.000000000,4.212316990
1772691782.087108374,0.005665000,0.009960000,0.071011000,-0.010131190,0.011751070,0.722045260,0.691671820,0.002956000,0.030891000,1.613805000,0.000252234,0.000660024,-0.000212452,-0.052467537,-0.129612180,-0.005947345,-0.010508607,0.001947491,0.998058554,0.003536065,-0.001697268,0.000855141,0.000000000,0.000000000,0.000000000,0.000000000,0.005673473,0.010237952,0.070910567,0.000484726,0.013169591,-0.003635341,-0.001252020,0.000281055,-0.001763519,0.060825815,-0.622638136,77.609977510,-0.002991392,0.004566891,0.626659461,0.779342352,0.000000000,0.000000000,0.000000000,0.000000000,0.000000000,0.000000000,73.753936768,0.000000000,4.212316990
1772691782.097109079,0.005725000,0.010020000,0.070886000,-0.010199070,0.009414490,0.721710660,0.692055690,-0.000528000,0.027756000,1.612735000,-0.000326010,0.000669426,0.000150602,-0.049587367,-0.160597828,0.000788545,-0.008947523,0.001817856,0.997815829,0.000759587,0.001437927,0.001137117,0.000000000,0.000000000,0.000000000,0.000000000,0.005680731,0.010226604,0.070908072,0.000492813,0.012828487,-0.003686596,-0.000561139,0.001666793,-0.002842482,0.062241927,-0.622141648,77.655602961,-0.002980868,0.004570070,0.626969646,0.778889094,0.000000000,0.000000000,0.000000000,0.000000000,0.000000000,0.000000000,73.753936768,0.000000000,4.212316990
1772691782.107109308,0.005725000,0.010042000,0.070860000,-0.010201900,0.007891420,0.721491000,0.692303680,-0.002739000,0.025650000,1.612045000,-0.000762141,0.000511733,0.000322825,-0.031415276,-0.145452977,0.008846134,-0.009884876,0.001474414,0.998179897,0.003572266,-0.004681273,0.002051732,0.000000000,0.000000000,0.000000000,0.000000000,0.005691670,0.010217270,0.070888527,0.000542751,0.012192658,-0.003788573,0.000020858,0.001463197,-0.002102143,0.065003978,-0.621451008,77.476290395,-0.002951115,0.004585137,0.625749261,0.778105821,0.000000000,0.000000000,0.000000000,0.000000000,0.000000000,0.000000000,73.753936768,0.000000000,4.212316990
1772691782.117109299,0.005618000,0.010006000,0.071056000,-0.007828500,0.007041060,0.722074820,0.691734840,-0.000662000,0.021048000,1.613702000,-0.000868824,0.000199534,0.000240870,-0.004998147,-0.078966427,0.010981486,-0.010471543,0.001666297,0.998928166,0.000860794,-0.004260356,0.000467551,0.000000000,0.000000000,0.000000000,0.000000000,0.005702608,0.010207937,0.070868982,0.000592689,0.011556844,-0.003890548,-0.000608888,0.000554220,-0.000890310,0.067005567,-0.614278243,77.808428414,-0.002911438,0.004538881,0.628006478,0.777376634,0.000000000,0.000000000,0.000000000,0.000000000,0.000000000,0.000000000,73.753936768,0.000000000,4.212316990
1772691782.127109289,0.005634000,0.009984000,0.071004000,-0.008499960,0.008723580,0.722174700,0.691603460,0.000843000,0.024346000,1.614047000,-0.000569542,-0.000604546,0.000829896,0.039732918,0.032157967,0.013286293,-0.009499652,0.002373284,0.999598370,0.000537033,-0.003464623,-0.002199604,0.000000000,0.000000000,0.000000000,0.000000000,0.005713547,0.010198603,0.070849437,0.000642626,0.010921030,-0.003992523,-0.001147415,0.001446300,-0.000208296,0.067486938,-0.610358105,78.013213536,-0.002894825,0.004509647,0.629397912,0.777123427,0.000000000,0.000000000,0.000000000,0.000000000,0.000000000,0.000000000,73.753936768,0.000000000,4.212316990
1772691782.137109518,0.005644000,0.009972000,0.071004000,-0.009166060,0.010242890,0.722150270,0.691599630,0.002116000,0.027410000,1.614038000,0.000151340,-0.000930654,0.000590987,0.072037232,0.131996782,0.010514257,-0.009198323,0.001481333,0.999933116,0.000967479,-0.001935694,0.000808744,0.000000000,0.000000000,0.000000000,0.000000000,0.005711357,0.010193473,0.070851396,0.000646187,0.010423560,-0.003980719,-0.000638874,0.002219121,-0.000214397,0.066330101,-0.610051443,78.055204268,-0.002902634,0.004500150,0.629682680,0.776885038,0.000000000,0.000000000,0.000000000,0.000000000,0.000000000,0.000000000,73.753936768,0.000000000,4.212316990
1772691782.147109509,0.005715000,0.010028000,0.070875000,-0.009544680,0.008611210,0.721774060,0.692009360,-0.000780000,0.025699000,1.612887000,0.001009364,-0.000524165,-0.000727584,0.046570752,0.161127252,-0.004012357,-0.009226196,0.001854108,0.998782910,0.001824600,-0.002391366,0.000422245,0.000000000,0.000000000,0.000000000,0.000000000,0.005670730,0.010199379,0.070913645,0.000511296,0.010415429,-0.003640055,-0.000104692,0.001304800,-0.000402911,0.065551049,-0.609138075,78.099182700,-0.002904619,0.004488563,0.629980802,0.776663719,0.000000000,0.000000000,0.000000000,0.000000000,0.000000000,0.000000000,73.753936768,0.000000000,4.212316990
1772691782.157109261,0.005665000,0.009996000,0.070972000,-0.009891970,0.009960150,0.721857450,0.691899390,0.000691000,0.028068000,1.613180000,0.000810607,-0.000141919,-0.000681702,0.022930214,0.141551814,-0.012497233,-0.009217149,0.001553282,0.998413106,0.001412243,-0.000757695,0.000052671,0.000000000,0.000000000,0.000000000,0.000000000,0.005658819,0.010194002,0.070923168,0.000467942,0.010408340,-0.003552915,0.000121065,0.001395398,-0.001595343,0.066117083,-0.608152094,78.133537107,-0.002896708,0.004484126,0.630213625,0.776456857,0.000000000,0.000000000,0.000000000,0.000000000,0.000000000,0.000000000,73.753936768,0.000000000,4.212316990
1772691782.167109966,0.005676000,0.009968000,0.071008000,-0.009972050,0.010971850,0.721999090,0.691735130,0.002048000,0.029583000,1.613634000,-0.000749690,-0.000689589,0.002053790,0.056832656,0.095898927,0.010222762,-0.007837047,0.001475361,0.998569379,-0.000363377,0.000738339,-0.000340451,0.000000000,0.000000000,0.000000000,0.000000000,0.005661963,0.010193617,0.070921904,0.000469657,0.010449013,-0.003550882,-0.000207136,0.002936716,-0.001110861,0.066678359,-0.608283613,78.168765199,-0.002895009,0.004487212,0.630452274,0.776271109,0.000000000,0.000000000,0.000000000,0.000000000,0.000000000,0.000000000,73.753936768,0.000000000,4.212316990
1772691782.177109957,0.005668000,0.009976000,0.070982000,-0.010111540,0.011320380,0.722021880,0.691703710,0.002360000,0.030267000,1.613717000,-0.000385237,-0.000377642,0.000811345,0.043295196,0.064474372,0.009814486,-0.006173891,0.002585675,0.998991699,0.002128355,-0.004508319,-0.000901051,0.000000000,0.000000000,0.000000000,0.000000000,0.005665106,0.010193232,0.070920640,0.000471372,0.010489683,-0.003548849,0.000048233,0.004573636,-0.000829051,0.067030388,-0.609203074,78.210266441,-0.002899310,0.004494329,0.630733274,0.776051422,0.000000000,0.000000000,0.000000000,0.000000000,0.000000000,0.000000000,73.753936768,0.000000000,4.212316990
1772691782.187110424,0.005655000,0.009972000,0.070998000,-0.010233510,0.011560480,0.722024070,0.691695650,0.002538000,0.030775000,1.613735000,0.000067152,0.000090754,-0.000257343,0.010658774,0.024067848,-0.000734472,-0.007623289,0.002049777,0.998410060,0.000753654,-0.004885982,0.002138658,0.000000000,0.000000000,0.000000000,0.000000000,0.005668250,0.010192847,0.070919376,0.000473087,0.010530355,-0.003546816,-0.001457258,0.001861013,-0.001108345,0.067982557,-0.608073592,78.253293626,-0.002888331,0.004490838,0.631024589,0.775880352,0.000000000,0.000000000,0.000000000,0.000000000,0.000000000,0.000000000,73.753936768,0.000000000,4.212316990
1772691782.197109938,0.005663000,0.009985000,0.070990000,-0.010246950,0.011641920,0.721963890,0.691756900,0.002635000,0.030908000,1.613565000,0.000765366,0.000827040,-0.001727643,-0.047522806,-0.038938154,-0.019511374,-0.008034384,0.002319731,0.998631519,-0.000288842,-0.002893517,0.002052640,0.000000000,0.000000000,0.000000000,0.000000000,0.005671393,0.010192462,0.070918112,0.000474801,0.010571023,-0.003544784,-0.001402155,0.001164732,-0.000997207,0.068081610,-0.607856532,78.269097787,-0.002887085,0.004489514,0.631131579,0.775841226,0.000000000,0.000000000,0.000000000,0.000000000,0.000000000,0.000000000,73.753936768,0.000000000,4.212316990
1772691782.207110405,0.005669000,0.009972000,0.070996000,-0.010236540,0.011753950,0.722000340,0.691717110,0.002812000,0.031047000,1.613675000,0.000290890,0.000045416,-0.000685063,-0.030248867,0.009874600,-0.014894718,-0.008445518,0.002589710,0.998852999,-0.001331437,-0.000900861,0.001966613,0.000000000,0.000000000,0.000000000,0.000000000,0.005674537,0.010192077,0.070916848,0.000476516,0.010611695,-0.003542750,-0.001033803,0.000922334,-0.000852673,0.067877574,-0.608200692,78.275768902,-0.002890624,0.004490551,0.631176727,0.775802097,0.000000000,0.000000000,0.000000000,0.000000000,0.000000000,0.000000000,73.753936768,0.000000000,4.212316990
1772691782.217110634,0.005717000,0.010022000,0.070887000,-0.010260700,0.009557740,0.721683660,0.692080960,-0.000407000,0.028043000,1.612662000,-0.000053399,0.000267483,-0.000120804,-0.031296206,-0.045511886,-0.006625253,-0.008856642,0.002859683,0.999074474,-0.002374007,0.001091747,0.001880588,0.000000000,0.000000000,0.000000000,0.000000000,0.005677680,0.010191692,0.070915584,0.000478231,0.010652366,-0.003540718,-0.000665460,0.000679942,-0.000708143,0.067673543,-0.608544844,78.282439858,-0.002894162,0.004491588,0.631221873,0.775762968,0.000000000,0.000000000,0.000000000,0.000000000,0.000000000,0.000000000,73.753936768,0.000000000,4.212316990
1772691782.227109909,0.005666000,0.009984000,0.070985000,-0.010237600,0.010508710,0.721834890,0.691909780,0.001005000,0.029326000,1.613139000,-0.000457809,0.000453866,0.000149029,-0.036842736,-0.115935435,0.003362829,-0.009271140,0.003116939,0.999293268,-0.003391671,0.003057352,0.001780920,0.000000000,0.000000000,0.000000000,0.000000000,0.005680824,0.010191307,0.070914320,0.000479945,0.010693033,-0.003538685,-0.000297152,0.000437573,-0.000563627,0.067469531,-0.608888963,78.289110178,-0.002897700,0.004492624,0.631267016,0.775723844,0.000000000,0.000000000,0.000000000,0.000000000,0.000000000,0.000000000,73.753936768,0.000000000,4.212316990
1772691782.237109661,0.005660000,0.009975000,0.070993000,-0.010216900,0.010929360,0.721920630,0.691814120,0.001645000,0.029878000,1.613406000,-0.000694154,0.000268027,0.000801807,-0.027783103,-0.146128693,0.009930573,-0.010141081,0.001680709,0.999157063,-0.001099388,0.001445464,-0.000140378,0.000000000,0.000000000,0.000000000,0.000000000,0.005683967,0.010190922,0.070913056,0.000481660,0.010733702,-0.003536652,0.000071174,0.000195193,-0.000419104,0.067265509,-0.609233098,78.295780816,-0.002901238,0.004493661,0.631312160,0.775684717,0.000000000,0.000000000,0.000000000,0.000000000,0.000000000,0.000000000,73.753936768,0.000000000,4.212316990
1772691782.247110367,0.005657000,0.009971000,0.070990000,-0.010159090,0.011247370,0.722036430,0.691689010,0.002189000,0.030234000,1.613755000,-0.000643843,-0.000086946,0.001235471,-0.003135860,-0.127499625,0.017175007,-0.011011104,0.000244341,0.999020845,0.001193114,-0.000166578,-0.002061860,0.000000000,0.000000000,0.000000000,0.000000000,0.005681088,0.010188921,0.070913855,0.000377275,0.010688373,-0.003475130,0.000316035,-0.000005531,-0.000712994,0.067096226,-0.609611291,78.307556926,-0.002904929,0.004494990,0.631391861,0.775497057,0.000000000,0.000000000,0.000000000,0.000000000,0.000000000,0.000000000,73.753936768,0.000000000,4.212316990
1772691782.257110119,0.005654000,0.010046000,0.070968000,-0.007860470,0.007017670,0.721976970,0.691836840,-0.000743000,0.021062000,1.613419000,-0.000224515,-0.000512802,0.001158859,0.018418999,-0.068036228,0.020461439,-0.009544364,0.002649490,0.998657586,0.003597057,0.001066343,-0.001502147,0.000000000,0.000000000,0.000000000,0.000000000,0.005676191,0.010187528,0.070919195,0.000354574,0.010547120,-0.003410566,-0.000706059,0.001801189,-0.001142941,0.067793419,-0.610517503,78.350365620,-0.002906888,0.004503879,0.631681486,0.775275405,0.000000000,0.000000000,0.000000000,0.000000000,0.000000000,0.000000000,73.753936768,0.000000000,4.212316990
1772691782.267109156,0.005667000,0.009984000,0.070995000,-0.008538970,0.008422790,0.722067560,0.691718570,0.000351000,0.023986000,1.613727000,0.000653342,-0.000454837,0.000079138,0.015057986,-0.003512296,0.009641852,-0.007857007,0.002576195,0.998890489,0.000247633,0.000659137,-0.000497451,0.000000000,0.000000000,0.000000000,0.000000000,0.005671456,0.010186200,0.070925473,0.000354404,0.010397428,-0.003350553,-0.000205450,0.003030078,-0.000715593,0.069125505,-0.611842621,78.389761085,-0.002906734,0.004519186,0.631947807,0.775042937,0.000000000,0.000000000,0.000000000,0.000000000,0.000000000,0.000000000,73.753936768,0.000000000,4.212316990
1772691782.277109146,0.005666000,0.009970000,0.071009000,-0.009042060,0.009710680,0.722058700,0.691704540,0.001515000,0.026495000,1.613751000,-0.000138675,-0.001205634,0.001450079,0.068802211,0.126050065,0.016945575,-0.006677161,0.001237218,0.999824810,0.003028864,0.001206442,-0.003202549,0.000000000,0.000000000,0.000000000,0.000000000,0.005673601,0.010181843,0.070928651,0.000274347,0.010469520,-0.003331399,0.000599958,0.003219080,-0.000189029,0.069544202,-0.612583967,78.418423741,-0.002909123,0.004525782,0.632141599,0.774870254,0.000000000,0.000000000,0.000000000,0.000000000,0.000000000,0.000000000,73.753936768,0.000000000,4.212316990
1772691782.287108898,0.005659000,0.009960000,0.071018000,-0.009352250,0.010616880,0.722200630,0.691538910,0.002401000,0.028196000,1.614200000,0.000176593,-0.000613112,-0.000140968,0.064093479,0.175216911,0.007196242,-0.007054425,0.002004192,0.999877772,0.007541151,0.000867646,0.000263958,0.000000000,0.000000000,0.000000000,0.000000000,0.005693463,0.010200704,0.070885934,0.000390753,0.010644422,-0.003411139,-0.000137120,0.003564814,0.000100295,0.070593905,-0.613043123,78.446567148,-0.002905671,0.004533965,0.632331820,0.774721442,0.000000000,0.000000000,0.000000000,0.000000000,0.000000000,0.000000000,73.753936768,0.000000000,4.212316990
1772691782.297108889,0.005669000,0.009966000,0.071008000,-0.009775610,0.011188110,0.722152340,0.691574480,0.002639000,0.029598000,1.614087000,0.000106877,0.000126923,-0.001260704,0.029448121,0.145295357,-0.006979492,-0.008842475,0.002451045,0.998030796,0.001317001,0.002517969,-0.001829049,0.000000000,0.000000000,0.000000000,0.000000000,0.005690308,0.010202272,0.070890294,0.000393032,0.010779334,-0.003276242,-0.000239103,0.002122061,-0.001019498,0.072129139,-0.613087877,78.477770212,-0.002896776,0.004541950,0.632542677,0.774553836,0.000000000,0.000000000,0.000000000,0.000000000,0.000000000,0.000000000,73.753936768,0.000000000,4.212316990
1772691782.307109118,0.005668000,0.009967000,0.071006000,-0.009942870,0.011597000,0.722108770,0.691610850,0.002997000,0.030406000,1.613981000,0.000166006,0.001099049,-0.001973759,-0.038244895,0.009868071,-0.021083166,-0.008763124,-0.000672983,0.998995766,0.000301008,-0.003173175,0.003808133,0.000000000,0.000000000,0.000000000,0.000000000,0.005679798,0.010195342,0.070908311,0.000421254,0.010784625,-0.003159433,0.002349110,0.001923666,-0.001211168,0.072209306,-0.614697181,78.515988734,-0.002906636,0.004552300,0.632800859,0.774352134,0.000000000,0.000000000,0.000000000,0.000000000,0.000000000,0.000000000,73.753936768,0.000000000,4.212316990
1772691782.317108631,0.005638000,0.009974000,0.071008000,-0.010120530,0.011951530,0.722149670,0.691559530,0.003265000,0.031153000,1.614117000,0.000036169,0.000508489,-0.001326478,-0.053076577,-0.020427716,-0.020180868,-0.008357542,-0.000225740,0.998853524,-0.001130515,-0.000167311,-0.001831027,0.000000000,0.000000000,0.000000000,0.000000000,0.005670444,0.010187746,0.070923049,0.000491804,0.010727248,-0.003101196,0.002409361,0.002181850,-0.000816321,0.072219694,-0.614073372,78.555636510,-0.002904694,0.004547137,0.633068756,0.774141601,0.000000000,0.000000000,0.000000000,0.000000000,0.000000000,0.000000000,73.753936768,0.000000000,4.212316990
1772691782.327109098,0.005705000,0.010025000,0.070869000,-0.010061470,0.009531230,0.721760470,0.692004150,-0.000167000,0.027719000,1.612883000,-0.000061325,-0.000056624,-0.000298602,-0.036925066,-0.022874998,-0.012874689,-0.007511167,-0.000361840,1.001405065,0.001409375,-0.004208496,-0.003008032,0.000000000,0.000000000,0.000000000,0.000000000,0.005667674,0.010221826,0.070916304,0.000702688,0.010759895,-0.003120351,0.001959851,0.002394310,0.001037384,0.071672420,-0.613665746,78.588316472,-0.002907434,0.004540532,0.633289552,0.773938656,0.000000000,0.000000000,0.000000000,0.000000000,0.000000000,0.000000000,73.753936768,0.000000000,4.212316990
1772691782.337109566,0.005653000,0.009973000,0.070987000,-0.010158780,0.010402960,0.721879320,0.691866190,0.000963000,0.029066000,1.613263000,-0.000197727,-0.000598796,0.000756275,-0.003803105,-0.006625665,0.002827366,-0.008120071,-0.001362136,1.000955011,0.000904230,-0.004539448,-0.001219508,0.000000000,0.000000000,0.000000000,0.000000000,0.005674449,0.010207725,0.070927230,0.000861827,0.010735575,-0.002872071,0.002450111,0.002103800,0.001174887,0.071834619,-0.612295374,78.618012973,-0.002899939,0.004531422,0.633490130,0.773775946,0.000000000,0.000000000,0.000000000,0.000000000,0.000000000,0.000000000,73.753936768,0.000000000,4.212316990
1772691782.347109556,0.005667000,0.009964000,0.070988000,-0.010240220,0.010814440,0.722009870,0.691722440,0.001450000,0.029753000,1.613659000,-0.000056235,-0.000833723,0.001326031,0.027877414,0.023558920,0.013576566,-0.007599507,0.000722759,0.998582554,-0.001160859,0.001469413,0.001165446,0.000000000,0.000000000,0.000000000,0.000000000,0.005680032,0.010193794,0.070941949,0.001135207,0.010657912,-0.002561391,0.001412158,0.002424751,-0.000494024,0.071829533,-0.611184918,78.647436233,-0.002894997,0.004523152,0.633688804,0.773604568,0.000000000,0.000000000,0.000000000,0.000000000,0.000000000,0.000000000,73.753936768,0.000000000,4.212316990
1772691782.357109547,0.005649000,0.009960000,0.071011000,-0.010135700,0.011324130,0.722088410,0.691633840,0.002335000,0.030307000,1.613909000,-0.000135431,-0.000646213,0.001554022,0.057218266,0.052203463,0.019075441,-0.007374622,0.002505310,0.998069564,0.001062889,0.002863292,-0.001072922,0.000000000,0.000000000,0.000000000,0.000000000,0.005683412,0.010186838,0.070949447,0.001198660,0.010687105,-0.002516751,-0.000377925,0.003349817,-0.001491628,0.071423618,-0.611917289,78.673560311,-0.002902818,0.004525190,0.633865161,0.773461966,0.000000000,0.000000000,0.000000000,0.000000000,0.000000000,0.000000000,73.753936768,0.000000000,4.212316990
1772691782.367110252,0.005668000,0.009963000,0.071001000,-0.010040630,0.011518010,0.722088160,0.691632280,0.002746000,0.030438000,1.613918000,-0.000230517,-0.000052642,0.000787724,0.056492465,0.056163627,0.015860231,-0.008565383,0.004213398,0.998335423,0.000811730,-0.000340648,-0.001026691,0.000000000,0.000000000,0.000000000,0.000000000,0.005686505,0.010180822,0.070955940,0.001232820,0.010731173,-0.002508558,-0.001354443,0.002337643,-0.001754060,0.071903288,-0.614064013,78.704207381,-0.002912671,0.004541554,0.634071881,0.773305162,0.000000000,0.000000000,0.000000000,0.000000000,0.000000000,0.000000000,73.753936768,0.000000000,4.212316990
1772691782.377110004,0.005663000,0.009966000,0.070998000,-0.010105140,0.011650880,0.722113090,0.691603090,0.002850000,0.030715000,1.613996000,0.000299806,0.000779468,-0.001109306,0.014883193,0.017282729,-0.000905732,-0.010008837,0.004639551,0.999550456,0.001621142,-0.003972938,-0.000597330,0.000000000,0.000000000,0.000000000,0.000000000,0.005688638,0.010177624,0.070959136,0.001145564,0.010764131,-0.002518036,-0.003818281,0.001543437,0.000042149,0.071883381,-0.614984352,78.729445238,-0.002918900,0.004547011,0.634242088,0.773157592,0.000000000,0.000000000,0.000000000,0.000000000,0.000000000,0.000000000,73.753936768,0.000000000,4.212316990
1772691782.387109518,0.005668000,0.009972000,0.070992000,-0.010237470,0.011770860,0.722090500,0.691622700,0.002840000,0.031072000,1.613937000,-0.000221096,0.000492600,-0.000526419,0.008045657,0.013029635,-0.002488083,-0.009129038,0.002498385,1.001141525,-0.000041674,0.000524785,-0.002629790,0.000000000,0.000000000,0.000000000,0.000000000,0.005682777,0.010178793,0.070959235,0.000875055,0.010743717,-0.002485382,-0.001240904,0.000958029,0.001211542,0.071899142,-0.615099623,78.758114637,-0.002920569,0.004547146,0.634435488,0.773004729,0.000000000,0.000000000,0.000000000,0.000000000,0.000000000,0.000000000,73.753936768,0.000000000,4.212316990
1772691782.397109270,0.005657000,0.009983000,0.070994000,-0.010186970,0.011928270,0.722064710,0.691647670,0.003136000,0.031217000,1.613870000,-0.000226865,-0.000070435,0.000203477,0.018268428,0.022647076,0.003439449,-0.007599146,0.001718083,1.000967839,0.000847895,0.003547917,-0.002488995,0.000000000,0.000000000,0.000000000,0.000000000,0.005677030,0.010187949,0.070941815,0.000659692,0.010700330,-0.002407965,-0.000179628,0.002528976,0.000508492,0.071564116,-0.616527760,78.783610109,-0.002931750,0.004554271,0.634607449,0.772854522,0.000000000,0.000000000,0.000000000,0.000000000,0.000000000,0.000000000,73.753936768,0.000000000,4.212316990
1772691782.407109261,0.005662000,0.009980000,0.070975000,-0.010212900,0.011672890,0.722046270,0.691670890,0.002730000,0.030901000,1.613804000,0.000309577,0.000187219,-0.000704255,-0.009559020,-0.009754808,-0.007452972,-0.006861843,0.002058297,0.999832427,0.004030662,0.002535583,-0.001043780,0.000000000,0.000000000,0.000000000,0.000000000,0.005694423,0.010207963,0.070889566,0.000718796,0.010758478,-0.002441769,0.000052612,0.003880223,-0.000036433,0.071635287,-0.617610653,78.808978368,-0.002938276,0.004561318,0.634778498,0.772720670,0.000000000,0.000000000,0.000000000,0.000000000,0.000000000,0.000000000,73.753936768,0.000000000,4.212316990
1772691782.417109489,0.005658000,0.009976000,0.070983000,-0.010172550,0.011834670,0.722078630,0.691634960,0.003021000,0.031066000,1.613906000,0.001049651,0.000277603,-0.001175273,-0.047034765,-0.052240400,-0.021285383,-0.007628196,0.001709683,0.999262589,0.004971988,0.002045753,-0.001144102,0.000000000,0.000000000,0.000000000,0.000000000,0.005680000,0.010195729,0.070917198,0.000656510,0.010859924,-0.002211615,-0.000103704,0.003506660,-0.000408245,0.072525464,-0.617815375,78.836764424,-0.002934516,0.004566919,0.634965776,0.772564324,0.000000000,0.000000000,0.000000000,0.000000000,0.000000000,0.000000000,73.753936768,0.000000000,4.212316990
1772691782.427109718,0.005663000,0.009970000,0.070995000,-0.010118170,0.011772170,0.722067190,0.691648760,0.003006000,0.030901000,1.613869000,0.000679216,-0.000059188,-0.000351787,-0.049528870,-0.052471502,-0.021787108,-0.009908840,0.001987988,0.999202489,0.001834875,0.002626328,-0.001146890,0.000000000,0.000000000,0.000000000,0.000000000,0.005678556,0.010189555,0.070932204,0.000673611,0.010863397,-0.002118982,0.000106213,0.002177915,-0.000761631,0.073645181,-0.618536283,78.866141143,-0.002932136,0.004577232,0.635163704,0.772414678,0.000000000,0.000000000,0.000000000,0.000000000,0.000000000,0.000000000,73.753936768,0.000000000,4.212316990
1772691782.437109709,0.005687000,0.009968000,0.070987000,-0.010141770,0.011510790,0.721967570,0.691756800,0.002591000,0.030574000,1.613569000,0.000678089,0.000442075,-0.000857693,-0.073452527,-0.073608177,-0.027872764,-0.008090539,0.000606253,0.998979799,-0.002046657,0.000937642,-0.000829839,0.000000000,0.000000000,0.000000000,0.000000000,0.005677113,0.010183381,0.070947210,0.000690711,0.010866870,-0.002026350,0.000548210,0.002367614,-0.000980125,0.073984014,-0.619848222,78.897558914,-0.002938381,0.004587147,0.635375388,0.772229552,0.000000000,0.000000000,0.000000000,0.000000000,0.000000000,0.000000000,73.753936768,0.000000000,4.212316990
1772691782.447109699,0.005720000,0.010021000,0.070877000,-0.010156990,0.009180780,0.721584580,0.692190910,-0.000812000,0.027371000,1.612361000,0.000208955,0.000945242,-0.001041668,-0.080120344,-0.079688676,-0.027421081,-0.006401943,0.000493716,0.998621047,-0.002969350,-0.000767951,0.000753436,0.000000000,0.000000000,0.000000000,0.000000000,0.005676247,0.010178709,0.070959080,0.000736274,0.010901607,-0.001966677,0.001968067,0.003673658,-0.001301510,0.073156071,-0.621386599,78.928881961,-0.002953746,0.004592114,0.635586423,0.772054658,0.000000000,0.000000000,0.000000000,0.000000000,0.000000000,0.000000000,73.753936768,0.000000000,4.212316990
1772691782.457109451,0.005682000,0.009978000,0.070985000,-0.010130030,0.009872710,0.721736830,0.692023020,0.000231000,0.028290000,1.612829000,-0.000194522,0.000795242,-0.000928148,-0.068317565,-0.063782380,-0.018716171,-0.007210992,0.000422787,0.998827952,-0.000628460,-0.001852037,-0.001450523,0.000000000,0.000000000,0.000000000,0.000000000,0.005677540,0.010180856,0.070959046,0.000887417,0.011039890,-0.002022482,0.002193175,0.003386791,-0.001131824,0.072802887,-0.622487677,78.952805417,-0.002963192,0.004596956,0.635747578,0.771905368,0.000000000,0.000000000,0.000000000,0.000000000,0.000000000,0.000000000,73.753936768,0.000000000,4.212316990
1772691782.467110634,0.005650000,0.009979000,0.070994000,-0.010176890,0.010613050,0.721855630,0.691887450,0.001240000,0.029383000,1.613204000,-0.000526690,0.000141880,-0.000158256,-0.030296525,-0.015966860,0.000045313,-0.009259053,0.000792670,0.998303649,-0.000470777,0.000408691,0.002050866,0.000000000,0.000000000,0.000000000,0.000000000,0.005679077,0.010188271,0.070956954,0.001047725,0.011140555,-0.002062864,0.000674777,0.001761666,-0.001283468,0.072779689,-0.623734869,78.977782326,-0.002971272,0.004604580,0.635915765,0.771782603,0.000000000,0.000000000,0.000000000,0.000000000,0.000000000,0.000000000,73.753936768,0.000000000,4.212316990
1772691782.477110863,0.005699000,0.010035000,0.070884000,-0.010110300,0.008574320,0.721618640,0.692163850,-0.001622000,0.026464000,1.612437000,-0.000754410,-0.000601302,0.000905595,0.023341663,0.036477892,0.020117770,-0.009612848,0.000982811,0.997913424,0.001030459,0.001930396,0.001296676,0.000000000,0.000000000,0.000000000,0.000000000,0.005680541,0.010194625,0.070953283,0.001181810,0.011189620,-0.002130609,0.000309564,0.000715215,-0.003000172,0.071707903,-0.625389601,79.015392720,-0.002989184,0.004608795,0.636169021,0.771573836,0.000000000,0.000000000,0.000000000,0.000000000,0.000000000,0.000000000,73.753936768,0.000000000,4.212316990
1772691782.487110853,0.005668000,0.009999000,0.070952000,-0.010238080,0.009701340,0.721789800,0.691968600,-0.000164000,0.028209000,1.612975000,0.000085470,-0.001135471,0.000707363,0.056862157,0.102310068,0.024504226,-0.007189612,0.001291977,1.000521815,0.001230285,0.000120283,-0.001531669,0.000000000,0.000000000,0.000000000,0.000000000,0.005681760,0.010197354,0.070944215,0.001226320,0.011062353,-0.002291895,0.001175551,0.003780338,0.000033906,0.072350506,-0.626311877,79.049737570,-0.002991363,0.004617677,0.636400160,0.771380821,0.000000000,0.000000000,0.000000000,0.000000000,0.000000000,0.000000000,73.753936768,0.000000000,4.212316990
1772691782.497111559,0.005673000,0.009969000,0.070971000,-0.010341730,0.010371650,0.721901800,0.691840490,0.000665000,0.029287000,1.613327000,-0.000376554,-0.001118940,0.001746933,0.078750479,0.070457147,0.033910264,-0.008495862,0.002032908,1.000447887,0.002561954,0.001673116,-0.000321234,0.000000000,0.000000000,0.000000000,0.000000000,0.005684088,0.010195072,0.070944145,0.001281240,0.011098522,-0.002211725,-0.000240948,0.003743023,0.001510608,0.072052068,-0.625760439,79.076987169,-0.002991406,0.004611596,0.636583580,0.771219856,0.000000000,0.000000000,0.000000000,0.000000000,0.000000000,0.000000000,73.753936768,0.000000000,4.212316990
1772691782.507111311,0.005670000,0.009959000,0.070989000,-0.010435630,0.011090440,0.722057650,0.691665280,0.001581000,0.030417000,1.613810000,-0.000172727,-0.000867503,0.001561928,0.073258639,0.031462702,0.035312313,-0.007714461,0.003306188,0.999688396,0.001387963,-0.003087120,-0.000812102,0.000000000,0.000000000,0.000000000,0.000000000,0.005683631,0.010152627,0.070946290,0.001117694,0.010627545,-0.002066031,-0.001044764,0.003350261,-0.001603267,0.073283729,-0.626252342,79.074176812,-0.002985761,0.004621795,0.636564440,0.771056236,0.000000000,0.000000000,0.000000000,0.000000000,0.000000000,0.000000000,73.753936768,0.000000000,4.212316990
1772691782.517111301,0.005660000,0.009962000,0.071002000,-0.010145180,0.011562460,0.722135740,0.691580340,0.002668000,0.030650000,1.614058000,-0.000480090,0.000033819,0.000980401,0.039135788,-0.058854429,0.027968296,-0.008575744,0.001899708,0.998791476,0.000749924,-0.002463265,-0.000219485,0.000000000,0.000000000,0.000000000,0.000000000,0.005680803,0.010087027,0.070945138,0.000808457,0.009745318,-0.002004881,0.000178167,0.001193275,-0.001563883,0.073273584,-0.614359073,79.098953168,-0.002920733,0.004541041,0.636730674,0.770460683,0.000000000,0.000000000,0.000000000,0.000000000,0.000000000,0.000000000,73.753936768,0.000000000,4.212316990
