t,px,py,pz,qx,qy,qz,qw,roll,pitch,yaw,vx,vy,vz,wx_vicon,wy_vicon,wz_vicon,imu_acc_x,imu_acc_y,imu_acc_z,imu_gyro_x,imu_gyro_y,imu_gyro_z,motor_motor_m1,motor_motor_m2,motor_motor_m3,motor_motor_m4,est_stateEstimate_x,est_stateEstimate_y,est_stateEstimate_z,est_stateEstimate_vx,est_stateEstimate_vy,est_stateEstimate_vz,est_stateEstimate_ax,est_stateEstimate_ay,est_stateEstimate_az,att_stateEstimate_roll,att_stateEstimate_pitch,att_stateEstimate_yaw,att_stateEstimate_qx,att_stateEstimate_qy,att_stateEstimate_qz,att_stateEstimate_qw,sp_ctrltarget_x,sp_ctrltarget_y,sp_ctrltarget_z,sp_ctrltarget_yaw,pid_controller_roll,pid_controller_pitch,pid_controller_yaw,pid_controller_cmd_thrust,pwr_pm_vbat
1772723827.312747478,0.017637000,0.008484000,0.072001000,-0.023817330,-0.021027690,0.011170360,-0.999432740,0.047198000,0.042576000,-0.021347000,0.007765459,0.006440548,-0.015337314,0.695361119,-1.015011884,0.222731270,0.006107670,-0.000927788,1.000756832,0.002756653,-0.004748482,-0.002997445,0.000000000,0.000000000,0.000000000,0.000000000,0.018217994,0.007916409,0.071902114,0.036454644,-0.039529178,-0.001950381,0.009845707,-0.010510660,0.000280628,0.556429968,-0.211797791,-0.836463562,0.004869098,0.001812770,-0.007308326,0.999958774,0.000000000,0.000000000,0.000000000,0.000000000,0.000000000,0.000000000,-0.836395983,0.000000000,4.222874165
1772723827.322748423,0.017709000,0.008538000,0.071874000,-0.025515520,-0.018375410,0.010591010,-0.999449410,0.050671000,0.037280000,-0.020248000,0.002196356,0.000686251,-0.003240505,0.218311646,-0.310427201,0.072124459,0.006264800,-0.000975208,1.001336797,0.001172114,-0.002378288,-0.003294965,0.000000000,0.000000000,0.000000000,0.000000000,0.018071025,0.008027881,0.071955236,0.035983432,-0.039213157,-0.001646866,0.009787063,-0.010990305,0.001371686,0.556363555,-0.210461701,-0.836069123,0.004868427,0.001801132,-0.007304827,0.999958835,0.000000000,0.000000000,0.000000000,0.000000000,0.000000000,0.000000000,-0.835998278,0.000000000,4.222874165
1772723827.332748652,0.017716000,0.008542000,0.071851000,-0.026821500,-0.016712010,0.010285030,-0.999447610,0.053326000,0.033964000,-0.019675000,-0.000885508,-0.002040260,0.002936976,-0.051938924,0.084384995,-0.011380747,0.006146875,-0.001531343,1.000604072,-0.001712521,0.001973771,0.002798680,0.000000000,0.000000000,0.000000000,0.000000000,0.018343705,0.007730602,0.071943205,0.036704560,-0.040034348,-0.001545297,0.009805853,-0.011510126,0.000547358,0.556026813,-0.209058393,-0.835662803,0.004865393,0.001788925,-0.007301216,0.999958887,0.000000000,0.000000000,0.000000000,0.000000000,0.000000000,0.000000000,-0.835598913,0.000000000,4.222874165
1772723827.342748642,0.017668000,0.008476000,0.071980000,-0.025649630,-0.018283300,0.010671510,-0.999446820,0.050938000,0.037102000,-0.020409000,-0.002058442,-0.002527079,0.004672717,-0.162266533,0.240598270,-0.043569617,0.005649328,-0.002642041,1.000065088,-0.000437564,0.000608322,0.003067733,0.000000000,0.000000000,0.000000000,0.000000000,0.018367832,0.007691764,0.071962509,0.036724836,-0.040190749,-0.001412720,0.009339662,-0.012242693,-0.000160777,0.555581291,-0.207886556,-0.835067710,0.004861421,0.001778753,-0.007295967,0.999958995,0.000000000,0.000000000,0.000000000,0.000000000,0.000000000,0.000000000,-0.834884348,0.000000000,4.222874165
1772723827.352748871,0.017643000,0.008446000,0.072014000,-0.024677390,-0.019823200,0.010818060,-0.999440360,0.048957000,0.040169000,-0.020664000,-0.001900753,-0.001562299,0.003444307,-0.159282486,0.229564390,-0.040264421,0.005648577,-0.002273424,0.999146928,0.000176276,-0.006242996,-0.001283478,0.000000000,0.000000000,0.000000000,0.000000000,0.018657509,0.007370005,0.071957121,0.037387249,-0.041168618,-0.001400815,0.009150206,-0.012561034,-0.000795723,0.556116380,-0.208048925,-0.833747256,0.004866080,0.001780192,-0.007284460,0.999959054,0.000000000,0.000000000,0.000000000,0.000000000,0.000000000,0.000000000,-0.833777207,0.000000000,4.222874165
1772723827.362749100,0.017645000,0.008463000,0.072019000,-0.023933590,-0.020976080,0.010925550,-0.999433750,0.047442000,0.042464000,-0.020855000,-0.000990750,0.000065985,0.000729335,-0.089765752,0.122539427,-0.017192395,0.007159424,-0.003045369,0.999579681,-0.003254878,-0.000442921,-0.001643755,0.000000000,0.000000000,0.000000000,0.000000000,0.019032464,0.006956408,0.071942572,0.038344181,-0.042366008,-0.001535478,0.010288998,-0.012232983,-0.000889655,0.554765116,-0.205305089,-0.833721021,0.004854115,0.001756335,-0.007284094,0.999959116,0.000000000,0.000000000,0.000000000,0.000000000,0.000000000,0.000000000,-0.833511011,0.000000000,4.222874165
1772723827.372750044,0.017635000,0.008473000,0.071999000,-0.023534770,-0.021382460,0.010931490,-0.999434540,0.046636000,0.043269000,-0.020865000,-0.000141702,0.000824107,-0.000763444,-0.039338415,0.054424244,-0.002125076,0.007439134,-0.001033577,1.000592689,0.000578304,0.001200974,-0.000987397,0.000000000,0.000000000,0.000000000,0.000000000,0.019389746,0.006561531,0.071928572,0.039302224,-0.043451607,-0.001516456,0.010922189,-0.011713891,0.000514932,0.554680830,-0.202285405,-0.832386314,0.004853167,0.001730046,-0.007272318,0.999959284,0.000000000,0.000000000,0.000000000,0.000000000,0.000000000,0.000000000,-0.832501412,0.000000000,4.222874165
1772723827.382749557,0.017711000,0.008541000,0.071855000,-0.025211900,-0.018862170,0.010435190,-0.999449690,0.050060000,0.038239000,-0.019924000,-0.000146986,0.000938168,-0.000839414,0.003221315,0.005461629,-0.000072683,0.008300325,-0.000094266,0.998151381,-0.000251287,-0.003846777,0.001382957,0.000000000,0.000000000,0.000000000,0.000000000,0.018282399,0.007805972,0.071938866,0.033000536,-0.036374568,-0.001418650,0.011200814,-0.009887863,-0.000824931,0.549220534,-0.198363075,-0.834971483,0.004805305,0.001696062,-0.007294642,0.999961255,0.000000000,0.000000000,0.000000000,0.000000000,0.000000000,0.000000000,-0.837145544,0.000000000,4.222874165
1772723827.392750025,0.017632000,0.008506000,0.071977000,-0.024425950,-0.020121900,0.010820490,-0.999440540,0.048448000,0.040761000,-0.020665000,-0.000652782,-0.000260406,0.000905651,-0.013979822,0.036127831,-0.014202193,0.007598310,-0.001519081,0.996777843,0.001472153,0.000513494,-0.000695429,0.000000000,0.000000000,0.000000000,0.000000000,0.017793593,0.008315792,0.071984318,0.031263360,-0.034224254,-0.001282245,0.010846298,-0.010035559,-0.002539105,0.511081002,-0.165950443,-0.849272567,0.004470609,0.001415084,-0.007417604,0.999960484,0.000000000,0.000000000,0.000000000,0.000000000,0.000000000,0.000000000,-0.849033326,0.000000000,4.222874165
1772723827.402750015,0.017622000,0.008461000,0.072019000,-0.023822620,-0.021159390,0.010889630,-0.999432930,0.047218000,0.042827000,-0.020779000,-0.000768864,-0.001238336,0.001893779,-0.044528059,0.084565870,-0.025431334,0.007538318,-0.002346138,0.999257681,0.002713972,0.000296388,-0.000494962,0.000000000,0.000000000,0.000000000,0.000000000,0.017846197,0.008241182,0.071997237,0.032138307,-0.034904572,-0.001433122,0.010305968,-0.011666970,-0.001236998,0.512712963,-0.166395169,-0.849103165,0.004484878,0.001418865,-0.007416163,0.999960552,0.000000000,0.000000000,0.000000000,0.000000000,0.000000000,0.000000000,-0.849517333,0.000000000,4.222874165
1772723827.412750244,0.017637000,0.008469000,0.072017000,-0.023661890,-0.021683610,0.011066790,-0.999423560,0.046879000,0.043880000,-0.021117000,-0.000441229,-0.001280604,0.002001936,-0.070665643,0.122158535,-0.030761571,0.007488564,-0.001755630,0.998564581,0.001899055,-0.001477789,-0.002825640,0.000000000,0.000000000,0.000000000,0.000000000,0.018121433,0.007938123,0.071986394,0.033671272,-0.036472439,-0.001667704,0.011021852,-0.011160122,-0.001396477,0.517537771,-0.171764797,-0.851673385,0.004527360,0.001465309,-0.007438863,0.999960005,0.000000000,0.000000000,0.000000000,0.000000000,0.000000000,0.000000000,-0.851678653,0.000000000,4.222874165
1772723827.422750235,0.017621000,0.008476000,0.072013000,-0.023344700,-0.022054280,0.011263820,-0.999420710,0.046228000,0.044624000,-0.021508000,0.000115324,-0.000901456,0.000830906,-0.064813937,0.101991750,-0.020048840,0.006997643,-0.001466625,0.996986880,-0.000892864,-0.003317386,0.000957574,0.000000000,0.000000000,0.000000000,0.000000000,0.018157572,0.007911586,0.071978848,0.034370383,-0.037112240,-0.001741204,0.009658283,-0.010366653,-0.003494930,0.516573283,-0.172312710,-0.850606110,0.004518965,0.001470195,-0.007429559,0.999960088,0.000000000,0.000000000,0.000000000,0.000000000,0.000000000,0.000000000,-0.850370789,0.000000000,4.222874165
1772723827.432750225,0.017643000,0.008451000,0.072011000,-0.023174270,-0.022304810,0.011137280,-0.999420540,0.045888000,0.045115000,-0.021251000,0.001143059,0.000212058,-0.001297095,-0.012760644,0.012961260,0.002806876,0.005512352,-0.001028896,0.998176702,0.001139983,-0.004524444,0.000028214,0.000000000,0.000000000,0.000000000,0.000000000,0.018086698,0.007997967,0.071972480,0.034604909,-0.037183540,-0.002039879,0.007613095,-0.010667436,-0.002208152,0.516100958,-0.169955212,-0.849590986,0.004514678,0.001449693,-0.007420601,0.999960218,0.000000000,0.000000000,0.000000000,0.000000000,0.000000000,0.000000000,-0.849519977,0.000000000,4.222874165
1772723827.442750454,0.017653000,0.008463000,0.072003000,-0.023164610,-0.022258080,0.011141470,-0.999421760,0.045869000,0.045022000,-0.021262000,0.000526794,0.000559622,-0.000777993,0.004647773,-0.018422678,0.008239668,0.007176573,-0.000618619,0.998577980,-0.000874751,-0.001619275,0.001021746,0.000000000,0.000000000,0.000000000,0.000000000,0.018118380,0.007969167,0.071970222,0.034645007,-0.037308959,-0.002236725,0.010069609,-0.009384579,-0.001170984,0.516875017,-0.167853887,-0.848100251,0.004521279,0.001431365,-0.007407521,0.999960343,0.000000000,0.000000000,0.000000000,0.000000000,0.000000000,0.000000000,-0.847902906,0.000000000,4.222874165
1772723827.452750444,0.017651000,0.008474000,0.071999000,-0.023185470,-0.022262730,0.011099790,-0.999421630,0.045913000,0.045030000,-0.021177000,-0.000292282,0.000105670,0.000464694,-0.006383737,-0.002070961,0.001796709,0.007603094,-0.000167878,0.999370978,-0.000306808,-0.001786800,0.001575801,0.000000000,0.000000000,0.000000000,0.000000000,0.017971647,0.008124843,0.071978699,0.034401347,-0.036885951,-0.002261545,0.010286469,-0.009587690,-0.001157864,0.515438551,-0.167346410,-0.846199068,0.004508687,0.001427104,-0.007390891,0.999960487,0.000000000,0.000000000,0.000000000,0.000000000,0.000000000,0.000000000,-0.846034432,0.000000000,4.222874165
1772723827.462751150,0.017651000,0.008468000,0.071989000,-0.023391290,-0.021798610,0.010984790,-0.999428340,0.046339000,0.044100000,-0.020959000,0.000131660,0.000967557,-0.000750061,0.030313767,-0.049567146,0.006262231,0.007870673,-0.002005366,1.000048416,-0.002124227,-0.003745076,0.001812704,0.000000000,0.000000000,0.000000000,0.000000000,0.018338416,0.007798501,0.071884283,0.035603994,-0.037705599,-0.002627544,0.010152969,-0.010347424,-0.000196291,0.515168777,-0.165845876,-0.844990016,0.004506221,0.001414075,-0.007380279,0.999960613,0.000000000,0.000000000,0.000000000,0.000000000,0.000000000,0.000000000,-0.844965038,0.000000000,4.222874165
1772723827.472751617,0.017648000,0.008485000,0.071994000,-0.023463430,-0.021662540,0.011064760,-0.999428720,0.046482000,0.043834000,-0.021122000,0.000122278,0.001188784,-0.001643105,0.064204726,-0.094424742,0.015377814,0.006106617,-0.002583012,1.000679489,-0.001407796,-0.003802910,0.002164041,0.000000000,0.000000000,0.000000000,0.000000000,0.018338352,0.007799518,0.071883453,0.035611133,-0.037710799,-0.002618155,0.008974122,-0.011722844,0.000158630,0.514209890,-0.164302512,-0.844580173,0.004497750,0.001400685,-0.007376631,0.999960697,0.000000000,0.000000000,0.000000000,0.000000000,0.000000000,0.000000000,-0.844490052,0.000000000,4.222874165
1772723827.482752323,0.017637000,0.008492000,0.072001000,-0.023603820,-0.021559620,0.011068860,-0.999427600,0.046765000,0.043631000,-0.021129000,0.000461742,0.000552901,-0.001561347,0.079786255,-0.111364847,0.026551667,0.006216466,-0.001882559,0.998939272,0.000494861,0.003009649,-0.001447243,0.000000000,0.000000000,0.000000000,0.000000000,0.018033053,0.008079204,0.071954827,0.034735031,-0.037153186,-0.002138440,0.008824063,-0.011441829,-0.000596805,0.512907912,-0.162537254,-0.844598372,0.004486275,0.001385364,-0.007376705,0.999960780,0.000000000,0.000000000,0.000000000,0.000000000,0.000000000,0.000000000,-0.844699476,0.000000000,4.222874165
1772723827.492752790,0.017634000,0.008478000,0.072000000,-0.023552130,-0.021607230,0.011148810,-0.999426900,0.046657000,0.043729000,-0.021289000,0.000447503,0.000145335,-0.000766280,0.069599133,-0.097043083,0.023588828,0.006709692,-0.001960842,0.999731954,-0.001101751,-0.002502373,-0.000743977,0.000000000,0.000000000,0.000000000,0.000000000,0.018343706,0.007741728,0.071940119,0.035467532,-0.038182586,-0.002192021,0.009636493,-0.011064904,-0.000252893,0.511596467,-0.161692586,-0.844320683,0.004474773,0.001378088,-0.007374233,0.999960831,0.000000000,0.000000000,0.000000000,0.000000000,0.000000000,0.000000000,-0.844175309,0.000000000,4.222874165
1772723827.502753258,0.017704000,0.008542000,0.071859000,-0.025428850,-0.018852060,0.010510170,-0.999443600,0.050491000,0.038227000,-0.020066000,-0.000156135,-0.000751886,0.000984923,0.016478119,-0.023356197,0.008456631,0.006237219,-0.001871396,0.999886343,-0.000215992,0.000983319,-0.000378251,0.000000000,0.000000000,0.000000000,0.000000000,0.018332176,0.007734669,0.071961045,0.035409428,-0.038332250,-0.002025425,0.008838208,-0.010792395,0.000003544,0.510636672,-0.161191642,-0.842943584,0.004466349,0.001373832,-0.007362185,0.999960953,0.000000000,0.000000000,0.000000000,0.000000000,0.000000000,0.000000000,-0.842697201,0.000000000,4.222874165
1772723827.512753487,0.017650000,0.008475000,0.071967000,-0.024820670,-0.019836850,0.010573210,-0.999439160,0.049254000,0.040187000,-0.020167000,0.000134787,-0.000474737,0.000444803,0.008490985,-0.015014475,0.005553361,0.006311287,-0.000965322,0.999681125,-0.000231517,-0.001442544,-0.001925363,0.000000000,0.000000000,0.000000000,0.000000000,0.018333148,0.007735959,0.071958523,0.035410241,-0.038327979,-0.002034706,0.009692699,-0.009777285,-0.000349487,0.509895147,-0.160045423,-0.842211962,0.004459796,0.001363906,-0.007355747,0.999961023,0.000000000,0.000000000,0.000000000,0.000000000,0.000000000,0.000000000,-0.842191014,0.000000000,4.222874165
1772723827.522754669,0.017655000,0.008466000,0.072010000,-0.024353470,-0.020450170,0.010766050,-0.999436240,0.048299000,0.041414000,-0.020543000,0.000069171,0.000129115,0.000127911,0.004186311,-0.005807803,-0.002982041,0.006715937,-0.000825078,0.999547847,-0.000542820,-0.001958831,-0.001500027,0.000000000,0.000000000,0.000000000,0.000000000,0.018337763,0.007742080,0.071946553,0.035414096,-0.038307714,-0.002078747,0.010009262,-0.009537987,-0.000520053,0.509408809,-0.159113191,-0.842093119,0.004455491,0.001355807,-0.007354668,0.999961034,0.000000000,0.000000000,0.000000000,0.000000000,0.000000000,0.000000000,-0.842077684,0.000000000,4.222874165
1772723827.532754660,0.017639000,0.008478000,0.072017000,-0.023958000,-0.020915900,0.011026610,-0.999433320,0.047488000,0.042349000,-0.021059000,-0.000185621,0.000411918,0.000130747,-0.002796276,0.009848468,-0.011251191,0.007120540,-0.000684851,0.999414584,-0.000854086,-0.002475057,-0.001074743,0.000000000,0.000000000,0.000000000,0.000000000,0.018342377,0.007748200,0.071934586,0.035417951,-0.038287451,-0.002122782,0.010193624,-0.009438640,-0.000649242,0.509151940,-0.158676744,-0.841989477,0.004453221,0.001352019,-0.007353744,0.999961044,0.000000000,0.000000000,0.000000000,0.000000000,0.000000000,0.000000000,-0.841974774,0.000000000,4.222874165
1772723827.542754889,0.017641000,0.008471000,0.072004000,-0.023785350,-0.021250640,0.011004250,-0.999430620,0.047137000,0.043014000,-0.021006000,-0.000364696,0.000391910,-0.000021328,-0.010869531,0.023726183,-0.015206970,0.007525152,-0.000544620,0.999281318,-0.001165360,-0.002991295,-0.000649449,0.000000000,0.000000000,0.000000000,0.000000000,0.018346992,0.007754320,0.071922617,0.035421806,-0.038267188,-0.002166819,0.010377990,-0.009339290,-0.000778434,0.508895064,-0.158240287,-0.841885832,0.004450950,0.001348231,-0.007352819,0.999961054,0.000000000,0.000000000,0.000000000,0.000000000,0.000000000,0.000000000,-0.841871862,0.000000000,4.222874165
1772723827.552756071,0.017698000,0.008547000,0.071868000,-0.025551300,-0.018830750,0.010623050,-0.999439690,0.050733000,0.038193000,-0.020288000,0.000047493,0.000477553,-0.000956835,0.006729395,0.000775818,-0.002072528,0.007929803,-0.000404377,0.999148039,-0.001476663,-0.003507582,-0.000224113,0.000000000,0.000000000,0.000000000,0.000000000,0.018351607,0.007760441,0.071910648,0.035425662,-0.038246923,-0.002210859,0.010562373,-0.009239931,-0.000907639,0.508638164,-0.157803788,-0.841782178,0.004448679,0.001344442,-0.007351895,0.999961064,0.000000000,0.000000000,0.000000000,0.000000000,0.000000000,0.000000000,-0.841768940,0.000000000,4.222874165
1772723827.562756062,0.017644000,0.008498000,0.071972000,-0.024654740,-0.020200220,0.010914680,-0.999432320,0.048901000,0.040927000,-0.020840000,-0.000176142,-0.000634426,0.000298459,-0.020598385,0.040143728,-0.000186771,0.008334406,-0.000264149,0.999014777,-0.001787929,-0.004023808,0.000201171,0.000000000,0.000000000,0.000000000,0.000000000,0.018356221,0.007766562,0.071898680,0.035429517,-0.038226660,-0.002254894,0.010746735,-0.009140584,-0.001036828,0.508381294,-0.157367341,-0.841678536,0.004446408,0.001340654,-0.007350971,0.999961074,0.000000000,0.000000000,0.000000000,0.000000000,0.000000000,0.000000000,-0.841666030,0.000000000,4.222874165
1772723827.572756052,0.017640000,0.008475000,0.072002000,-0.024083350,-0.020988650,0.010981870,-0.999429270,0.047739000,0.042495000,-0.020961000,-0.000113459,-0.001265919,0.001458436,-0.053203866,0.076644209,-0.006442805,0.007736945,-0.000401955,0.998574670,-0.000898256,-0.003185051,-0.000120991,0.000000000,0.000000000,0.000000000,0.000000000,0.018356819,0.007769659,0.071893947,0.035450971,-0.038200064,-0.002267042,0.010931097,-0.009041237,-0.001166017,0.508124425,-0.156930894,-0.841574893,0.004444137,0.001336866,-0.007350046,0.999961150,0.000000000,0.000000000,0.000000000,0.000000000,0.000000000,0.000000000,-0.841563121,0.000000000,4.222874165
1772723827.582756281,0.017635000,0.008466000,0.072009000,-0.023666770,-0.021576710,0.011001600,-0.999426480,0.046893000,0.043663000,-0.020991000,-0.000344786,-0.001173730,0.001951257,-0.076583029,0.097600446,-0.015852695,0.005914656,-0.000879600,0.997759500,0.001459337,-0.000690089,-0.001356760,0.000000000,0.000000000,0.000000000,0.000000000,0.018346765,0.007764742,0.071908403,0.035519099,-0.038156671,-0.002194623,0.009603453,-0.009530889,-0.001469482,0.505827732,-0.154544964,-0.842078684,0.004423948,0.001316174,-0.007354326,0.999961280,0.000000000,0.000000000,0.000000000,0.000000000,0.000000000,0.000000000,-0.841488719,0.000000000,4.222874165
1772723827.592756271,0.017651000,0.008458000,0.072002000,-0.023532340,-0.021767550,0.010970300,-0.999425860,0.046622000,0.044041000,-0.020925000,-0.000136613,-0.000709288,0.001336663,-0.069917589,0.080957098,-0.015353659,0.005078546,-0.001251032,0.999638811,-0.000144491,-0.001173192,-0.001578505,0.000000000,0.000000000,0.000000000,0.000000000,0.018167919,0.007932953,0.071944648,0.034139916,-0.036697184,-0.002039120,0.007977387,-0.010307696,-0.001242093,0.495920116,-0.144757207,-0.844781534,0.004336893,0.001231296,-0.007377428,0.999961620,0.000000000,0.000000000,0.000000000,0.000000000,0.000000000,0.000000000,-0.842405350,0.000000000,4.222874165
1772723827.602757215,0.017666000,0.008465000,0.071999000,-0.023442130,-0.021762540,0.010966760,-0.999428130,0.046442000,0.044029000,-0.020922000,0.000452554,0.000508691,-0.000396980,-0.018922906,0.008334996,-0.003511532,0.007964992,-0.002773004,0.999856701,0.000768144,-0.002375798,-0.000679631,0.000000000,0.000000000,0.000000000,0.000000000,0.018202896,0.007878253,0.071956943,0.034192450,-0.036931577,-0.002002038,0.009149559,-0.010978301,-0.000326316,0.495574214,-0.143722486,-0.844204940,0.004333802,0.001222311,-0.007372354,0.999961674,0.000000000,0.000000000,0.000000000,0.000000000,0.000000000,0.000000000,-0.843960664,0.000000000,4.222874165
1772723827.612757444,0.017645000,0.008468000,0.072019000,-0.023254680,-0.021846970,0.011124270,-0.999428930,0.046058000,0.044201000,-0.021242000,-0.000151687,0.000687436,-0.000160039,-0.009729560,-0.001143050,-0.008544847,0.007069474,-0.001725682,0.999173527,-0.002502301,-0.002928739,0.001734777,0.000000000,0.000000000,0.000000000,0.000000000,0.018261895,0.007805096,0.071961270,0.034601151,-0.037449990,-0.001965408,0.010035963,-0.011004808,-0.000255753,0.495311916,-0.143505194,-0.842527358,0.004331481,0.001220495,-0.007357704,0.999961787,0.000000000,0.000000000,0.000000000,0.000000000,0.000000000,0.000000000,-0.842360934,0.000000000,4.222874165
1772723827.622757912,0.017637000,0.008482000,0.072014000,-0.023197320,-0.021916550,0.011164910,-0.999428280,0.045940000,0.044341000,-0.021323000,-0.000358966,0.000569587,-0.000205493,-0.004438269,-0.007347157,-0.007854282,0.007125953,0.001513210,0.998994443,0.000403349,-0.001032037,0.002071218,0.000000000,0.000000000,0.000000000,0.000000000,0.018305384,0.007763378,0.071961831,0.034943676,-0.037812154,-0.001949666,0.009271449,-0.007937520,-0.000993773,0.494508199,-0.142974078,-0.840991944,0.004324418,0.001215970,-0.007344277,0.999961912,0.000000000,0.000000000,0.000000000,0.000000000,0.000000000,0.000000000,-0.840675153,0.000000000,4.222874165
1772723827.632759094,0.017648000,0.008478000,0.072005000,-0.023236390,-0.021831010,0.011129220,-0.999429650,0.046021000,0.044169000,-0.021254000,-0.000983058,0.000022027,0.000594295,-0.024973097,0.032963107,-0.014641294,0.006252719,0.000142142,0.999866527,-0.000550741,0.000010366,0.001470417,0.000000000,0.000000000,0.000000000,0.000000000,0.018320100,0.007745864,0.071971645,0.035112653,-0.037710419,-0.001934830,0.008618594,-0.007731333,-0.000199243,0.494575988,-0.142726117,-0.838645684,0.004324969,0.001213890,-0.007323794,0.999962103,0.000000000,0.000000000,0.000000000,0.000000000,0.000000000,0.000000000,-0.838585269,0.000000000,4.222874165
1772723827.642759562,0.017642000,0.008484000,0.072002000,-0.023269060,-0.021817670,0.011125740,-0.999429220,0.046087000,0.044143000,-0.021246000,0.000010295,0.000435441,-0.000845066,0.007897513,-0.012339084,-0.002477498,0.005300863,-0.000765377,1.000037811,-0.003690641,-0.001189973,0.004374757,0.000000000,0.000000000,0.000000000,0.000000000,0.018320575,0.007749222,0.071974904,0.035148312,-0.037470405,-0.001896769,0.007603696,-0.009341532,-0.000201944,0.493348760,-0.141904943,-0.837608009,0.004314196,0.001206841,-0.007314694,0.999962207,0.000000000,0.000000000,0.000000000,0.000000000,0.000000000,0.000000000,-0.837410635,0.000000000,4.222874165
1772723827.652760267,0.017630000,0.008488000,0.071996000,-0.023251820,-0.021818260,0.011267940,-0.999428010,0.046046000,0.044150000,-0.021531000,0.000409956,0.000223169,-0.000906564,0.028042078,-0.038666959,0.003827134,0.006493096,-0.002292223,0.998678681,-0.001373577,-0.003374798,0.001339288,0.000000000,0.000000000,0.000000000,0.000000000,0.018325342,0.007751175,0.071971911,0.035045495,-0.037398071,-0.001817693,0.008582882,-0.010907762,-0.001420945,0.491642397,-0.139869624,-0.835740548,0.004299157,0.001189260,-0.007298304,0.999962406,0.000000000,0.000000000,0.000000000,0.000000000,0.000000000,0.000000000,-0.835483436,0.000000000,4.222874165
1772723827.662760735,0.017639000,0.008475000,0.072001000,-0.023248290,-0.021770610,0.011160360,-0.999430340,0.046045000,0.044050000,-0.021318000,0.001293366,0.000554339,-0.002180836,0.084455319,-0.116077767,0.025410248,0.007164282,-0.001264876,0.998192553,-0.001537060,0.000167288,-0.000435798,0.000000000,0.000000000,0.000000000,0.000000000,0.018322605,0.007754919,0.071968626,0.034986575,-0.037466690,-0.001879897,0.009339772,-0.009853533,-0.001473290,0.490370905,-0.138241593,-0.834274318,0.004287943,0.001175189,-0.007285436,0.999962558,0.000000000,0.000000000,0.000000000,0.000000000,0.000000000,0.000000000,-0.834167787,0.000000000,4.222874165
1772723827.672760725,0.017631000,0.008481000,0.072010000,-0.023269970,-0.021955450,0.011256910,-0.999424710,0.046081000,0.044424000,-0.021502000,0.001499907,0.000857634,-0.002633390,0.122930178,-0.168661446,0.042750844,0.006018611,-0.001903244,0.998607852,0.000618906,0.004864891,0.002014855,0.000000000,0.000000000,0.000000000,0.000000000,0.018317078,0.007756823,0.071964117,0.035027739,-0.037476566,-0.002006557,0.008023514,-0.010544709,-0.001870709,0.489122920,-0.138444324,-0.833151339,0.004277054,0.001177079,-0.007275631,0.999962683,0.000000000,0.000000000,0.000000000,0.000000000,0.000000000,0.000000000,-0.833025169,0.000000000,4.222874165
1772723827.682761192,0.017716000,0.008538000,0.071868000,-0.025269200,-0.018749590,0.010684920,-0.999447720,0.050167000,0.038028000,-0.020427000,0.001132317,0.000633105,-0.001917555,0.126422487,-0.166680975,0.043261782,0.006402690,-0.001779153,0.999954622,-0.001049894,-0.003580027,0.003380571,0.000000000,0.000000000,0.000000000,0.000000000,0.018210471,0.007892576,0.071946456,0.034710735,-0.037151322,-0.002169897,0.008823450,-0.010438923,0.000096840,0.487941865,-0.138748523,-0.831215834,0.004266747,0.001179881,-0.007258741,0.999962855,0.000000000,0.000000000,0.000000000,0.000000000,0.000000000,0.000000000,-0.830919796,0.000000000,4.222874165
1772723827.692761660,0.017659000,0.008476000,0.071972000,-0.024789930,-0.019810740,0.010806720,-0.999437950,0.049183000,0.040146000,-0.020637000,0.000267049,0.000128843,-0.000452515,0.084101455,-0.103684126,0.023788205,0.005843394,-0.001269193,1.000100840,-0.001497597,0.000554321,0.001316067,0.000000000,0.000000000,0.000000000,0.000000000,0.018127861,0.008026495,0.071907634,0.034465800,-0.036834005,-0.002330567,0.007830157,-0.010664162,0.000657008,0.486646709,-0.137284432,-0.829130172,0.004255331,0.001167264,-0.007240473,0.999963037,0.000000000,0.000000000,0.000000000,0.000000000,0.000000000,0.000000000,-0.828867347,0.000000000,4.222874165
1772723827.702761412,0.017718000,0.008530000,0.071857000,-0.026282190,-0.017663760,0.010251200,-0.999445920,0.052230000,0.035854000,-0.019576000,-0.000772360,-0.000420154,0.001375357,0.006287292,0.003724258,-0.006923763,0.005106653,0.000218519,0.999183252,-0.000491817,0.000498553,-0.000260436,0.000000000,0.000000000,0.000000000,0.000000000,0.018352318,0.007775681,0.071899759,0.034970735,-0.037534273,-0.002239589,0.007710334,-0.008821591,-0.000782433,0.485569188,-0.138007145,-0.828225924,0.004245965,0.001173672,-0.007232598,0.999963145,0.000000000,0.000000000,0.000000000,0.000000000,0.000000000,0.000000000,-0.828170834,0.000000000,4.222874165
1772723827.712762117,0.017647000,0.008500000,0.071970000,-0.025226230,-0.019173960,0.010696920,-0.999440630,0.050073000,0.038876000,-0.020431000,-0.001905298,-0.001228099,0.003552949,-0.098570467,0.145750726,-0.037292405,0.005632733,-0.000301584,0.999826376,0.000060705,-0.004196870,-0.001620589,0.000000000,0.000000000,0.000000000,0.000000000,0.018148141,0.007985002,0.071914992,0.034202658,-0.036922082,-0.002140785,0.007362197,-0.008518928,-0.000601456,0.484696946,-0.134982371,-0.827179853,0.004238152,0.001147371,-0.007223350,0.999963264,0.000000000,0.000000000,0.000000000,0.000000000,0.000000000,0.000000000,-0.827121013,0.000000000,4.222874165
1772723827.722762346,0.017638000,0.008480000,0.072003000,-0.024605270,-0.020267860,0.011046130,-0.999430730,0.048795000,0.041068000,-0.021102000,-0.001414128,-0.000661854,0.002310359,-0.121111040,0.168549505,-0.041799585,0.006540297,-0.001307938,1.001062621,-0.000518884,-0.003851007,-0.002294398,0.000000000,0.000000000,0.000000000,0.000000000,0.018194729,0.007939694,0.071904827,0.034156253,-0.036930897,-0.002161800,0.008470134,-0.009867449,0.000833049,0.483845252,-0.133058409,-0.827089970,0.004230598,0.001130639,-0.007222486,0.999963346,0.000000000,0.000000000,0.000000000,0.000000000,0.000000000,0.000000000,-0.827073741,0.000000000,4.222874165
1772723827.732762337,0.017640000,0.008474000,0.072010000,-0.023874840,-0.021123830,0.011214850,-0.999428840,0.047310000,0.042772000,-0.021429000,-0.000198383,-0.000122336,0.000472289,-0.088365565,0.114299582,-0.025793888,0.005924298,-0.002386378,1.001734206,-0.000862712,-0.004337608,-0.000312054,0.000000000,0.000000000,0.000000000,0.000000000,0.018331961,0.007772196,0.071916765,0.034439992,-0.037347334,-0.001983600,0.008152839,-0.010218617,0.001629067,0.482991619,-0.131633269,-0.826925474,0.004223057,0.001118262,-0.007220989,0.999963395,0.000000000,0.000000000,0.000000000,0.000000000,0.000000000,0.000000000,-0.826857073,0.000000000,4.222874165
1772723827.742763042,0.017633000,0.008481000,0.072019000,-0.023408930,-0.021756960,0.011180620,-0.999426660,0.046366000,0.044027000,-0.021352000,0.000706802,0.000403235,-0.001486602,-0.015896156,0.017139163,0.002826858,0.004744878,-0.001445835,1.000703845,0.001449431,-0.006741542,0.002192685,0.000000000,0.000000000,0.000000000,0.000000000,0.018316901,0.007759221,0.071951448,0.034320694,-0.037454759,-0.001577394,0.006908615,-0.010775123,0.000817084,0.481581602,-0.128368403,-0.826126527,0.004210540,0.001089890,-0.007213884,0.999963526,0.000000000,0.000000000,0.000000000,0.000000000,0.000000000,0.000000000,-0.825962356,0.000000000,4.222874165
1772723827.752763510,0.017630000,0.008480000,0.072002000,-0.023267110,-0.021917950,0.011115580,-0.999427180,0.046082000,0.044343000,-0.021221000,0.001768763,0.001276641,-0.003733228,0.087843652,-0.123679741,0.039170311,0.006868539,-0.001588850,0.999024475,0.000171940,-0.000563435,0.000190193,0.000000000,0.000000000,0.000000000,0.000000000,0.018306189,0.007754815,0.071975375,0.034076880,-0.037505908,-0.001291254,0.008711571,-0.010025901,-0.000744206,0.481892434,-0.124869330,-0.824847574,0.004213020,0.001059383,-0.007202598,0.999963597,0.000000000,0.000000000,0.000000000,0.000000000,0.000000000,0.000000000,-0.824793071,0.000000000,4.222874165
1772723827.762763500,0.017707000,0.008531000,0.071859000,-0.025138580,-0.019168370,0.010649380,-0.999443450,0.049899000,0.038861000,-0.020340000,0.001287131,0.000746292,-0.002248045,0.106900294,-0.146438109,0.039297766,0.006893905,-0.001890556,0.997611036,-0.000287093,-0.000986810,0.001520791,0.000000000,0.000000000,0.000000000,0.000000000,0.018334036,0.007721054,0.071967408,0.034097897,-0.037586937,-0.001366800,0.008901673,-0.010388116,-0.002511419,0.481802411,-0.123653397,-0.823810790,0.004212149,0.001048817,-0.007193505,0.999963687,0.000000000,0.000000000,0.000000000,0.000000000,0.000000000,0.000000000,-0.824595690,0.000000000,4.222874165
1772723827.772763968,0.017664000,0.008487000,0.071969000,-0.024589210,-0.020232760,0.010821150,-0.999434290,0.048773000,0.040986000,-0.020654000,0.000414248,0.000050387,-0.000345330,0.078831801,-0.102249339,0.022500533,0.006032288,-0.001647970,0.999428851,0.001307335,-0.002749202,0.000297274,0.000000000,0.000000000,0.000000000,0.000000000,0.018345934,0.007763235,0.071903129,0.034077614,-0.037415322,-0.001833948,0.008379470,-0.010334221,-0.000609839,0.481958879,-0.121911169,-0.822796362,0.004213396,0.001033641,-0.007184591,0.999963760,0.000000000,0.000000000,0.000000000,0.000000000,0.000000000,0.000000000,-0.822976621,0.000000000,4.222874165
1772723827.782763481,0.017702000,0.008539000,0.071857000,-0.026093200,-0.017961520,0.010421990,-0.999443800,0.051841000,0.036455000,-0.019910000,-0.000634698,-0.000551580,0.001566106,0.007404566,-0.010613480,-0.002903453,0.006000778,-0.001021501,1.000650081,-0.000795196,-0.000191115,-0.000634401,0.000000000,0.000000000,0.000000000,0.000000000,0.018496109,0.007586405,0.071908517,0.034333738,-0.037883716,-0.001816141,0.007271507,-0.009757323,0.000758612,0.481625000,-0.120597576,-0.822516431,0.004210397,0.001022209,-0.007182097,0.999963803,0.000000000,0.000000000,0.000000000,0.000000000,0.000000000,0.000000000,-0.822498453,0.000000000,4.222874165
1772723827.792763948,0.017658000,0.008484000,0.071976000,-0.025110960,-0.019440820,0.010737700,-0.999437940,0.049835000,0.039409000,-0.020504000,-0.001529899,-0.000900329,0.002938142,-0.073157143,0.094523241,-0.026546598,0.006180785,-0.000090144,1.000422167,0.001427387,-0.001508733,-0.003870186,0.000000000,0.000000000,0.000000000,0.000000000,0.018916280,0.007121822,0.071887006,0.035253776,-0.039041620,-0.001744151,0.008817893,-0.008896937,0.000425446,0.480902712,-0.120530539,-0.822311232,0.004204089,0.001021677,-0.007180298,0.999963876,0.000000000,0.000000000,0.000000000,0.000000000,0.000000000,0.000000000,-0.822395883,0.000000000,4.222874165
1772723827.802764893,0.017652000,0.008471000,0.072018000,-0.024224500,-0.020555960,0.010947370,-0.999435230,0.048032000,0.041631000,-0.020906000,-0.002290119,-0.001479531,0.003889460,-0.149878274,0.197082763,-0.049079404,0.005718120,0.002578220,0.999749554,-0.002501259,-0.003935036,0.002100527,0.000000000,0.000000000,0.000000000,0.000000000,0.017981370,0.008137704,0.071957489,0.026836050,-0.029712580,-0.001255525,0.007037150,-0.007971201,0.000298399,0.473244712,-0.111910630,-0.825795037,0.004136744,0.000946819,-0.007210346,0.999965787,0.000000000,0.000000000,0.000000000,0.000000000,0.000000000,0.000000000,-0.826504169,0.000000000,4.222874165
1772723827.812764883,0.017621000,0.008485000,0.072006000,-0.023751780,-0.021185120,0.011069590,-0.999432090,0.047068000,0.042885000,-0.021141000,-0.000776284,-0.000248091,0.000773759,-0.112577223,0.143447486,-0.034873635,0.005564793,0.000001145,1.000836898,-0.001357836,-0.001453779,-0.000677627,0.000000000,0.000000000,0.000000000,0.000000000,0.017930422,0.008160369,0.071985887,0.026730021,-0.029377937,-0.001091745,0.006604543,-0.007382744,0.000417540,0.434056568,-0.074872469,-0.838631869,0.003792525,0.000625643,-0.007320792,0.999964883,0.000000000,0.000000000,0.000000000,0.000000000,0.000000000,0.000000000,-0.836295596,0.000000000,4.222874165
1772723827.822765112,0.017624000,0.008479000,0.072011000,-0.023260010,-0.021742860,0.011209070,-0.999430130,0.046067000,0.043997000,-0.021416000,0.000106466,0.000267010,-0.000919618,-0.059879258,0.078480805,-0.016084300,0.005690169,-0.000364304,0.999151899,-0.000038287,-0.005335428,-0.000514850,0.000000000,0.000000000,0.000000000,0.000000000,0.018017258,0.008046918,0.071994899,0.027463621,-0.030100572,-0.000993766,0.007266120,-0.008246211,-0.000232378,0.436972344,-0.080159622,-0.840807945,0.003818319,0.000671522,-0.007339973,0.999964577,0.000000000,0.000000000,0.000000000,0.000000000,0.000000000,0.000000000,-0.841950138,0.000000000,4.222874165
1772723827.832765102,0.017626000,0.008472000,0.072014000,-0.022949330,-0.022265720,0.011294220,-0.999424840,0.045431000,0.045039000,-0.021577000,0.001194359,0.000958836,-0.002750267,0.027837342,-0.045722966,0.012923328,0.005850897,-0.000354575,0.999036497,0.000449175,-0.004837826,-0.000421661,0.000000000,0.000000000,0.000000000,0.000000000,0.018119936,0.007976047,0.071949282,0.028048292,-0.030658167,-0.001155732,0.006756992,-0.007802081,-0.001823799,0.437683010,-0.077465617,-0.840969035,0.003824350,0.000647962,-0.007341293,0.999964535,0.000000000,0.000000000,0.000000000,0.000000000,0.000000000,0.000000000,-0.841483831,0.000000000,4.222874165
1772723827.842765093,0.017623000,0.008465000,0.072017000,-0.022749210,-0.022589690,0.011332440,-0.999421710,0.045022000,0.045685000,-0.021648000,0.001135444,0.000370349,-0.001472344,0.056341761,-0.076081278,0.019600098,0.006082791,-0.000296309,1.000116704,-0.000088002,-0.000555637,0.000414744,0.000000000,0.000000000,0.000000000,0.000000000,0.018182701,0.007933211,0.071918907,0.028448542,-0.031058164,-0.001380036,0.007015471,-0.007871225,-0.000956426,0.436986797,-0.078244025,-0.840563698,0.003818321,0.000654813,-0.007337778,0.999964536,0.000000000,0.000000000,0.000000000,0.000000000,0.000000000,0.000000000,-0.841017525,0.000000000,4.222874165
1772723827.852766514,0.017706000,0.008543000,0.071857000,-0.024680110,-0.019793700,0.010736270,-0.999441760,0.048967000,0.040106000,-0.020501000,0.000826826,-0.000163710,-0.000077271,0.053771531,-0.064959171,0.018886359,0.005323203,-0.001565514,0.999893926,0.002325951,-0.005248534,-0.004432198,0.000000000,0.000000000,0.000000000,0.000000000,0.018197174,0.007894448,0.071952745,0.028666313,-0.031347144,-0.001244851,0.006587897,-0.008742068,0.000484590,0.437038525,-0.078751185,-0.839901769,0.003818801,0.000659257,-0.007332020,0.999964647,0.000000000,0.000000000,0.000000000,0.000000000,0.000000000,0.000000000,-0.840395698,0.000000000,4.222874165
1772723827.862766504,0.017660000,0.008485000,0.071957000,-0.024302430,-0.020373550,0.010878360,-0.999437830,0.048194000,0.041265000,-0.020773000,-0.000590352,-0.000736813,0.001742054,0.006032340,0.004387224,-0.001393335,0.005465394,-0.002055971,1.001253090,-0.002196394,-0.000578556,-0.001658171,0.000000000,0.000000000,0.000000000,0.000000000,0.018200409,0.007873381,0.071976653,0.028758652,-0.031610111,-0.001098924,0.006578930,-0.009533111,0.000338131,0.437288981,-0.076927418,-0.840897945,0.003820876,0.000643293,-0.007340653,0.999964542,0.000000000,0.000000000,0.000000000,0.000000000,0.000000000,0.000000000,-0.840022697,0.000000000,4.222874165
1772723827.872766495,0.017646000,0.008470000,0.072020000,-0.023893970,-0.020878480,0.011022050,-0.999435680,0.047361000,0.042273000,-0.021054000,-0.000747574,-0.000600006,0.001848617,-0.029387251,0.053852648,-0.017027304,0.005693350,-0.000641659,1.000486207,0.000783808,0.000717636,-0.000407234,0.000000000,0.000000000,0.000000000,0.000000000,0.018200014,0.007863847,0.071983722,0.028812158,-0.031838937,-0.000966577,0.007083957,-0.009145580,0.001091866,0.435971169,-0.075917963,-0.840499696,0.003809309,0.000634582,-0.007337137,0.999964646,0.000000000,0.000000000,0.000000000,0.000000000,0.000000000,0.000000000,-0.840892626,0.000000000,4.222874165
1772723827.882767439,0.017641000,0.008469000,0.072020000,-0.023724120,-0.021523190,0.011106310,-0.999425120,0.047005000,0.043562000,-0.021200000,-0.000003089,0.000483750,-0.000394610,0.002760533,0.004997087,-0.003782069,0.006573827,-0.000037986,0.998795280,-0.001268254,-0.002861676,-0.001497802,0.000000000,0.000000000,0.000000000,0.000000000,0.018196735,0.007861379,0.071985275,0.028885151,-0.031974204,-0.000865633,0.007806748,-0.008209384,-0.000275478,0.435668764,-0.075427149,-0.839356354,0.003806633,0.000630356,-0.007327141,0.999964704,0.000000000,0.000000000,0.000000000,0.000000000,0.000000000,0.000000000,-0.840478932,0.000000000,4.222874165
1772723827.892766714,0.017636000,0.008472000,0.072010000,-0.023533180,-0.021727580,0.011127400,-0.999424980,0.046618000,0.043968000,-0.021241000,0.000524813,0.001514456,-0.002452760,0.058514391,-0.075358082,0.018390197,0.007317728,-0.000572173,0.998981600,-0.001140486,-0.001573892,0.002501039,0.000000000,0.000000000,0.000000000,0.000000000,0.018217194,0.007879563,0.071944712,0.029080153,-0.032005039,-0.001046881,0.008006316,-0.007972033,-0.001908276,0.434657525,-0.074006906,-0.838313872,0.003797712,0.000618062,-0.007317992,0.999964810,0.000000000,0.000000000,0.000000000,0.000000000,0.000000000,0.000000000,-0.839229228,0.000000000,4.222874165
1772723827.902767181,0.017625000,0.008485000,0.072002000,-0.023365910,-0.021845230,0.011307970,-0.999424310,0.046273000,0.044208000,-0.021605000,0.001354184,0.002003567,-0.003807799,0.121075440,-0.171658544,0.047071068,0.006319012,0.000515299,1.000171848,0.000195759,0.000068318,0.002097182,0.000000000,0.000000000,0.000000000,0.000000000,0.018247956,0.007906407,0.071880077,0.029328008,-0.032044015,-0.001381042,0.008280049,-0.008157330,0.000122310,0.434376261,-0.073220038,-0.835828705,0.003795194,0.000611296,-0.007296278,0.999964975,0.000000000,0.000000000,0.000000000,0.000000000,0.000000000,0.000000000,-0.838166365,0.000000000,4.222874165
1772723827.912766695,0.017712000,0.008552000,0.071857000,-0.025230710,-0.019239630,0.010652540,-0.999439730,0.050082000,0.039005000,-0.020339000,0.000368484,0.000196752,-0.000735803,0.081399141,-0.116304365,0.037840016,0.006848662,0.000360002,0.999514319,-0.001963443,-0.000187923,0.001928703,0.000000000,0.000000000,0.000000000,0.000000000,0.018249392,0.007907269,0.071872890,0.029424772,-0.032110392,-0.001383249,0.007741682,-0.006596108,0.000398313,0.434391970,-0.072155981,-0.835378798,0.003795261,0.000602024,-0.007292317,0.999965012,0.000000000,0.000000000,0.000000000,0.000000000,0.000000000,0.000000000,-0.836007849,0.000000000,4.222874165
1772723827.922767401,0.017704000,0.008561000,0.071832000,-0.026595080,-0.017152870,0.010120290,-0.999447880,0.052870000,0.034832000,-0.019330000,-0.000045337,-0.000810102,0.001242551,0.024421463,-0.041644252,0.020159079,0.007886232,-0.000452453,0.998669884,-0.004012343,-0.000555710,0.002926166,0.000000000,0.000000000,0.000000000,0.000000000,0.018237895,0.007892622,0.071902503,0.029427236,-0.032148745,-0.001201318,0.008464939,-0.007945118,-0.001431365,0.432935224,-0.071540432,-0.834216569,0.003782504,0.000596784,-0.007282146,0.999965115,0.000000000,0.000000000,0.000000000,0.000000000,0.000000000,0.000000000,-0.835343180,0.000000000,4.222874165
1772723827.932767630,0.017648000,0.008501000,0.071966000,-0.025534200,-0.018827010,0.010462950,-0.999441880,0.050705000,0.038177000,-0.019969000,0.000226355,-0.000825175,0.000597636,0.013203278,-0.023423047,0.014625069,0.007828052,-0.000414036,0.998983704,-0.003413261,-0.000695236,0.002525733,0.000000000,0.000000000,0.000000000,0.000000000,0.018236560,0.007886121,0.071912801,0.029458932,-0.032178959,-0.001168146,0.008505266,-0.008011855,-0.001213182,0.432149238,-0.071289343,-0.833625987,0.003775626,0.000594662,-0.007276980,0.999965203,0.000000000,0.000000000,0.000000000,0.000000000,0.000000000,0.000000000,-0.835066372,0.000000000,4.222874165
1772723827.942767620,0.017649000,0.008452000,0.072032000,-0.024560410,-0.020056850,0.010615850,-0.999440750,0.048727000,0.040624000,-0.020253000,0.000325245,-0.000827234,0.000240768,0.004564765,-0.007726035,0.008667124,0.007769873,-0.000375620,0.999297515,-0.002814194,-0.000834760,0.002125310,0.000000000,0.000000000,0.000000000,0.000000000,0.018235224,0.007879619,0.071923099,0.029490627,-0.032209172,-0.001134975,0.008506796,-0.008004271,-0.000883236,0.431969928,-0.071070140,-0.833474571,0.003774047,0.000592766,-0.007275651,0.999965224,0.000000000,0.000000000,0.000000000,0.000000000,0.000000000,0.000000000,-0.834793831,0.000000000,4.222874165
1772723827.952767134,0.017647000,0.008455000,0.072022000,-0.024027070,-0.020996110,0.010831710,-0.999432110,0.047633000,0.042502000,-0.020662000,0.000283327,-0.000510167,0.000059128,-0.000198163,-0.005065893,0.001701985,0.007711697,-0.000337206,0.999611312,-0.002215156,-0.000974277,0.001724906,0.000000000,0.000000000,0.000000000,0.000000000,0.018233889,0.007873119,0.071933397,0.029522321,-0.032239384,-0.001101805,0.008508326,-0.007996687,-0.000553305,0.431790628,-0.070850948,-0.833323162,0.003772467,0.000590869,-0.007274322,0.999965244,0.000000000,0.000000000,0.000000000,0.000000000,0.000000000,0.000000000,-0.834521302,0.000000000,4.222874165
1772723827.962767839,0.017710000,0.008530000,0.071865000,-0.025520220,-0.018525020,0.010394790,-0.999448590,0.050685000,0.037569000,-0.019848000,0.000627666,0.000527960,-0.000982961,0.023164224,-0.042541747,0.003821717,0.007653514,-0.000298787,0.999925146,-0.001616045,-0.001113810,0.001324454,0.000000000,0.000000000,0.000000000,0.000000000,0.018232554,0.007866617,0.071943696,0.029554018,-0.032269599,-0.001068631,0.008509857,-0.007989103,-0.000223335,0.431611305,-0.070631729,-0.833171735,0.003770888,0.000588973,-0.007272993,0.999965264,0.000000000,0.000000000,0.000000000,0.000000000,0.000000000,0.000000000,-0.834248741,0.000000000,4.222874165
1772723827.972768307,0.017718000,0.008533000,0.071834000,-0.026743680,-0.016875400,0.010050360,-0.999449340,0.053175000,0.034276000,-0.019199000,-0.000198655,0.000704393,-0.000380702,0.014793851,-0.037454751,-0.001709020,0.007595332,-0.000260369,1.000238972,-0.001016950,-0.001253340,0.000924011,0.000000000,0.000000000,0.000000000,0.000000000,0.018231218,0.007860116,0.071953994,0.029585715,-0.032299814,-0.001035459,0.008511387,-0.007981519,0.000106628,0.431431988,-0.070412516,-0.833020311,0.003769308,0.000587076,-0.007271663,0.999965285,0.000000000,0.000000000,0.000000000,0.000000000,0.000000000,0.000000000,-0.833976187,0.000000000,4.222874165
1772723827.982769251,0.017670000,0.008480000,0.071976000,-0.025530090,-0.018742910,0.010402250,-0.999444200,0.050700000,0.038005000,-0.019852000,-0.001872587,-0.000725139,0.002775170,-0.080560242,0.096551309,-0.034717500,0.006501809,-0.000160138,1.000103030,0.001222216,-0.003821416,-0.000626744,0.000000000,0.000000000,0.000000000,0.000000000,0.018229447,0.007848309,0.071970931,0.029698030,-0.032366021,-0.000954982,0.008352051,-0.007904383,0.000372501,0.431252661,-0.070193292,-0.832868880,0.003767729,0.000585180,-0.007270334,0.999965305,0.000000000,0.000000000,0.000000000,0.000000000,0.000000000,0.000000000,-0.833645480,0.000000000,4.222874165
1772723827.992769003,0.017644000,0.008478000,0.072013000,-0.024648650,-0.019620610,0.010715170,-0.999446180,0.048908000,0.039758000,-0.020469000,-0.001672320,-0.000984146,0.002812445,-0.123419828,0.160526046,-0.047601722,0.006465167,-0.000204486,0.999586910,0.000282003,-0.000798758,-0.000678683,0.000000000,0.000000000,0.000000000,0.000000000,0.018244428,0.007855225,0.071946548,0.029854497,-0.032386340,-0.001025824,0.007736279,-0.007721825,0.000277196,0.431429176,-0.067191332,-0.832879482,0.003769079,0.000558972,-0.007270329,0.999965310,0.000000000,0.000000000,0.000000000,0.000000000,0.000000000,0.000000000,-0.832867505,0.000000000,4.222874165
1772723828.002768755,0.017627000,0.008487000,0.072014000,-0.023900580,-0.020692510,0.011095390,-0.999438580,0.047374000,0.041904000,-0.021209000,-0.000808490,-0.000397485,0.000996034,-0.107288710,0.162765309,-0.042446212,0.006026297,-0.001983552,1.000026359,0.002362763,0.002454926,0.002208623,0.000000000,0.000000000,0.000000000,0.000000000,0.018272728,0.007879327,0.071880833,0.030003134,-0.032379113,-0.001272842,0.007221504,-0.008628447,-0.000363537,0.430439743,-0.066586805,-0.832391697,0.003760404,0.000553775,-0.007266046,0.999965359,0.000000000,0.000000000,0.000000000,0.000000000,0.000000000,0.000000000,-0.832855741,0.000000000,4.222874165
1772723828.012769222,0.017627000,0.008472000,0.072008000,-0.023371180,-0.021524030,0.011124020,-0.999433220,0.046297000,0.043557000,-0.021251000,0.000600977,0.000503640,-0.001482755,-0.030626699,0.067917506,-0.015861709,0.005659094,-0.002738135,1.000106625,0.002411252,-0.000701992,0.001301933,0.000000000,0.000000000,0.000000000,0.000000000,0.018273043,0.007872989,0.071888384,0.030008495,-0.032596649,-0.001191499,0.006499616,-0.010482283,0.000757304,0.431217907,-0.067053500,-0.829944385,0.003767212,0.000557879,-0.007244710,0.999965477,0.000000000,0.000000000,0.000000000,0.000000000,0.000000000,0.000000000,-0.832022440,0.000000000,4.222874165
1772723828.022769213,0.017634000,0.008463000,0.072001000,-0.023123030,-0.022052520,0.011176470,-0.999426890,0.045788000,0.044611000,-0.021343000,0.001148225,0.000471493,-0.001877502,0.033653292,-0.009286039,0.008040762,0.005055249,-0.003125197,0.999441562,0.004265747,0.000406139,0.003134660,0.000000000,0.000000000,0.000000000,0.000000000,0.018250909,0.007853608,0.071943072,0.029893632,-0.032971709,-0.000896044,0.006658761,-0.010644088,-0.000376477,0.431423584,-0.065262976,-0.828701112,0.003768888,0.000542282,-0.007233804,0.999965608,0.000000000,0.000000000,0.000000000,0.000000000,0.000000000,0.000000000,-0.829689676,0.000000000,4.222874165
1772723828.032769442,0.017707000,0.008540000,0.071861000,-0.025058200,-0.019634360,0.010725380,-0.999435610,0.049727000,0.039795000,-0.020472000,0.000275207,-0.000355042,0.000728441,0.010672316,0.026693731,0.001177325,0.004607596,-0.002860442,0.999411403,-0.001272746,-0.006124898,-0.000628144,0.000000000,0.000000000,0.000000000,0.000000000,0.018228065,0.007845801,0.071974985,0.029762308,-0.033312894,-0.000784636,0.005761719,-0.010491768,-0.000767182,0.431921301,-0.063584758,-0.827772698,0.003773121,0.000527636,-0.007225649,0.999965619,0.000000000,0.000000000,0.000000000,0.000000000,0.000000000,0.000000000,-0.828398325,0.000000000,4.222874165
1772723828.042769909,0.017665000,0.008490000,0.071962000,-0.024573870,-0.020715580,0.010847090,-0.999424500,0.048732000,0.041953000,-0.020683000,-0.000244653,-0.000404633,0.001223457,-0.009656983,0.035171799,-0.004745173,0.005630907,-0.002973879,0.998632991,0.000338033,-0.002695881,-0.000705286,0.000000000,0.000000000,0.000000000,0.000000000,0.018215459,0.007830869,0.071985311,0.029625523,-0.033653913,-0.000807849,0.006338872,-0.010404681,-0.001722877,0.430978612,-0.060587265,-0.827526621,0.003764705,0.000501547,-0.007223399,0.999965691,0.000000000,0.000000000,0.000000000,0.000000000,0.000000000,0.000000000,-0.827716934,0.000000000,4.222874165
1772723828.052770615,0.017645000,0.008462000,0.072031000,-0.023934640,-0.021315090,0.011057560,-0.999425100,0.047432000,0.043148000,-0.021103000,-0.000187564,0.000187641,0.000215419,-0.003575851,0.004380101,-0.000189277,0.005665963,-0.002359835,1.000494475,-0.001257242,-0.002730072,0.000293002,0.000000000,0.000000000,0.000000000,0.000000000,0.018224415,0.007828576,0.071962824,0.029629884,-0.033904262,-0.001011731,0.006775929,-0.010433747,-0.000295448,0.430138692,-0.059346433,-0.827043889,0.003757296,0.000490788,-0.007219142,0.999965758,0.000000000,0.000000000,0.000000000,0.000000000,0.000000000,0.000000000,-0.827457379,0.000000000,4.222874165
1772723828.062770605,0.017639000,0.008472000,0.072020000,-0.023581540,-0.021853460,0.011100170,-0.999421390,0.046713000,0.044220000,-0.021179000,0.000628171,0.001240725,-0.002596599,0.059742152,-0.104233707,0.028672018,0.006741559,-0.001699746,1.000970750,-0.000457236,-0.001778349,0.000706057,0.000000000,0.000000000,0.000000000,0.000000000,0.018248917,0.007846012,0.071915293,0.029676512,-0.034055648,-0.001162317,0.007678164,-0.008576924,0.001719924,0.429764525,-0.059165906,-0.825348672,0.003754012,0.000489291,-0.007204341,0.999965867,0.000000000,0.000000000,0.000000000,0.000000000,0.000000000,0.000000000,-0.826879902,0.000000000,4.222874165
1772723828.072770357,0.017635000,0.008488000,0.071999000,-0.023469430,-0.021947610,0.011139400,-0.999421530,0.046485000,0.044407000,-0.021258000,0.001094342,0.001795685,-0.004100431,0.124623018,-0.200438078,0.052179205,0.006968848,-0.002116998,0.999573880,-0.001007799,-0.001843958,0.001067538,0.000000000,0.000000000,0.000000000,0.000000000,0.018240797,0.007827743,0.071948649,0.029716681,-0.034216354,-0.000879522,0.008120193,-0.009786914,-0.000773363,0.428623933,-0.058562806,-0.823984634,0.003744015,0.000484145,-0.007192414,0.999965995,0.000000000,0.000000000,0.000000000,0.000000000,0.000000000,0.000000000,-0.824902015,0.000000000,4.222874165
1772723828.082771063,0.017696000,0.008534000,0.071848000,-0.025243240,-0.019136000,0.010530450,-0.999442700,0.050114000,0.038792000,-0.020100000,0.001403659,0.001858738,-0.004047654,0.169761842,-0.261972205,0.063845402,0.006768686,-0.001927247,0.999963725,-0.000684115,-0.000025409,0.000557580,0.000000000,0.000000000,0.000000000,0.000000000,0.018231009,0.007813451,0.071981125,0.029788765,-0.034370862,-0.000735505,0.007890782,-0.009279146,0.000278018,0.427484072,-0.056867683,-0.822997626,0.003733958,0.000469456,-0.007183740,0.999966072,0.000000000,0.000000000,0.000000000,0.000000000,0.000000000,0.000000000,-0.823922253,0.000000000,4.222874165
1772723828.092770338,0.017715000,0.008560000,0.071824000,-0.026602490,-0.017135710,0.010072950,-0.999448450,0.052887000,0.034795000,-0.019236000,0.000377769,0.000170839,-0.000393289,0.111287119,-0.177746498,0.043319719,0.006273973,-0.001483795,0.998933182,0.001774342,-0.000880795,0.001802326,0.000000000,0.000000000,0.000000000,0.000000000,0.018223860,0.007812724,0.071988584,0.029868821,-0.034452982,-0.000686883,0.007474442,-0.009368368,-0.000291071,0.426502402,-0.056715120,-0.822465032,0.003725379,0.000468204,-0.007179084,0.999966137,0.000000000,0.000000000,0.000000000,0.000000000,0.000000000,0.000000000,-0.822825571,0.000000000,4.222874165
1772723828.102770805,0.017709000,0.008562000,0.071814000,-0.027486810,-0.015841700,0.009862830,-0.999447970,0.054686000,0.032214000,-0.018855000,-0.001147235,-0.001794831,0.004111017,-0.021380381,0.011552606,-0.006683781,0.005304459,-0.001434289,0.999130511,0.001524557,-0.000153238,0.002782576,0.000000000,0.000000000,0.000000000,0.000000000,0.018245971,0.007835892,0.071919020,0.029973910,-0.034439145,-0.001030776,0.006342642,-0.008999483,-0.001661250,0.427024818,-0.056185886,-0.820469934,0.003729897,0.000463618,-0.007161659,0.999966273,0.000000000,0.000000000,0.000000000,0.000000000,0.000000000,0.000000000,-0.821881848,0.000000000,4.222874165
1772723828.112770796,0.017649000,0.008491000,0.071982000,-0.025973060,-0.018036310,0.010365790,-0.999446170,0.051601000,0.036599000,-0.019798000,-0.001670921,-0.002316905,0.005367729,-0.130445328,0.178775363,-0.049539480,0.006170723,-0.001486520,0.999637629,0.001216098,0.001642845,-0.000210642,0.000000000,0.000000000,0.000000000,0.000000000,0.018275057,0.007867182,0.071847232,0.029919661,-0.034420060,-0.001427687,0.006521685,-0.008929729,-0.000079285,0.427019030,-0.057377892,-0.819171804,0.003729916,0.000474062,-0.007150370,0.999966383,0.000000000,0.000000000,0.000000000,0.000000000,0.000000000,0.000000000,-0.819981741,0.000000000,4.222874165
1772723828.122771502,0.017641000,0.008460000,0.072044000,-0.024706400,-0.019568810,0.010702770,-0.999445900,0.049025000,0.039655000,-0.020444000,-0.000706938,-0.001098052,0.002546756,-0.134754796,0.196384972,-0.053169199,0.006594585,-0.001804645,0.999686539,0.000171419,-0.002972300,-0.000062353,0.000000000,0.000000000,0.000000000,0.000000000,0.018280506,0.007878027,0.071818383,0.029818798,-0.034478812,-0.001556264,0.007439653,-0.009387354,-0.000183950,0.427146080,-0.056611111,-0.818421473,0.003730973,0.000467387,-0.007143798,0.999966415,0.000000000,0.000000000,0.000000000,0.000000000,0.000000000,0.000000000,-0.819096855,0.000000000,4.222874165
1772723828.132771254,0.017646000,0.008465000,0.072031000,-0.024015960,-0.020625470,0.010859180,-0.999439790,0.047617000,0.041762000,-0.020735000,0.000551677,0.000441113,-0.001536426,-0.054940568,0.098459999,-0.023912059,0.006891911,-0.000935458,0.999019906,-0.001648948,-0.000385006,0.002000484,0.000000000,0.000000000,0.000000000,0.000000000,0.018262750,0.007858150,0.071864526,0.029733259,-0.034609021,-0.001316430,0.007390482,-0.009189130,-0.000894314,0.426580087,-0.055011541,-0.817491519,0.003725931,0.000453495,-0.007135629,0.999966514,0.000000000,0.000000000,0.000000000,0.000000000,0.000000000,0.000000000,-0.818509519,0.000000000,4.222874165
1772723828.142771244,0.017641000,0.008475000,0.072010000,-0.023604710,-0.021616630,0.011137090,-0.999425590,0.046763000,0.043748000,-0.021263000,0.001068274,0.001396588,-0.003294233,0.031161084,-0.016702167,0.007942181,0.005046304,-0.001334931,0.998714664,0.001267171,-0.004780778,-0.000080624,0.000000000,0.000000000,0.000000000,0.000000000,0.018243781,0.007830659,0.071925715,0.029681928,-0.034737113,-0.001061306,0.006547263,-0.008568435,-0.001503954,0.425594561,-0.054693396,-0.816454986,0.003717307,0.000450813,-0.007126570,0.999966605,0.000000000,0.000000000,0.000000000,0.000000000,0.000000000,0.000000000,-0.817749639,0.000000000,4.222874165
1772723828.152771235,0.017706000,0.008540000,0.071857000,-0.025238220,-0.019328160,0.010657840,-0.999437770,0.050095000,0.039183000,-0.020345000,0.000663155,0.001311392,-0.002778219,0.071382493,-0.080092728,0.026329080,0.004508299,-0.002184525,0.999499219,0.000973848,-0.002499808,-0.001153647,0.000000000,0.000000000,0.000000000,0.000000000,0.018230943,0.007806956,0.071976012,0.029565785,-0.034838121,-0.000932953,0.005120062,-0.009595145,-0.001217748,0.425216786,-0.052322376,-0.816102103,0.003713862,0.000430158,-0.007123412,0.999966669,0.000000000,0.000000000,0.000000000,0.000000000,0.000000000,0.000000000,-0.816383083,0.000000000,4.222874165
1772723828.162771940,0.017715000,0.008556000,0.071821000,-0.026433710,-0.017657160,0.010203280,-0.999442530,0.052536000,0.035842000,-0.019475000,-0.000547831,-0.000039743,0.000566129,0.025301769,-0.027630876,0.015759361,0.007065874,-0.002430751,1.000361150,0.000472018,0.000266255,0.000073422,0.000000000,0.000000000,0.000000000,0.000000000,0.018224106,0.007799742,0.071989482,0.029397713,-0.034936315,-0.000920487,0.007055202,-0.009954448,0.000102133,0.424151636,-0.050571843,-0.815995964,0.003704458,0.000414952,-0.007122425,0.999966681,0.000000000,0.000000000,0.000000000,0.000000000,0.000000000,0.000000000,-0.816061235,0.000000000,4.222874165
1772723828.172772408,0.017642000,0.008491000,0.071971000,-0.025241120,-0.019545890,0.010562190,-0.999434480,0.050101000,0.039613000,-0.020143000,-0.001248204,-0.001215124,0.003070365,-0.049141752,0.054330598,-0.009324190,0.007319843,-0.001301957,1.000800245,-0.001654048,-0.002081431,-0.000853106,0.000000000,0.000000000,0.000000000,0.000000000,0.018236158,0.007814693,0.071949755,0.029450820,-0.034992892,-0.001045933,0.008727718,-0.009117467,0.000688883,0.423879519,-0.049835208,-0.815390267,0.003702035,0.000408560,-0.007117115,0.999966730,0.000000000,0.000000000,0.000000000,0.000000000,0.000000000,0.000000000,-0.815923077,0.000000000,4.222874165
1772723828.182772636,0.017636000,0.008477000,0.072025000,-0.024383710,-0.020359470,0.010781060,-0.999437190,0.048361000,0.041233000,-0.020576000,-0.001606373,-0.001512009,0.003788666,-0.110643208,0.126603689,-0.034788024,0.006466623,0.000346767,0.999797901,-0.000361444,-0.001161641,-0.001910107,0.000000000,0.000000000,0.000000000,0.000000000,0.018260277,0.007840993,0.071883378,0.029613801,-0.034955628,-0.001236167,0.007120513,-0.007763134,0.000138173,0.422108343,-0.048451953,-0.815665324,0.003686494,0.000396590,-0.007119464,0.999966783,0.000000000,0.000000000,0.000000000,0.000000000,0.000000000,0.000000000,-0.815422512,0.000000000,4.222874165
1772723828.192773104,0.017631000,0.008472000,0.072031000,-0.023694660,-0.021233030,0.010874410,-0.999434570,0.046961000,0.042971000,-0.020751000,-0.001594117,-0.001755671,0.003672954,-0.155848679,0.200100805,-0.060198668,0.006835417,-0.000250307,0.999225883,0.000838297,-0.000332775,-0.003035559,0.000000000,0.000000000,0.000000000,0.000000000,0.018261222,0.007846445,0.071869532,0.029621516,-0.034854015,-0.001249206,0.006804119,-0.005860573,-0.001555350,0.421567981,-0.047815460,-0.815001100,0.003681737,0.000391091,-0.007113645,0.999966838,0.000000000,0.000000000,0.000000000,0.000000000,0.000000000,0.000000000,-0.815686589,0.000000000,4.222874165
1772723828.202773094,0.017635000,0.008472000,0.072018000,-0.023435550,-0.021650420,0.011046830,-0.999429840,0.046427000,0.043808000,-0.021088000,0.000020862,-0.000465646,0.000024086,-0.101887192,0.134753174,-0.046099598,0.007201609,-0.002261280,0.999530505,0.000701740,-0.000293226,-0.001551960,0.000000000,0.000000000,0.000000000,0.000000000,0.018237140,0.007826745,0.071922661,0.029549509,-0.034793980,-0.001077906,0.008288478,-0.010753795,-0.000961343,0.421547409,-0.047269995,-0.814739892,0.003681523,0.000386341,-0.007111349,0.999966898,0.000000000,0.000000000,0.000000000,0.000000000,0.000000000,0.000000000,-0.814881338,0.000000000,4.222874165
1772723828.212773561,0.017639000,0.008477000,0.071997000,-0.023297170,-0.021687870,0.011288990,-0.999429560,0.046139000,0.043891000,-0.021577000,0.001748251,0.001354184,-0.003772311,0.024865383,-0.033983883,-0.003536658,0.007063948,-0.002746532,0.998640406,-0.000693852,-0.001188103,0.000121382,0.000000000,0.000000000,0.000000000,0.000000000,0.018709068,0.007244574,0.071941427,0.030657117,-0.036309508,-0.000974028,0.007767523,-0.009309463,-0.000043632,0.421375888,-0.046326098,-0.814242078,0.003679966,0.000378131,-0.007106974,0.999966919,0.000000000,0.000000000,0.000000000,0.000000000,0.000000000,0.000000000,-0.814725535,0.000000000,4.222874165
