t,px,py,pz,qx,qy,qz,qw,roll,pitch,yaw,vx,vy,vz,wx_vicon,wy_vicon,wz_vicon,imu_acc_x,imu_acc_y,imu_acc_z,imu_gyro_x,imu_gyro_y,imu_gyro_z,motor_motor_m1,motor_motor_m2,motor_motor_m3,motor_motor_m4,est_stateEstimate_x,est_stateEstimate_y,est_stateEstimate_z,est_stateEstimate_vx,est_stateEstimate_vy,est_stateEstimate_vz,est_stateEstimate_ax,est_stateEstimate_ay,est_stateEstimate_az,att_stateEstimate_roll,att_stateEstimate_pitch,att_stateEstimate_yaw,att_stateEstimate_qx,att_stateEstimate_qy,att_stateEstimate_qz,att_stateEstimate_qw,sp_ctrltarget_x,sp_ctrltarget_y,sp_ctrltarget_z,sp_ctrltarget_yaw,pid_controller_roll,pid_controller_pitch,pid_controller_yaw,pid_controller_cmd_thrust,pwr_pm_vbat
1772724141.799491405,0.015444000,0.008210000,0.071539000,-0.011976270,0.012366330,-0.011918310,0.999780770,-0.024252000,0.024444000,-0.024137000,0.000836480,-0.015870635,0.017342066,-0.004291344,0.035417025,-0.039747958,0.007500103,-0.018063367,0.998596068,0.001352185,-0.001333662,-0.002879253,0.000000000,0.000000000,0.000000000,0.000000000,0.016078934,0.008296168,0.071462911,0.032950692,0.002947594,-0.002189521,0.010252965,0.000853878,-0.001862518,-1.062782109,-0.165635424,-0.992820042,-0.009261501,0.001525678,-0.008650086,0.999917583,0.000000000,0.000000000,0.000000000,0.000000000,0.000000000,0.000000000,0.000189128,0.000000000,4.089833817
1772724141.809491158,0.015454000,0.008250000,0.071504000,-0.011407090,0.011748430,-0.012034970,0.999793480,-0.023101000,0.023220000,-0.024342000,0.000234047,-0.009667863,0.009907504,-0.240013520,0.373802228,0.013359602,0.008450782,-0.018349512,0.998525717,0.000617380,0.000392265,-0.001619479,0.000000000,0.000000000,0.000000000,0.000000000,0.016082616,0.008270825,0.071486251,0.033007479,0.002851076,-0.002115992,0.011539112,0.000332216,-0.001218678,-1.062070481,-0.164851754,-0.993172914,-0.009255347,0.001518815,-0.008653239,0.999917635,0.000000000,0.000000000,0.000000000,0.000000000,0.000000000,0.000000000,0.000189128,0.000000000,4.090185433
1772724141.819491148,0.015438000,0.008055000,0.071704000,-0.013657460,0.015059940,-0.011917620,0.999722280,-0.027682000,0.029790000,-0.024253000,-0.000137740,-0.004381737,0.004018129,-0.296914080,0.447665481,0.034762414,0.008616281,-0.018303755,0.998946288,-0.002536259,-0.002090012,-0.000799630,0.000000000,0.000000000,0.000000000,0.000000000,0.016086298,0.008245481,0.071509590,0.033064266,0.002754557,-0.002042461,0.011974662,-0.000372567,-0.000733485,-1.061136805,-0.163899645,-0.993544189,-0.009247267,0.001510466,-0.008656568,0.999917799,0.000000000,0.000000000,0.000000000,0.000000000,0.000000000,0.000000000,0.000189128,0.000000000,4.090537058
1772724141.829491138,0.015450000,0.008013000,0.071742000,-0.015109450,0.017315820,-0.011703390,0.999667390,-0.030637000,0.034273000,-0.023939000,-0.000311745,-0.000210154,-0.000288300,-0.229177670,0.338344182,0.032957085,0.008660257,-0.017977727,0.999455532,-0.000837731,0.000595262,-0.001026955,0.000000000,0.000000000,0.000000000,0.000000000,0.016090108,0.008256309,0.071498121,0.033106374,0.002776625,-0.002078492,0.011217859,-0.000195285,-0.000994343,-1.060225936,-0.163955715,-0.992531543,-0.009239327,0.001510805,-0.008647738,0.999917805,0.000000000,0.000000000,0.000000000,0.000000000,0.000000000,0.000000000,0.000189128,0.000000000,4.090888683
1772724141.839491129,0.015457000,0.008005000,0.071737000,-0.016094990,0.018925300,-0.011542250,0.999624710,-0.032643000,0.037474000,-0.023704000,-0.000320836,0.002648988,-0.002974019,-0.091110301,0.127106642,0.016676814,0.007310578,-0.019428601,0.999018939,-0.001426048,0.001641235,0.003134116,0.000000000,0.000000000,0.000000000,0.000000000,0.016090363,0.008289499,0.071466913,0.033110846,0.002857636,-0.002181273,0.010466279,-0.000246272,-0.001110454,-1.059804921,-0.163063936,-0.992607036,-0.009235720,0.001502998,-0.008648474,0.999917904,0.000000000,0.000000000,0.000000000,0.000000000,0.000000000,0.000000000,0.000189128,0.000000000,4.090909004
1772724141.849491119,0.015440000,0.008017000,0.071717000,-0.016684190,0.019695450,-0.011407820,0.999601720,-0.033837000,0.039004000,-0.023484000,-0.000197878,0.003997791,-0.004001268,0.063014924,-0.104758863,-0.005382694,0.006640788,-0.020587166,0.999993136,-0.000602703,0.001782120,0.004843954,0.000000000,0.000000000,0.000000000,0.000000000,0.016085773,0.008304858,0.071452971,0.033035207,0.002772349,-0.002213204,0.009767224,-0.002593186,0.000229293,-1.058257334,-0.162977768,-0.990873216,-0.009222245,0.001501990,-0.008633372,0.999918075,0.000000000,0.000000000,0.000000000,0.000000000,0.000000000,0.000000000,0.000189128,0.000000000,4.090909004
1772724141.859491110,0.015421000,0.008233000,0.071530000,-0.014739950,0.016716990,-0.011749730,0.999682560,-0.029884000,0.033083000,-0.024000000,0.000229598,0.003248216,-0.003144916,0.127372083,-0.195599853,-0.016276592,0.006948281,-0.020078875,0.999982775,0.000039146,0.000818105,0.001361291,0.000000000,0.000000000,0.000000000,0.000000000,0.016084785,0.008296205,0.071456137,0.032898938,0.002465637,-0.002115430,0.009048041,-0.001810635,-0.000135245,-1.058010456,-0.164115535,-0.988312697,-0.009220039,0.001511693,-0.008610941,0.999918247,0.000000000,0.000000000,0.000000000,0.000000000,0.000000000,0.000000000,0.000189128,0.000000000,4.090909004
1772724141.869491100,0.015457000,0.008286000,0.071456000,-0.012606030,0.013319790,-0.011877440,0.999761270,-0.025534000,0.026337000,-0.024096000,0.000255355,-0.000844173,0.001079288,0.072506104,-0.110041377,-0.017152703,0.006271592,-0.018636746,1.000066971,0.002333434,0.001791133,-0.000176009,0.000000000,0.000000000,0.000000000,0.000000000,0.016079397,0.008242252,0.071506439,0.032759617,0.002084650,-0.001790688,0.009797936,-0.000470822,0.000345995,-1.056294348,-0.161531554,-0.986825883,-0.009205279,0.001488897,-0.008598199,0.999918463,0.000000000,0.000000000,0.000000000,0.000000000,0.000000000,0.000000000,0.000189128,0.000000000,4.090909004
1772724141.879491091,0.015443000,0.008075000,0.071687000,-0.013920280,0.015366830,-0.011893490,0.999714270,-0.028215000,0.030398000,-0.024222000,0.000557990,-0.003916499,0.003934584,-0.023099915,0.044890953,-0.005048804,0.007545553,-0.020196187,0.999360448,-0.000600115,0.000171142,-0.002670495,0.000000000,0.000000000,0.000000000,0.000000000,0.016074669,0.008211204,0.071536377,0.032622775,0.001799358,-0.001578463,0.010074721,-0.001482732,-0.001048068,-1.055023185,-0.162825465,-0.986455495,-0.009194094,0.001500062,-0.008594878,0.999918637,0.000000000,0.000000000,0.000000000,0.000000000,0.000000000,0.000000000,0.000189128,0.000000000,4.090909004
1772724141.889492035,0.015456000,0.008006000,0.071740000,-0.014960410,0.017071510,-0.011782380,0.999672910,-0.030335000,0.033786000,-0.024084000,0.000388919,-0.005364990,0.005120532,-0.118681712,0.197972878,0.009166160,0.007457139,-0.017446256,0.999652035,0.000438577,-0.002313375,-0.001384159,0.000000000,0.000000000,0.000000000,0.000000000,0.016075661,0.008241576,0.071510602,0.032604281,0.001778806,-0.001654086,0.010807369,-0.000744934,0.000070745,-1.053883098,-0.164070005,-0.986102813,-0.009184057,0.001510809,-0.008591715,0.999918737,0.000000000,0.000000000,0.000000000,0.000000000,0.000000000,0.000000000,0.000189128,0.000000000,4.090909004
1772724141.899492502,0.015465000,0.008003000,0.071743000,-0.015683900,0.018303400,-0.011706790,0.999640910,-0.031811000,0.036234000,-0.023997000,-0.000158563,-0.005504381,0.005303550,-0.194999464,0.305304033,0.023819048,0.007987511,-0.019321971,0.999389289,0.001137296,-0.003939109,-0.000409936,0.000000000,0.000000000,0.000000000,0.000000000,0.016073387,0.008183228,0.071576136,0.032581593,0.001510878,-0.001268873,0.009203612,-0.001136080,0.000597157,-1.053729976,-0.164855495,-0.985856873,-0.009182663,0.001517632,-0.008589509,0.999918885,0.000000000,0.000000000,0.000000000,0.000000000,0.000000000,0.000000000,0.000189128,0.000000000,4.090909004
1772724141.909492731,0.015445000,0.008012000,0.071737000,-0.016163590,0.019163470,-0.011689400,0.999617360,-0.032792000,0.037943000,-0.024009000,-0.000596198,0.000594081,-0.000522230,-0.105567410,0.168640640,0.015549031,0.008339643,-0.020295904,0.999699404,0.002318478,-0.002565717,0.000126849,0.000000000,0.000000000,0.000000000,0.000000000,0.016077171,0.008099896,0.071662107,0.032647275,0.001001952,-0.000800686,0.010654429,-0.002165801,-0.000052235,-1.051711811,-0.163509053,-0.985669103,-0.009165158,0.001505716,-0.008588005,0.999918997,0.000000000,0.000000000,0.000000000,0.000000000,0.000000000,0.000000000,0.000189128,0.000000000,4.090909004
1772724141.919493437,0.015452000,0.008021000,0.071718000,-0.016349780,0.019567360,-0.011529640,0.999608360,-0.033169000,0.038752000,-0.023710000,-0.000483381,0.004166202,-0.004240404,0.028409261,-0.033541249,0.002186849,0.008018713,-0.019256680,0.999903474,0.001310713,0.000012617,0.000451247,0.000000000,0.000000000,0.000000000,0.000000000,0.016084223,0.008062021,0.071693141,0.032857916,0.000777370,-0.000672676,0.010876532,-0.000631301,-0.000215794,-1.051154402,-0.162586069,-0.985929815,-0.009160359,0.001497641,-0.008590361,0.999919012,0.000000000,0.000000000,0.000000000,0.000000000,0.000000000,0.000000000,0.000189128,0.000000000,4.090909004
1772724141.929493904,0.015431000,0.008030000,0.071721000,-0.016399250,0.019494980,-0.011568280,0.999608520,-0.033268000,0.038605000,-0.023787000,-0.000392474,0.001894362,-0.001916409,0.054050732,-0.073123347,-0.002808193,0.007120119,-0.018186769,0.999326849,-0.002816848,-0.001667500,0.001203488,0.000000000,0.000000000,0.000000000,0.000000000,0.016077238,0.008107506,0.071649218,0.032911916,0.000989201,-0.000855206,0.009291847,-0.000514650,-0.000289472,-1.050369958,-0.161579885,-0.985584243,-0.009153595,0.001488775,-0.008587437,0.999919091,0.000000000,0.000000000,0.000000000,0.000000000,0.000000000,0.000000000,0.000189128,0.000000000,4.090909004
1772724141.939494848,0.015438000,0.008032000,0.071722000,-0.016409120,0.019366030,-0.011515560,0.999611470,-0.033282000,0.038348000,-0.023677000,0.000124181,0.001087912,-0.001398414,0.071880991,-0.099634827,-0.008001133,0.007204338,-0.019345426,0.999712978,-0.001867946,-0.001193990,0.000796283,0.000000000,0.000000000,0.000000000,0.000000000,0.016070253,0.008152992,0.071605294,0.032965918,0.001201043,-0.001037745,0.010026870,-0.000956408,-0.000115534,-1.049140888,-0.161462525,-0.984368302,-0.009142894,0.001487562,-0.008576853,0.999919273,0.000000000,0.000000000,0.000000000,0.000000000,0.000000000,0.000000000,0.000189128,0.000000000,4.090909004
1772724141.949495316,0.015442000,0.008226000,0.071514000,-0.013925320,0.015934180,-0.011866190,0.999705650,-0.028238000,0.031534000,-0.024184000,0.000540295,0.002908189,-0.003249343,0.128245981,-0.188547964,-0.018765392,0.008119700,-0.019396333,0.998267931,-0.000543279,0.000823609,-0.000364086,0.000000000,0.000000000,0.000000000,0.000000000,0.016081353,0.008234452,0.071517023,0.033044685,0.001415178,-0.001359357,0.010338094,-0.000930137,-0.001407387,-1.048852151,-0.160860062,-0.982064369,-0.009140449,0.001482099,-0.008556800,0.999919493,0.000000000,0.000000000,0.000000000,0.000000000,0.000000000,0.000000000,0.000189128,0.000000000,4.090909004
1772724141.959495544,0.015445000,0.008054000,0.071682000,-0.014655540,0.017089150,-0.011807640,0.999676830,-0.029727000,0.033828000,-0.024125000,0.000333636,0.001872043,-0.002031908,0.119070895,-0.179111275,-0.023335276,0.007248244,-0.019952202,0.998481042,-0.002862706,0.003679452,0.001110879,0.000000000,0.000000000,0.000000000,0.000000000,0.016082889,0.008158381,0.071599395,0.033123641,0.001068677,-0.001180201,0.009988543,-0.001763470,-0.001544014,-1.047989624,-0.160132816,-0.980634447,-0.009132997,0.001475575,-0.008544392,0.999919620,0.000000000,0.000000000,0.000000000,0.000000000,0.000000000,0.000000000,0.000189128,0.000000000,4.090909004
1772724141.969495535,0.015458000,0.008007000,0.071727000,-0.015347020,0.018001880,-0.011689010,0.999651820,-0.031129000,0.035640000,-0.023940000,0.000310172,0.001353174,-0.001285946,0.100638463,-0.151861728,-0.020231290,0.008363417,-0.018001752,0.999124680,-0.000813270,0.002413522,0.001966498,0.000000000,0.000000000,0.000000000,0.000000000,0.016090924,0.008085037,0.071666684,0.033249803,0.000679019,-0.000935597,0.010963745,0.000118788,-0.000138853,-1.047179338,-0.161101600,-0.979355976,-0.009125871,0.001483866,-0.008533170,0.999919752,0.000000000,0.000000000,0.000000000,0.000000000,0.000000000,0.000000000,0.000189128,0.000000000,4.090909004
1772724141.979496241,0.015458000,0.008211000,0.071525000,-0.013340070,0.014841810,-0.012035160,0.999728420,-0.027045000,0.029359000,-0.024473000,0.000166138,0.002927011,-0.002744246,0.128891234,-0.206347589,-0.018037937,0.006925863,-0.019880209,0.999213419,0.000023539,-0.001168977,0.000442999,0.000000000,0.000000000,0.000000000,0.000000000,0.016095064,0.008053658,0.071696437,0.033450845,0.000643473,-0.000811395,0.010141844,-0.001114425,-0.000289503,-1.046454335,-0.162739850,-0.977920883,-0.009119440,0.001497994,-0.008520524,0.999919883,0.000000000,0.000000000,0.000000000,0.000000000,0.000000000,0.000000000,0.000189128,0.000000000,4.090909004
1772724141.989497423,0.015450000,0.008263000,0.071484000,-0.011987230,0.012578700,-0.012198170,0.999774620,-0.024286000,0.024862000,-0.024703000,-0.000113148,0.002896224,-0.002744498,0.140160137,-0.234956507,-0.009589653,0.007950066,-0.019504615,1.000826011,-0.001582193,-0.000166789,-0.001829273,0.000000000,0.000000000,0.000000000,0.000000000,0.016098368,0.008039035,0.071707650,0.033578203,0.000587688,-0.000750595,0.009766117,-0.001269378,0.000576662,-1.044754731,-0.162988137,-0.976234096,-0.009104612,0.001499900,-0.008505808,0.999920188,0.000000000,0.000000000,0.000000000,0.000000000,0.000000000,0.000000000,0.000189128,0.000000000,4.090909004
1772724141.999497652,0.015440000,0.008070000,0.071681000,-0.013541880,0.015045930,-0.012032400,0.999722690,-0.027454000,0.029762000,-0.024479000,-0.000216739,0.002108421,-0.002132974,0.131466408,-0.213682166,-0.000497485,0.006891232,-0.016805780,1.001470495,0.001296206,0.000151074,-0.005336392,0.000000000,0.000000000,0.000000000,0.000000000,0.016095594,0.008039937,0.071706743,0.033649894,0.000613232,-0.000650623,0.009933691,0.000782651,0.002064461,-1.043988183,-0.162925501,-0.974471402,-0.009097952,0.001499156,-0.008490441,0.999920384,0.000000000,0.000000000,0.000000000,0.000000000,0.000000000,0.000000000,0.000189128,0.000000000,4.090909004
1772724142.009497643,0.015459000,0.008236000,0.071509000,-0.011842400,0.012435260,-0.012044580,0.999780000,-0.023989000,0.024582000,-0.024388000,-0.000196654,-0.002586654,0.002546717,0.014029592,-0.034230516,0.014987922,0.007976564,-0.016562381,1.000831026,-0.000588064,0.000354089,-0.001252309,0.000000000,0.000000000,0.000000000,0.000000000,0.016091178,0.008044113,0.071708524,0.033735006,0.000813328,-0.000473460,0.010357899,0.002211431,0.001651913,-1.043466174,-0.163170162,-0.974705716,-0.009093376,0.001501271,-0.008492475,0.999920467,0.000000000,0.000000000,0.000000000,0.000000000,0.000000000,0.000000000,0.000189128,0.000000000,4.090909004
1772724142.019497633,0.015456000,0.008275000,0.071453000,-0.010700820,0.010297970,-0.012003580,0.999817660,-0.021651000,0.020337000,-0.024231000,-0.000027563,-0.006637066,0.006715056,-0.150259499,0.209396398,0.028647339,0.006445872,-0.018601444,1.000558473,-0.001657794,0.000637791,-0.003648131,0.000000000,0.000000000,0.000000000,0.000000000,0.016372975,0.008096681,0.071666175,0.034278463,0.001317759,-0.000514180,0.009664787,-0.000157802,0.001854778,-1.045573344,-0.147042989,-0.979501937,-0.009112911,0.001361084,-0.008535586,0.999920376,0.000000000,0.000000000,0.000000000,0.000000000,0.000000000,0.000000000,0.000189128,0.000000000,4.090909004
1772724142.029498339,0.015434000,0.008063000,0.071678000,-0.012749370,0.013480970,-0.011767000,0.999758600,-0.025822000,0.026659000,-0.023883000,0.000002312,-0.005041862,0.005231796,-0.206675374,0.297142354,0.024211045,0.005440678,-0.019266859,0.999253890,0.002683704,-0.003207654,-0.003864852,0.000000000,0.000000000,0.000000000,0.000000000,0.016210010,0.008192031,0.071569197,0.032618875,0.001606322,-0.000615640,0.009146903,-0.001962649,0.001567378,-1.047650856,-0.130929858,-0.984034968,-0.009132189,0.001220997,-0.008576400,0.999920195,0.000000000,0.000000000,0.000000000,0.000000000,0.000000000,0.000000000,0.000189128,0.000000000,4.090909004
1772724142.039498806,0.015453000,0.008012000,0.071736000,-0.014333320,0.016098200,-0.011626610,0.999700070,-0.029051000,0.031859000,-0.023722000,0.000135914,-0.000849806,0.000921521,-0.151347267,0.216059458,0.012071288,0.007619374,-0.019651280,1.001139000,0.000945656,0.000528452,-0.002525799,0.000000000,0.000000000,0.000000000,0.000000000,0.015946371,0.008183707,0.071577276,0.031469650,0.001417919,-0.000456614,0.009534160,-0.001521568,0.000194511,-1.046668702,-0.130351041,-0.981751545,-0.009123686,0.001215691,-0.008556533,0.999920014,0.000000000,0.000000000,0.000000000,0.000000000,0.000000000,0.000000000,0.000189128,0.000000000,4.090909004
1772724142.049499035,0.015450000,0.008003000,0.071750000,-0.015490860,0.017651680,-0.011658620,0.999656200,-0.031407000,0.034937000,-0.023873000,0.000097919,0.000833178,-0.000876437,-0.086475363,0.132845143,0.004882334,0.007724526,-0.018138568,1.000519104,0.001973632,-0.000325399,0.000940549,0.000000000,0.000000000,0.000000000,0.000000000,0.016007879,0.008187216,0.071576766,0.031886357,0.001335468,-0.000422808,0.009866309,-0.000576242,0.000508140,-1.044755578,-0.128635645,-0.982151956,-0.009107116,0.001200611,-0.008560183,0.999920115,0.000000000,0.000000000,0.000000000,0.000000000,0.000000000,0.000000000,0.000189128,0.000000000,4.090909004
1772724142.059499502,0.015451000,0.008008000,0.071742000,-0.016216590,0.018737700,-0.011607450,0.999625520,-0.032885000,0.037093000,-0.023833000,0.000318621,0.003619808,-0.003889460,0.032454144,-0.032075051,-0.004911628,0.006181925,-0.019282527,1.000459200,-0.000269516,0.001704444,0.001021047,0.000000000,0.000000000,0.000000000,0.000000000,0.016046692,0.008243435,0.071514005,0.032109255,0.001499634,-0.000574365,0.008674456,-0.000418451,-0.000107974,-1.042863466,-0.126906364,-0.981436287,-0.009090742,0.001185323,-0.008554096,0.999920355,0.000000000,0.000000000,0.000000000,0.000000000,0.000000000,0.000000000,0.000189128,0.000000000,4.090909004
1772724142.069500446,0.015453000,0.008218000,0.071518000,-0.013953220,0.015469030,-0.011758520,0.999713840,-0.028279000,0.030606000,-0.023955000,0.000088052,0.003456778,-0.003779070,0.101471275,-0.130483065,-0.008222626,0.006388703,-0.021681678,0.998265111,-0.000690807,-0.000643697,0.001776811,0.000000000,0.000000000,0.000000000,0.000000000,0.016055406,0.008200773,0.071555578,0.032111020,0.001197447,-0.000387967,0.008247383,-0.003376233,-0.001376705,-1.041508258,-0.127708685,-0.980150213,-0.009078870,0.001192122,-0.008542824,0.999920541,0.000000000,0.000000000,0.000000000,0.000000000,0.000000000,0.000000000,0.000189128,0.000000000,4.090909004
1772724142.079500914,0.015462000,0.008272000,0.071452000,-0.012311010,0.012966470,-0.011823130,0.999770240,-0.024934000,0.025639000,-0.023970000,-0.000385403,-0.001685373,0.001513718,0.024633062,-0.009673720,0.000403544,0.005985102,-0.018076821,1.000448203,0.000295628,0.002010198,0.002835848,0.000000000,0.000000000,0.000000000,0.000000000,0.016061419,0.008128957,0.071629954,0.032086805,0.000735148,-0.000199822,0.008316165,-0.001872131,-0.001384311,-1.040553570,-0.127697789,-0.979421061,-0.009070548,0.001191898,-0.008536472,0.999920651,0.000000000,0.000000000,0.000000000,0.000000000,0.000000000,0.000000000,0.000189128,0.000000000,4.090909004
1772724142.089500666,0.015445000,0.008068000,0.071673000,-0.013726910,0.015487260,-0.011693040,0.999717450,-0.027825000,0.030650000,-0.023818000,-0.000314154,-0.003781712,0.003816230,-0.067379076,0.120669435,0.003492465,0.007250753,-0.017948711,1.000215791,-0.001558379,0.002074364,0.002031513,0.000000000,0.000000000,0.000000000,0.000000000,0.016067859,0.008076212,0.071685814,0.032125453,0.000544942,0.000016742,0.009817443,0.000951826,0.001501510,-1.041512784,-0.126985498,-0.976289391,-0.009079003,0.001185505,-0.008509192,0.999920805,0.000000000,0.000000000,0.000000000,0.000000000,0.000000000,0.000000000,0.000189128,0.000000000,4.090909004
1772724142.099500895,0.015450000,0.008013000,0.071728000,-0.014842760,0.017218020,-0.011707160,0.999673030,-0.030101000,0.034084000,-0.023934000,-0.000301547,-0.001526966,0.001631023,-0.067488806,0.105061236,0.004781278,0.007313045,-0.018033310,0.999919678,-0.001286367,0.002399618,0.002497328,0.000000000,0.000000000,0.000000000,0.000000000,0.016070768,0.008068690,0.071693961,0.032177370,0.000620078,0.000110983,0.009540932,0.000017872,-0.001176140,-1.041469609,-0.127596916,-0.975555527,-0.009078589,0.001190779,-0.008502740,0.999920887,0.000000000,0.000000000,0.000000000,0.000000000,0.000000000,0.000000000,0.000189128,0.000000000,4.090909004
1772724142.109501123,0.015436000,0.008015000,0.071732000,-0.015470870,0.018160540,-0.011622180,0.999647820,-0.031378000,0.035956000,-0.023816000,-0.000033643,0.000625821,-0.000829779,-0.022102448,0.022159033,0.005453104,0.007177574,-0.018152865,0.999613099,-0.000664962,0.002767778,0.003171880,0.000000000,0.000000000,0.000000000,0.000000000,0.016072633,0.008097385,0.071662297,0.032184609,0.000738650,-0.000048477,0.008962419,0.001036102,-0.001665267,-1.041426435,-0.128208334,-0.974821664,-0.009078175,0.001196053,-0.008496288,0.999920944,0.000000000,0.000000000,0.000000000,0.000000000,0.000000000,0.000000000,0.000189128,0.000000000,4.090909004
1772724142.119501114,0.015440000,0.008006000,0.071725000,-0.016021710,0.018851290,-0.011591310,0.999626720,-0.032497000,0.037326000,-0.023797000,0.000186049,0.003523598,-0.003852787,0.074640627,-0.130233209,0.000230568,0.007042106,-0.018272417,0.999306528,-0.000043571,0.003135928,0.003846416,0.000000000,0.000000000,0.000000000,0.000000000,0.016074498,0.008126080,0.071630634,0.032191848,0.000857219,-0.000207934,0.008638823,0.000962473,-0.001391464,-1.041383261,-0.128819738,-0.974087818,-0.009077760,0.001201327,-0.008489837,0.999921000,0.000000000,0.000000000,0.000000000,0.000000000,0.000000000,0.000000000,0.000189128,0.000000000,4.090909004
1772724142.129501581,0.015453000,0.008228000,0.071505000,-0.013945470,0.015405720,-0.011787750,0.999714580,-0.028263000,0.030479000,-0.024012000,0.000203744,0.003160068,-0.003558602,0.118081051,-0.195101861,-0.002697917,0.006906632,-0.018391976,0.998999942,0.000577849,0.003504097,0.004520983,0.000000000,0.000000000,0.000000000,0.000000000,0.016076364,0.008154777,0.071598970,0.032199087,0.000975793,-0.000367398,0.008596600,-0.000341571,-0.000393440,-1.041340086,-0.129431171,-0.973353938,-0.009077346,0.001206601,-0.008483385,0.999921057,0.000000000,0.000000000,0.000000000,0.000000000,0.000000000,0.000000000,0.000189128,0.000000000,4.090909004
1772724142.139502287,0.015450000,0.008282000,0.071442000,-0.011861870,0.012383700,-0.011628460,0.999785340,-0.024016000,0.024489000,-0.023555000,0.000005924,-0.002026760,0.002003198,0.020242216,-0.038548933,0.003565667,0.006771155,-0.018511536,0.998693348,0.001199284,0.003872273,0.005195567,0.000000000,0.000000000,0.000000000,0.000000000,0.016078229,0.008183474,0.071567305,0.032206327,0.001094371,-0.000526866,0.008554376,-0.001645647,0.000604608,-1.041055194,-0.130026577,-0.972820403,-0.009074821,0.001211733,-0.008478686,0.999921113,0.000000000,0.000000000,0.000000000,0.000000000,0.000000000,0.000000000,0.000189128,0.000000000,4.090909004
1772724142.149502754,0.015455000,0.008053000,0.071669000,-0.013475500,0.014731470,-0.011648360,0.999732820,-0.027302000,0.029145000,-0.023700000,-0.000057108,-0.002866737,0.003354119,-0.049606405,0.077498369,-0.000274568,0.005543715,-0.020507534,1.001633328,0.001484612,0.003583492,0.003477562,0.000000000,0.000000000,0.000000000,0.000000000,0.016080095,0.008212170,0.071535641,0.032213566,0.001212946,-0.000686330,0.008096787,-0.002496775,0.001625995,-1.040364435,-0.130595128,-0.972610183,-0.009068754,0.001216627,-0.008476813,0.999921220,0.000000000,0.000000000,0.000000000,0.000000000,0.000000000,0.000000000,0.000189128,0.000000000,4.090909004
1772724142.159503460,0.015441000,0.008018000,0.071730000,-0.014616610,0.016526500,-0.011671630,0.999688450,-0.029630000,0.032707000,-0.023834000,-0.000390881,-0.002685894,0.003532553,-0.098182920,0.152604291,-0.005457298,0.003905312,-0.019403647,1.000909093,-0.000966343,-0.003215027,-0.000942949,0.000000000,0.000000000,0.000000000,0.000000000,0.016076068,0.008180162,0.071569469,0.032046948,0.001037969,-0.000400573,0.006425731,-0.001060787,0.001269285,-1.039862661,-0.130978627,-0.969333748,-0.009064381,0.001219677,-0.008448199,0.999921387,0.000000000,0.000000000,0.000000000,0.000000000,0.000000000,0.000000000,0.000189128,0.000000000,4.090909004
1772724142.169503689,0.015435000,0.007999000,0.071741000,-0.015537380,0.018038860,-0.011640850,0.999648780,-0.031509000,0.035711000,-0.023852000,-0.000546336,-0.001690870,0.002411716,-0.110977471,0.169874696,-0.008345301,0.006716787,-0.018031492,0.998955408,-0.002419818,-0.000165556,-0.000243295,0.000000000,0.000000000,0.000000000,0.000000000,0.016070460,0.008099059,0.071655581,0.031788643,0.000668848,0.000073326,0.008571551,-0.000583493,-0.001105730,-1.038244433,-0.130498215,-0.967941861,-0.009050311,0.001215255,-0.008436108,0.999921686,0.000000000,0.000000000,0.000000000,0.000000000,0.000000000,0.000000000,0.000189128,0.000000000,4.090909004
1772724142.179503918,0.015443000,0.008007000,0.071748000,-0.016161930,0.018967810,-0.011635340,0.999621740,-0.032782000,0.037554000,-0.023894000,-0.000209591,0.001320133,-0.000811753,-0.049662868,0.075833327,-0.011603596,0.008001192,-0.017924575,0.998500613,-0.001555559,-0.000443582,-0.001072517,0.000000000,0.000000000,0.000000000,0.000000000,0.016061541,0.008062629,0.071696677,0.031856166,0.000614787,0.000081931,0.010593859,-0.000402441,-0.000380472,-1.038429764,-0.130185932,-0.966839880,-0.009051963,0.001212457,-0.008426515,0.999921760,0.000000000,0.000000000,0.000000000,0.000000000,0.000000000,0.000000000,0.000189128,0.000000000,4.090909004
1772724142.189503908,0.015439000,0.008229000,0.071535000,-0.014019600,0.015746310,-0.011976280,0.999705990,-0.028426000,0.031153000,-0.024401000,-0.000041316,0.001905415,-0.001845179,0.010836771,-0.015649839,-0.005249787,0.006408745,-0.019447432,0.997604875,-0.001326994,-0.000005878,-0.000945619,0.000000000,0.000000000,0.000000000,0.000000000,0.016065136,0.008113807,0.071638633,0.031995386,0.000802655,-0.000356983,0.008474865,-0.001370578,-0.003376049,-1.037812829,-0.129859561,-0.966673421,-0.009046606,0.001209551,-0.008425095,0.999921832,0.000000000,0.000000000,0.000000000,0.000000000,0.000000000,0.000000000,0.000189128,0.000000000,4.090909004
1772724142.199503899,0.015429000,0.008072000,0.071680000,-0.014878280,0.016864250,-0.011878160,0.999676520,-0.030169000,0.033370000,-0.024266000,0.000278315,-0.000771369,0.000437247,-0.009325200,0.019102355,0.002198058,0.006474073,-0.020333996,0.999844721,0.002440816,0.000656656,0.002062630,0.000000000,0.000000000,0.000000000,0.000000000,0.016067624,0.008177672,0.071566045,0.032034090,0.000951459,-0.000774082,0.008224945,-0.002414422,0.001161406,-1.037230748,-0.130628589,-0.966822510,-0.009041468,0.001216230,-0.008426341,0.999921893,0.000000000,0.000000000,0.000000000,0.000000000,0.000000000,0.000000000,0.000189128,0.000000000,4.090909004
1772724142.209504366,0.015436000,0.008028000,0.071719000,-0.015449080,0.017938420,-0.011721270,0.999651010,-0.031333000,0.035510000,-0.024006000,0.000413452,-0.002351131,0.002110655,-0.045983572,0.077949388,0.008086759,0.006528925,-0.019484598,1.000278305,0.002403909,0.003463892,0.001409675,0.000000000,0.000000000,0.000000000,0.000000000,0.016069066,0.008195094,0.071539309,0.031959424,0.000829907,-0.000848160,0.008969592,-0.001781800,0.000151672,-1.036226085,-0.130478611,-0.965851600,-0.009032723,0.001214771,-0.008417892,0.999921998,0.000000000,0.000000000,0.000000000,0.000000000,0.000000000,0.000000000,0.000189128,0.000000000,4.090909004
1772724142.219504356,0.015455000,0.008012000,0.071736000,-0.015918570,0.018718060,-0.011711890,0.999629460,-0.032292000,0.037058000,-0.024030000,0.000551541,-0.003003680,0.002701084,-0.081696058,0.138353055,0.010969983,0.006183239,-0.018714965,0.999555026,-0.000041300,0.004733531,-0.000054078,0.000000000,0.000000000,0.000000000,0.000000000,0.016069033,0.008126519,0.071607800,0.031943905,0.000512170,-0.000526029,0.007945882,-0.000515130,-0.000129188,-1.034817071,-0.130603527,-0.964945517,-0.009020428,0.001215686,-0.008409990,0.999922148,0.000000000,0.000000000,0.000000000,0.000000000,0.000000000,0.000000000,0.000189128,0.000000000,4.090909004
1772724142.229504347,0.015444000,0.008010000,0.071734000,-0.016158700,0.019066310,-0.011656040,0.999619680,-0.032779000,0.037750000,-0.023939000,0.000535186,-0.001932201,0.001789139,-0.083689293,0.147462027,0.010690112,0.005202463,-0.019280748,0.998022533,0.000665691,0.000978212,-0.000741841,0.000000000,0.000000000,0.000000000,0.000000000,0.016064015,0.008077554,0.071664693,0.031872506,0.000350510,-0.000313404,0.007294119,-0.001091053,-0.002314915,-1.033625710,-0.132228466,-0.963918341,-0.009009924,0.001229697,-0.008400911,0.999922297,0.000000000,0.000000000,0.000000000,0.000000000,0.000000000,0.000000000,0.000189128,0.000000000,4.090909004
1772724142.239505053,0.015459000,0.008015000,0.071729000,-0.016292110,0.019634260,-0.011635770,0.999606760,-0.033059000,0.038884000,-0.023923000,0.000289737,0.001100558,-0.000874106,-0.025268831,0.058637403,0.000769625,0.004728425,-0.020544971,0.997140161,0.003915046,-0.001977915,0.000252310,0.000000000,0.000000000,0.000000000,0.000000000,0.016059389,0.008050108,0.071693297,0.031767428,0.000231499,-0.000380337,0.006762224,-0.002499710,-0.002506340,-1.031734620,-0.132509964,-0.963541178,-0.008993405,0.001231985,-0.008397619,0.999922479,0.000000000,0.000000000,0.000000000,0.000000000,0.000000000,0.000000000,0.000189128,0.000000000,4.090909004
1772724142.249505520,0.015458000,0.008012000,0.071742000,-0.016444550,0.019692510,-0.011694600,0.999602430,-0.033368000,0.038995000,-0.024048000,-0.000222178,0.000726343,-0.000550221,-0.009170792,0.024951344,-0.000762175,0.006689838,-0.018229353,0.997824731,-0.000661753,0.002205902,0.001460064,0.000000000,0.000000000,0.000000000,0.000000000,0.016064885,0.008101087,0.071646231,0.031640558,0.000274251,-0.000802959,0.008660505,-0.001098805,-0.000983440,-1.028563227,-0.131732545,-0.963342882,-0.008965791,0.001224954,-0.008395984,0.999922724,0.000000000,0.000000000,0.000000000,0.000000000,0.000000000,0.000000000,0.000189128,0.000000000,4.090909004
1772724142.259506226,0.015455000,0.008022000,0.071724000,-0.016496170,0.019981660,-0.011685120,0.999595950,-0.033478000,0.039572000,-0.024041000,-0.000520579,0.000569043,-0.000359957,0.002088419,-0.000863497,0.002619848,0.006659609,-0.017563990,0.998915157,-0.001196734,0.004749953,0.002836377,0.000000000,0.000000000,0.000000000,0.000000000,0.016064874,0.008129039,0.071619886,0.031548265,0.000319693,-0.001091588,0.008860892,0.000694035,-0.001131314,-1.027130199,-0.133760229,-0.961358781,-0.008953160,0.001242387,-0.008378526,0.999922977,0.000000000,0.000000000,0.000000000,0.000000000,0.000000000,0.000000000,0.000189128,0.000000000,4.090909004
1772724142.269505978,0.015444000,0.008031000,0.071718000,-0.016385220,0.019823710,-0.011602340,0.999601890,-0.033249000,0.039262000,-0.023866000,-0.000449426,0.000250558,-0.000162079,0.006713619,-0.020140116,0.005710501,0.005904757,-0.017860827,0.999764576,0.001108193,0.002413745,0.003579148,0.000000000,0.000000000,0.000000000,0.000000000,0.016053343,0.008104358,0.071640990,0.031532839,0.000366337,-0.001064647,0.008530044,0.000697749,0.000117824,-1.026320557,-0.135037557,-0.960541909,-0.008946010,0.001253410,-0.008371308,0.999923162,0.000000000,0.000000000,0.000000000,0.000000000,0.000000000,0.000000000,0.000189128,0.000000000,4.090909004
1772724142.279506207,0.015443000,0.008032000,0.071730000,-0.016373700,0.019590380,-0.011655920,0.999606050,-0.033222000,0.038793000,-0.023965000,-0.000584913,-0.000037373,0.000072240,0.007510725,-0.028649020,0.006235442,0.005902508,-0.018396811,1.000094316,0.002421656,-0.000864200,0.001785772,0.000000000,0.000000000,0.000000000,0.000000000,0.016051683,0.008066851,0.071675098,0.031515807,0.000355970,-0.000864228,0.007876411,-0.000573253,-0.000030237,-1.025835448,-0.136137392,-0.958126338,-0.008941723,0.001262783,-0.008350149,0.999923313,0.000000000,0.000000000,0.000000000,0.000000000,0.000000000,0.000000000,0.000189128,0.000000000,4.090909004
1772724142.289507151,0.015431000,0.008025000,0.071720000,-0.016288280,0.019442150,-0.011567370,0.999611370,-0.033044000,0.038502000,-0.023779000,-0.000212893,-0.000316523,0.000216254,0.005706029,-0.024793259,0.006341764,0.007479289,-0.017912540,1.000332893,0.002361351,-0.001623334,0.001188067,0.000000000,0.000000000,0.000000000,0.000000000,0.016058419,0.008041104,0.071700979,0.031555042,0.000317857,-0.000705460,0.009731743,-0.000768295,0.000429280,-1.024847440,-0.137120122,-0.956735202,-0.008933046,0.001271178,-0.008337944,0.999923542,0.000000000,0.000000000,0.000000000,0.000000000,0.000000000,0.000000000,0.000189128,0.000000000,4.090909004
1772724142.299507618,0.015437000,0.008022000,0.071733000,-0.016326150,0.019349380,-0.011501680,0.999613310,-0.033115000,0.038318000,-0.023646000,0.000191623,-0.000417725,0.000317767,0.004784676,-0.018363705,0.001258108,0.008195602,-0.015796162,0.999675274,0.000928673,-0.000251282,0.000067451,0.000000000,0.000000000,0.000000000,0.000000000,0.016059689,0.008031245,0.071710445,0.031720987,0.000378824,-0.000610359,0.010975445,0.002504139,-0.000639692,-1.022933014,-0.136446066,-0.954024177,-0.008916419,0.001264946,-0.008314361,0.999923785,0.000000000,0.000000000,0.000000000,0.000000000,0.000000000,0.000000000,0.000189128,0.000000000,4.090909004
1772724142.309509039,0.015444000,0.008014000,0.071731000,-0.016339320,0.019351950,-0.011523130,0.999612800,-0.033142000,0.038322000,-0.023689000,0.000388084,-0.000236261,0.000073639,0.003900138,-0.008086482,-0.001408824,0.008096463,-0.015916086,0.999237537,-0.001661810,0.004253407,0.000234110,0.000000000,0.000000000,0.000000000,0.000000000,0.016068205,0.008029637,0.071714738,0.031975445,0.000659648,-0.000591913,0.010499674,0.000563322,-0.001314115,-1.021874445,-0.136752713,-0.951755392,-0.008907185,0.001267369,-0.008294552,0.999924026,0.000000000,0.000000000,0.000000000,0.000000000,0.000000000,0.000000000,0.000189128,0.000000000,4.090909004
1772724142.319509268,0.015436000,0.008017000,0.071737000,-0.016338580,0.019413010,-0.011608400,0.999610640,-0.033146000,0.038441000,-0.023862000,0.000307860,0.000068763,-0.000040131,0.003730210,-0.002723463,-0.002439012,0.008047909,-0.018744945,0.999399967,-0.003265858,0.007599410,0.002190557,0.000000000,0.000000000,0.000000000,0.000000000,0.016073365,0.008029943,0.071722146,0.032140591,0.000849373,-0.000556338,0.010023961,-0.001377264,-0.001988458,-1.021059037,-0.137714395,-0.949628944,-0.008900024,0.001275536,-0.008275930,0.999924260,0.000000000,0.000000000,0.000000000,0.000000000,0.000000000,0.000000000,0.000189128,0.000000000,4.090909004
1772724142.329509974,0.015454000,0.008016000,0.071727000,-0.016262930,0.019264890,-0.011545500,0.999615470,-0.032988000,0.038149000,-0.023728000,0.000175540,0.000235873,-0.000099803,0.001835890,-0.002460331,-0.002337216,0.006731051,-0.020225382,0.997951924,0.000403315,0.000571088,-0.000358742,0.000000000,0.000000000,0.000000000,0.000000000,0.016077699,0.008035914,0.071717091,0.032339765,0.000797337,-0.000718449,0.009554405,-0.002903779,-0.001757112,-1.020205206,-0.139212946,-0.948717280,-0.008892475,0.001288480,-0.008267868,0.999924431,0.000000000,0.000000000,0.000000000,0.000000000,0.000000000,0.000000000,0.000189128,0.000000000,4.090909004
1772724142.339510441,0.015452000,0.008026000,0.071725000,-0.016186150,0.019301290,-0.011637660,0.999614940,-0.032839000,0.038220000,-0.023911000,-0.000273129,-0.000937411,0.000936847,-0.034084063,0.043156418,0.004134995,0.007055879,-0.019518792,0.997818556,-0.000443525,0.000393563,0.000466747,0.000000000,0.000000000,0.000000000,0.000000000,0.016074237,0.008042121,0.071709395,0.032411496,0.000620272,-0.000916750,0.009671533,-0.001938225,-0.001713375,-1.018655665,-0.140201017,-0.948047811,-0.008878890,0.001296938,-0.008261968,0.999924580,0.000000000,0.000000000,0.000000000,0.000000000,0.000000000,0.000000000,0.000189128,0.000000000,4.090909004
1772724142.349510670,0.015441000,0.008025000,0.071727000,-0.016309680,0.019226370,-0.011549650,0.999615400,-0.033081000,0.038070000,-0.023737000,-0.000312697,-0.000131232,-0.000047707,-0.034588084,0.036605015,0.004635139,0.006810782,-0.018528485,0.996189394,0.000068328,0.002191050,0.001645429,0.000000000,0.000000000,0.000000000,0.000000000,0.016070079,0.008041748,0.071706027,0.032479111,0.000571948,-0.001203824,0.008955179,-0.000967617,-0.004528931,-1.017156648,-0.140176823,-0.945859694,-0.008865836,0.001296450,-0.008242893,0.999924841,0.000000000,0.000000000,0.000000000,0.000000000,0.000000000,0.000000000,0.000189128,0.000000000,4.090909004
1772724142.359511137,0.015439000,0.008026000,0.071727000,-0.016383490,0.019348590,-0.011553760,0.999611790,-0.033232000,0.038313000,-0.023752000,-0.000031157,0.002066017,-0.002369759,0.020000990,-0.051101491,-0.004398757,0.005936554,-0.017872011,0.998846703,-0.000111147,-0.000130769,0.001253094,0.000000000,0.000000000,0.000000000,0.000000000,0.016067992,0.008040045,0.071703890,0.032503751,0.000564715,-0.001407232,0.008140024,-0.000099980,-0.000703106,-1.015923802,-0.142250965,-0.944708747,-0.008854942,0.001314371,-0.008232702,0.999924999,0.000000000,0.000000000,0.000000000,0.000000000,0.000000000,0.000000000,0.000189128,0.000000000,4.090909004
1772724142.369510889,0.015440000,0.008022000,0.071717000,-0.016435820,0.019278300,-0.011509280,0.999612800,-0.033333000,0.038173000,-0.023663000,0.000398456,0.005760319,-0.006310015,0.154588427,-0.250259253,-0.017781503,0.005489205,-0.018082766,0.998046981,-0.002260620,0.001634635,0.006706381,0.000000000,0.000000000,0.000000000,0.000000000,0.016069653,0.008035937,0.071703978,0.032450653,0.000631808,-0.001459281,0.007689168,-0.000163454,-0.000781072,-1.015049360,-0.141381471,-0.942887667,-0.008847394,0.001306581,-0.008216889,0.999925190,0.000000000,0.000000000,0.000000000,0.000000000,0.000000000,0.000000000,0.000189128,0.000000000,4.090909004
1772724142.379511118,0.015436000,0.008023000,0.071715000,-0.016571040,0.019323720,-0.011564620,0.999609050,-0.033607000,0.038258000,-0.023780000,0.000770592,0.005077545,-0.005912530,0.229694190,-0.359050257,-0.020780089,0.005748002,-0.018858463,0.998308992,-0.001334682,0.001972402,-0.000375128,0.000000000,0.000000000,0.000000000,0.000000000,0.016069573,0.008033725,0.071704506,0.032409532,0.000651695,-0.001519165,0.008255266,-0.001520572,-0.001856699,-1.014934713,-0.141531343,-0.941726190,-0.008846397,0.001307791,-0.008206743,0.999925307,0.000000000,0.000000000,0.000000000,0.000000000,0.000000000,0.000000000,0.000189128,0.000000000,4.090909004
1772724142.389511108,0.015462000,0.008225000,0.071500000,-0.013947250,0.015398930,-0.011868020,0.999713710,-0.028269000,0.030463000,-0.024172000,0.000794446,0.005110722,-0.005697558,0.285798744,-0.427929506,-0.025725204,0.006063122,-0.019646803,0.998642571,-0.000414522,0.001818274,-0.005927333,0.000000000,0.000000000,0.000000000,0.000000000,0.016067664,0.008033505,0.071705496,0.032380986,0.000622026,-0.001587270,0.008587970,-0.001853657,-0.001894204,-1.014689032,-0.141896850,-0.941092949,-0.008844234,0.001310913,-0.008201192,0.999925377,0.000000000,0.000000000,0.000000000,0.000000000,0.000000000,0.000000000,0.000189128,0.000000000,4.090909004
1772724142.399511099,0.015472000,0.008272000,0.071461000,-0.011955680,0.012205430,-0.012021630,0.999781760,-0.024209000,0.024120000,-0.024339000,0.000291524,0.002743469,-0.002962850,0.253369536,-0.366947417,-0.020178359,0.006420121,-0.020389304,0.998413133,-0.000496697,-0.000038361,0.001164201,0.000000000,0.000000000,0.000000000,0.000000000,0.016072808,0.008032311,0.071702032,0.032389584,0.000537832,-0.001668541,0.008656143,-0.002382752,-0.001368664,-1.014048001,-0.142462853,-0.941042621,-0.008838601,0.001315803,-0.008200718,0.999925434,0.000000000,0.000000000,0.000000000,0.000000000,0.000000000,0.000000000,0.000189128,0.000000000,4.090909004
1772724142.409510851,0.015471000,0.008272000,0.071438000,-0.010364750,0.009930480,-0.011998990,0.999824980,-0.020970000,0.019610000,-0.024207000,-0.000133136,-0.001276933,0.001249136,0.130531864,-0.173154214,-0.008753465,0.006593929,-0.020505263,0.998267039,0.001848304,-0.001791358,-0.004780936,0.000000000,0.000000000,0.000000000,0.000000000,0.016076500,0.008033754,0.071697699,0.032391709,0.000379845,-0.001726683,0.008749346,-0.002777279,-0.001073354,-1.013230353,-0.142000656,-0.941972035,-0.008831489,0.001311783,-0.008208872,0.999925490,0.000000000,0.000000000,0.000000000,0.000000000,0.000000000,0.000000000,0.000189128,0.000000000,4.090909004
1772724142.419510841,0.015452000,0.008048000,0.071676000,-0.012264520,0.012884400,-0.011851650,0.999771530,-0.024839000,0.025475000,-0.024024000,-0.000627861,-0.004838331,0.005055071,-0.045834949,0.095955411,0.005267058,0.006194387,-0.018886319,0.999499482,0.000739489,0.000780373,-0.001679579,0.000000000,0.000000000,0.000000000,0.000000000,0.016040454,0.008085777,0.071635455,0.032035258,0.000201624,-0.002017574,0.008371153,-0.001259424,-0.000363595,-1.015185466,-0.137474306,-0.945173068,-0.008848839,0.001272674,-0.008237132,0.999925186,0.000000000,0.000000000,0.000000000,0.000000000,0.000000000,0.000000000,0.000189128,0.000000000,4.090909004
1772724142.429511070,0.015452000,0.008217000,0.071521000,-0.011310650,0.011743220,-0.012039830,0.999794580,-0.022908000,0.023211000,-0.024349000,-0.000870707,-0.006395988,0.006916489,-0.209578908,0.332296628,0.014890005,0.006415073,-0.021073602,0.999353050,0.000090708,-0.000795045,0.000058000,0.000000000,0.000000000,0.000000000,0.000000000,0.015983961,0.008164289,0.071542049,0.031491018,0.000022411,-0.002438398,0.008767484,-0.003464534,0.000036335,-1.016965628,-0.133184798,-0.948207912,-0.008864648,0.001235605,-0.008263926,0.999924856,0.000000000,0.000000000,0.000000000,0.000000000,0.000000000,0.000000000,0.000189128,0.000000000,4.090909004
1772724142.439511538,0.015437000,0.008041000,0.071692000,-0.013295310,0.014836770,-0.011846290,0.999731350,-0.026950000,0.029355000,-0.024093000,-0.000639981,-0.004351726,0.004955228,-0.262247002,0.400354200,0.017280019,0.005958854,-0.019169737,1.000785741,0.002217033,0.001599451,0.000238835,0.000000000,0.000000000,0.000000000,0.000000000,0.015988224,0.008220776,0.071466962,0.031359753,-0.000094305,-0.002712731,0.008842583,-0.001616405,0.000146231,-1.015542892,-0.133181168,-0.948282062,-0.008852233,0.001235477,-0.008264589,0.999924871,0.000000000,0.000000000,0.000000000,0.000000000,0.000000000,0.000000000,0.000189128,0.000000000,4.090909004
1772724142.449512005,0.015446000,0.008003000,0.071727000,-0.014772890,0.017008760,-0.011766120,0.999676960,-0.029958000,0.033665000,-0.024043000,-0.000313416,-0.003444579,0.004278496,-0.276122641,0.403162373,0.019066710,0.005900507,-0.019852853,0.998099864,0.000945074,0.002229064,0.000894858,0.000000000,0.000000000,0.000000000,0.000000000,0.016031140,0.008188346,0.071487647,0.031518193,-0.000351852,-0.002508647,0.008464573,-0.002121221,-0.000359439,-1.013621116,-0.132360556,-0.950300576,-0.008835500,0.001228333,-0.008282288,0.999924898,0.000000000,0.000000000,0.000000000,0.000000000,0.000000000,0.000000000,0.000189128,0.000000000,4.090909004
1772724142.459511995,0.015433000,0.008024000,0.071729000,-0.015839720,0.018703330,-0.011715570,0.999630950,-0.032134000,0.037030000,-0.024034000,-0.000167518,-0.001170467,0.001740986,-0.209681466,0.297698587,0.015844284,0.007012809,-0.017884564,1.000537574,-0.000319221,0.001098830,-0.000118044,0.000000000,0.000000000,0.000000000,0.000000000,0.016047250,0.008154444,0.071522872,0.031541429,-0.000562511,-0.002327955,0.009335709,-0.000752175,-0.000935513,-1.011828157,-0.133400663,-0.948984528,-0.008819793,0.001237178,-0.008270743,0.999925073,0.000000000,0.000000000,0.000000000,0.000000000,0.000000000,0.000000000,0.000189128,0.000000000,4.090909004
1772724142.469512701,0.015439000,0.008018000,0.071735000,-0.016534270,0.019442140,-0.011624370,0.999606670,-0.033539000,0.038494000,-0.023902000,0.000253471,0.002249715,-0.002108052,-0.073662577,0.095108015,0.006473988,0.006655828,-0.018561816,0.998164775,0.002375673,0.003540918,-0.001156380,0.000000000,0.000000000,0.000000000,0.000000000,0.016051007,0.008134960,0.071545661,0.031558914,-0.000637270,-0.002172300,0.009258537,-0.000997860,-0.000150090,-1.010680341,-0.134129931,-0.947352708,-0.008809742,0.001243334,-0.008256459,0.999925280,0.000000000,0.000000000,0.000000000,0.000000000,0.000000000,0.000000000,0.000189128,0.000000000,4.090909004
1772724142.479512691,0.015437000,0.008020000,0.071734000,-0.016783130,0.019867910,-0.011554860,0.999594960,-0.034045000,0.039342000,-0.023788000,0.000570947,0.006063517,-0.006344105,0.106292049,-0.164730435,-0.007919266,0.006774825,-0.019244495,0.997935414,0.001676669,0.000131227,0.001110414,0.000000000,0.000000000,0.000000000,0.000000000,0.016051842,0.008070246,0.071611441,0.031587348,-0.000875801,-0.001893368,0.009154561,-0.002609931,-0.002970937,-1.008752074,-0.134429848,-0.945548247,-0.008792916,0.001245673,-0.008240712,0.999925525,0.000000000,0.000000000,0.000000000,0.000000000,0.000000000,0.000000000,0.000189128,0.000000000,4.090909004
1772724142.489512682,0.015443000,0.008023000,0.071736000,-0.016962980,0.020099080,-0.011607480,0.999586690,-0.034413000,0.039798000,-0.023908000,0.000261261,0.003108165,-0.003692379,0.145849879,-0.223216929,-0.008229448,0.006779001,-0.018861468,0.997930767,-0.001297840,0.001981010,-0.000666306,0.000000000,0.000000000,0.000000000,0.000000000,0.016051719,0.008031128,0.071656684,0.031639217,-0.001060172,-0.001831443,0.009355977,-0.001381807,-0.001474725,-1.008796380,-0.135834825,-0.942737263,-0.008793231,0.001257721,-0.008216074,0.999925815,0.000000000,0.000000000,0.000000000,0.000000000,0.000000000,0.000000000,0.000189128,0.000000000,4.090909004
1772724142.499513149,0.015446000,0.008219000,0.071517000,-0.014453610,0.016393570,-0.011812880,0.999691350,-0.029305000,0.032441000,-0.024107000,0.000232260,0.001407718,-0.001967884,0.145043598,-0.222391613,-0.006680632,0.006505375,-0.017695723,0.999850226,-0.000540752,-0.002055702,-0.001054681,0.000000000,0.000000000,0.000000000,0.000000000,0.016051966,0.008013707,0.071683937,0.031740001,-0.001035988,-0.001756192,0.008703197,-0.000551874,-0.000391128,-1.005938284,-0.134908319,-0.941520694,-0.008768371,0.001249338,-0.008205561,0.999926103,0.000000000,0.000000000,0.000000000,0.000000000,0.000000000,0.000000000,0.000189128,0.000000000,4.090909004
1772724142.509513617,0.015471000,0.008276000,0.071443000,-0.012458580,0.013256500,-0.011855940,0.999764220,-0.025237000,0.026214000,-0.024047000,-0.000043084,0.002472845,-0.002576456,0.162691156,-0.250896169,-0.005832782,0.004788415,-0.019071092,1.000031829,-0.004265440,-0.001756388,0.003948243,0.000000000,0.000000000,0.000000000,0.000000000,0.016052380,0.008009859,0.071691693,0.031754761,-0.000962518,-0.001678934,0.007900865,-0.000981227,-0.000118038,-1.005104964,-0.134358012,-0.941218963,-0.008761142,0.001244453,-0.008202980,0.999926211,0.000000000,0.000000000,0.000000000,0.000000000,0.000000000,0.000000000,0.000189128,0.000000000,4.090909004
1772724142.519513607,0.015442000,0.008065000,0.071671000,-0.013833830,0.015218320,-0.011730610,0.999719670,-0.028033000,0.030108000,-0.023889000,-0.000161535,0.001383205,-0.001411428,0.133289200,-0.219675011,-0.003838018,0.004665133,-0.019051794,0.999792203,-0.003557064,-0.000732075,0.001959946,0.000000000,0.000000000,0.000000000,0.000000000,0.016052773,0.008008638,0.071695304,0.031736469,-0.000934976,-0.001630055,0.007284091,-0.001551496,-0.000013218,-1.005119895,-0.133971915,-0.941001843,-0.008761303,0.001241069,-0.008201115,0.999926224,0.000000000,0.000000000,0.000000000,0.000000000,0.000000000,0.000000000,0.000189128,0.000000000,4.090909004
1772724142.529513121,0.015429000,0.008016000,0.071731000,-0.014774440,0.016485740,-0.011610130,0.999687520,-0.029943000,0.032624000,-0.023715000,-0.000132009,-0.000829449,0.000811636,0.062246437,-0.111403620,0.003903007,0.004541857,-0.019032497,0.999552587,-0.002848720,0.000292190,-0.000028255,0.000000000,0.000000000,0.000000000,0.000000000,0.016053397,0.008008639,0.071696747,0.031698461,-0.000946882,-0.001605654,0.006667347,-0.002121738,0.000091597,-1.005134826,-0.133585838,-0.940784732,-0.008761463,0.001237684,-0.008199250,0.999926237,0.000000000,0.000000000,0.000000000,0.000000000,0.000000000,0.000000000,0.000189128,0.000000000,4.090909004
1772724142.539513111,0.015454000,0.008222000,0.071523000,-0.012881670,0.013648350,-0.011731480,0.999755050,-0.026090000,0.026991000,-0.023820000,0.000264660,-0.005178378,0.004553101,-0.062313568,0.083481831,0.023328434,0.004418576,-0.019013199,0.999312960,-0.002140344,0.001316504,-0.002016552,0.000000000,0.000000000,0.000000000,0.000000000,0.016054022,0.008008640,0.071698189,0.031660452,-0.000958789,-0.001581251,0.006612811,-0.002134596,-0.000050816,-1.005149757,-0.133199741,-0.940567611,-0.008761624,0.001234300,-0.008197384,0.999926250,0.000000000,0.000000000,0.000000000,0.000000000,0.000000000,0.000000000,0.000189128,0.000000000,4.090909004
1772724142.549513817,0.015445000,0.008277000,0.071461000,-0.011569660,0.011495380,-0.011794520,0.999797420,-0.023414000,0.022715000,-0.023859000,0.000093762,-0.002747587,0.002450255,-0.089656405,0.135279676,0.018418809,0.004295285,-0.018993899,0.999073317,-0.001431916,0.002340891,-0.004004990,0.000000000,0.000000000,0.000000000,0.000000000,0.016054646,0.008008641,0.071699632,0.031622440,-0.000970697,-0.001556847,0.006975665,-0.001733647,-0.000376779,-1.005164689,-0.132813617,-0.940350475,-0.008761784,0.001230915,-0.008195519,0.999926262,0.000000000,0.000000000,0.000000000,0.000000000,0.000000000,0.000000000,0.000189128,0.000000000,4.090909004
1772724142.559513569,0.015449000,0.008048000,0.071672000,-0.013467570,0.014360820,-0.011700320,0.999737710,-0.027279000,0.028403000,-0.023793000,-0.000266699,0.001931036,-0.000904719,-0.048718118,0.075055430,-0.010685718,0.005081515,-0.018543587,0.999551133,-0.001520249,0.002513989,-0.001530234,0.000000000,0.000000000,0.000000000,0.000000000,0.016055234,0.008032434,0.071674157,0.031557293,-0.000891953,-0.001662036,0.007338485,-0.001332735,-0.000702711,-1.004353044,-0.132806105,-0.939742221,-0.008754709,0.001230745,-0.008190221,0.999926355,0.000000000,0.000000000,0.000000000,0.000000000,0.000000000,0.000000000,0.000189128,0.000000000,4.090909004
1772724142.569514036,0.015454000,0.008007000,0.071723000,-0.014577160,0.016353060,-0.011476890,0.999694140,-0.029541000,0.032367000,-0.023438000,-0.001001725,0.005244907,-0.002698365,0.005102405,-0.006383573,-0.051819439,0.006865317,-0.018781751,0.998839104,0.000987415,0.000845433,-0.001750916,0.000000000,0.000000000,0.000000000,0.000000000,0.016059291,0.008138270,0.071553862,0.031443488,-0.000501829,-0.002201098,0.009207781,-0.000618844,-0.000604096,-1.004100395,-0.132262604,-0.939686621,-0.008752543,0.001225980,-0.008189781,0.999926448,0.000000000,0.000000000,0.000000000,0.000000000,0.000000000,0.000000000,0.000189128,0.000000000,4.090909004
1772724142.579514027,0.015444000,0.008000000,0.071741000,-0.015500660,0.017703340,-0.011513390,0.999656820,-0.031423000,0.035045000,-0.023584000,-0.001901880,0.010585655,-0.006496588,0.127345197,-0.195813328,-0.107915788,0.006246529,-0.019024402,1.000449799,0.001908265,-0.003840659,0.002312408,0.000000000,0.000000000,0.000000000,0.000000000,0.016063014,0.008160962,0.071522057,0.031436788,-0.000466214,-0.002277578,0.008899809,-0.002588161,0.000089773,-1.003001624,-0.131802726,-0.939503956,-0.008742991,0.001221874,-0.008188233,0.999926497,0.000000000,0.000000000,0.000000000,0.000000000,0.000000000,0.000000000,0.000189128,0.000000000,4.090909004
1772724142.589514256,0.015393000,0.008449000,0.071406000,-0.012736430,0.013263200,-0.012755240,0.999749560,-0.025817000,0.026198000,-0.025854000,-0.001473509,0.013506334,-0.009927920,0.287484675,-0.432687971,-0.139400390,0.007654813,-0.019437769,0.999279578,-0.000427066,-0.000094180,0.000139178,0.000000000,0.000000000,0.000000000,0.000000000,0.016052451,0.008088854,0.071600765,0.031453051,-0.000818995,-0.001846184,0.009922495,-0.001933732,0.000045642,-1.001743128,-0.131362471,-0.939171230,-0.008732045,0.001217917,-0.008185377,0.999926609,0.000000000,0.000000000,0.000000000,0.000000000,0.000000000,0.000000000,0.000189128,0.000000000,4.090909004
1772724142.599514008,0.015394000,0.008558000,0.071318000,-0.010393510,0.009574000,-0.013589560,0.999807800,-0.021049000,0.018863000,-0.027381000,-0.000604279,0.010099730,-0.008671694,0.360190046,-0.532508761,-0.123247842,0.006913182,-0.016533304,0.999743290,-0.001113336,0.000223908,-0.001749392,0.000000000,0.000000000,0.000000000,0.000000000,0.016052804,0.008111835,0.071582729,0.031522518,-0.000752294,-0.001846384,0.009489635,-0.000140375,0.000422294,-1.000161331,-0.130793137,-0.937512447,-0.008718299,0.001212710,-0.008170962,0.999926794,0.000000000,0.000000000,0.000000000,0.000000000,0.000000000,0.000000000,0.000189128,0.000000000,4.090909004
1772724142.609513998,0.015398000,0.008557000,0.071300000,-0.008714520,0.007127200,-0.014085810,0.999837410,-0.017630000,0.014007000,-0.028298000,0.000658474,0.001068002,-0.002421992,0.277226203,-0.394333186,-0.061878532,0.007534661,-0.017854833,1.002684371,0.001408869,-0.000167701,-0.002050908,0.000000000,0.000000000,0.000000000,0.000000000,0.016057015,0.008115759,0.071578163,0.031550724,-0.000788875,-0.001668127,0.009411305,-0.000936180,0.001938400,-0.999532046,-0.130180768,-0.936349827,-0.008712863,0.001207233,-0.008160871,0.999926968,0.000000000,0.000000000,0.000000000,0.000000000,0.000000000,0.000000000,0.000189128,0.000000000,4.090909004
1772724142.619514227,0.015385000,0.008532000,0.071324000,-0.007803900,0.005701380,-0.014434270,0.999849110,-0.015772000,0.011176000,-0.028959000,0.001711791,-0.005493988,0.002115900,0.152421604,-0.196147169,0.018573246,0.006570795,-0.020804218,1.001086427,0.002542448,-0.000015849,0.000329580,0.000000000,0.000000000,0.000000000,0.000000000,0.016059220,0.008084490,0.071607785,0.031559648,-0.000983311,-0.001290030,0.008862804,-0.003258342,0.001907551,-0.998825048,-0.129296449,-0.935514710,-0.008706767,0.001199403,-0.008153658,0.999927059,0.000000000,0.000000000,0.000000000,0.000000000,0.000000000,0.000000000,0.000189128,0.000000000,4.090909004
1772724142.629514217,0.015452000,0.008291000,0.071459000,-0.008333000,0.006944940,-0.013563950,0.999849160,-0.016854000,0.013662000,-0.027245000,0.001961824,-0.011439987,0.007412457,-0.044732919,0.098329971,0.092449599,0.005910083,-0.019561712,1.000401042,0.003581237,-0.001069538,0.000003170,0.000000000,0.000000000,0.000000000,0.000000000,0.016061425,0.008053221,0.071637407,0.031568571,-0.001177742,-0.000911943,0.008466793,-0.002009285,0.000636451,-0.997106719,-0.128938295,-0.934397295,-0.008691810,0.001196071,-0.008143952,0.999927296,0.000000000,0.000000000,0.000000000,0.000000000,0.000000000,0.000000000,0.000189128,0.000000000,4.090909004
1772724142.639513969,0.015457000,0.008249000,0.071481000,-0.008827180,0.007927780,-0.012925730,0.999846070,-0.017860000,0.015626000,-0.025994000,0.001263471,-0.009233141,0.006572130,-0.160294689,0.260719017,0.116532331,0.005716872,-0.018603428,0.999001082,-0.001292293,0.002369235,-0.000123772,0.000000000,0.000000000,0.000000000,0.000000000,0.016055420,0.008036431,0.071668616,0.031528269,-0.001229006,-0.000701009,0.007890945,-0.000992858,-0.001008571,-0.998117266,-0.125980614,-0.937080816,-0.008700812,0.001170538,-0.008167584,0.999927199,0.000000000,0.000000000,0.000000000,0.000000000,0.000000000,0.000000000,0.000189128,0.000000000,4.090909004
1772724142.649513960,0.015459000,0.008243000,0.071490000,-0.009251480,0.008539960,-0.012511000,0.999842460,-0.018717000,0.016847000,-0.025182000,0.000455351,-0.004621670,0.003576550,-0.189389803,0.292996675,0.100929692,0.005506358,-0.017226567,0.999372225,-0.002992233,0.001236261,-0.000196446,0.000000000,0.000000000,0.000000000,0.000000000,0.016024601,0.008265070,0.071503317,0.031250407,-0.000446336,-0.001475176,0.007427091,0.000235338,-0.000501890,-0.999406622,-0.124053364,-0.937030302,-0.008712201,0.001153808,-0.008167277,0.999927001,0.000000000,0.000000000,0.000000000,0.000000000,0.000000000,0.000000000,0.000189128,0.000000000,4.090909004
1772724142.659513950,0.015454000,0.008247000,0.071493000,-0.009742300,0.009162890,-0.012221510,0.999835870,-0.019710000,0.018086000,-0.024624000,-0.000509468,-0.001174060,0.001826143,-0.190879433,0.286702301,0.062760280,0.007322734,-0.017510122,1.001220817,-0.000219833,-0.001765286,-0.002807778,0.000000000,0.000000000,0.000000000,0.000000000,0.016007032,0.008431693,0.071373428,0.030974648,0.000164395,-0.001950387,0.008904406,-0.000170989,0.000417176,-0.998708183,-0.125511667,-0.936067251,-0.008706011,0.001166410,-0.008158768,0.999927104,0.000000000,0.000000000,0.000000000,0.000000000,0.000000000,0.000000000,0.000189128,0.000000000,4.090909004
1772724142.669513702,0.015446000,0.008046000,0.071696000,-0.012592580,0.013670410,-0.011758070,0.999758120,-0.025513000,0.027041000,-0.023866000,-0.001083911,-0.000295195,0.001922897,-0.196438505,0.286064854,0.020916767,0.007167243,-0.017880120,0.999174752,-0.000634443,0.000605415,-0.001793863,0.000000000,0.000000000,0.000000000,0.000000000,0.016006103,0.008459059,0.071339431,0.030855643,0.000195168,-0.001970980,0.009233355,-0.000136660,-0.000050307,-0.997993301,-0.126703945,-0.936146594,-0.008699688,0.001176769,-0.008159378,0.999927188,0.000000000,0.000000000,0.000000000,0.000000000,0.000000000,0.000000000,0.000189128,0.000000000,4.090909004
1772724142.679513693,0.015439000,0.008211000,0.071537000,-0.012447240,0.013385430,-0.011869610,0.999762480,-0.025218000,0.026472000,-0.024078000,-0.000589847,-0.003777206,0.004487252,-0.244624275,0.357474331,0.011468883,0.006942323,-0.019272114,0.999673035,-0.000937363,0.001868811,-0.000696652,0.000000000,0.000000000,0.000000000,0.000000000,0.016016995,0.008401897,0.071365683,0.030805260,-0.000151427,-0.001786950,0.008740489,-0.002796016,-0.000365840,-0.997998419,-0.126489249,-0.935667196,-0.008699753,0.001174860,-0.008155211,0.999927302,0.000000000,0.000000000,0.000000000,0.000000000,0.000000000,0.000000000,0.000189128,0.000000000,4.090909004
1772724142.689513922,0.015428000,0.008262000,0.071509000,-0.012399890,0.013346890,-0.012102310,0.999760790,-0.025128000,0.026390000,-0.024541000,-0.000296302,-0.003989613,0.004026073,-0.240596610,0.352087039,0.005291395,0.004969957,-0.019890395,1.000045544,-0.001805795,0.001021950,-0.001034122,0.000000000,0.000000000,0.000000000,0.000000000,0.016032578,0.008319693,0.071411059,0.030662729,-0.000718193,-0.001465188,0.007906223,-0.003596128,0.000553324,-0.996479187,-0.126560451,-0.934338301,-0.008686505,0.001175272,-0.008143625,0.999927416,0.000000000,0.000000000,0.000000000,0.000000000,0.000000000,0.000000000,0.000189128,0.000000000,4.090909004
1772724142.699513912,0.015428000,0.008080000,0.071696000,-0.014425360,0.016371690,-0.011940060,0.999690610,-0.029252000,0.032394000,-0.024360000,0.000104582,-0.001978063,0.001267531,-0.164798864,0.235286972,0.002866279,0.005319124,-0.017527976,1.000049684,0.001229746,0.006156690,0.000044070,0.000000000,0.000000000,0.000000000,0.000000000,0.016041685,0.008259572,0.071446048,0.030458549,-0.001137213,-0.001244042,0.006962695,-0.001168281,-0.000300805,-0.996459929,-0.126869529,-0.933117558,-0.008686328,0.001177875,-0.008132950,0.999927502,0.000000000,0.000000000,0.000000000,0.000000000,0.000000000,0.000000000,0.000189128,0.000000000,4.090909004
