t,px,py,pz,qx,qy,qz,qw,roll,pitch,yaw,vx,vy,vz,wx_vicon,wy_vicon,wz_vicon,imu_acc_x,imu_acc_y,imu_acc_z,imu_gyro_x,imu_gyro_y,imu_gyro_z,motor_motor_m1,motor_motor_m2,motor_motor_m3,motor_motor_m4,est_stateEstimate_x,est_stateEstimate_y,est_stateEstimate_z,est_stateEstimate_vx,est_stateEstimate_vy,est_stateEstimate_vz,est_stateEstimate_ax,est_stateEstimate_ay,est_stateEstimate_az,att_stateEstimate_roll,att_stateEstimate_pitch,att_stateEstimate_yaw,att_stateEstimate_qx,att_stateEstimate_qy,att_stateEstimate_qz,att_stateEstimate_qw,sp_ctrltarget_x,sp_ctrltarget_y,sp_ctrltarget_z,sp_ctrltarget_yaw,pid_controller_roll,pid_controller_pitch,pid_controller_yaw,pid_controller_cmd_thrust,pwr_pm_vbat
1772724092.208668709,0.015794000,0.010024000,0.071486000,-0.007778290,0.019026640,-0.010466710,0.999733930,-0.015963000,0.037889000,-0.021241000,0.000012878,-0.001662763,-0.000927018,-0.104954288,0.072696446,0.014773685,0.001536982,-0.006286339,0.999927177,-0.002731235,0.001892406,-0.001494356,0.000000000,0.000000000,0.000000000,0.000000000,0.016441109,0.010161639,0.071468615,0.032970242,0.007478826,-0.001266914,0.010151539,0.001620393,-0.000293038,-0.467143955,-0.498546027,-0.801677318,-0.004046010,0.004379003,-0.006978031,0.999956861,0.000000000,0.000000000,0.000000000,0.000000000,0.000000000,0.000000000,0.114281349,0.000000000,4.127859116
1772724092.218668699,0.015818000,0.010034000,0.071453000,-0.007558000,0.018504140,-0.010256560,0.999747610,-0.015503000,0.036852000,-0.020803000,0.001428930,-0.000230162,-0.001556258,0.047138713,-0.090909907,0.037417772,0.000870183,-0.007114166,1.000176548,-0.000025785,0.002977762,0.000477152,0.000000000,0.000000000,0.000000000,0.000000000,0.016431234,0.010149360,0.071492208,0.033021041,0.007398165,-0.001151487,0.009748744,0.000335278,0.000540443,-0.465981256,-0.497783725,-0.801198943,-0.004035929,0.004372263,-0.006973928,0.999956968,0.000000000,0.000000000,0.000000000,0.000000000,0.000000000,0.000000000,0.114281349,0.000000000,4.127859116
1772724092.228667974,0.015813000,0.010026000,0.071448000,-0.007302580,0.018134460,-0.010081540,0.999758060,-0.014978000,0.036121000,-0.020438000,0.001515292,0.000326818,-0.001126081,0.101686709,-0.140797804,0.036880354,0.000536678,-0.007593668,1.000686768,0.003092327,-0.002363102,0.002687582,0.000000000,0.000000000,0.000000000,0.000000000,0.016432547,0.010143907,0.071496606,0.033055470,0.007319711,-0.001096105,0.009210233,-0.000084768,0.001096294,-0.465375337,-0.497727837,-0.800336589,-0.004030678,0.004371708,-0.006966428,0.999957043,0.000000000,0.000000000,0.000000000,0.000000000,0.000000000,0.000000000,0.114281349,0.000000000,4.127859116
1772724092.238667965,0.015832000,0.010018000,0.071453000,-0.007050000,0.017644090,-0.010002660,0.999769440,-0.014459000,0.035146000,-0.020263000,0.000702024,0.000245235,-0.000008508,0.083957891,-0.106758811,0.019896631,0.000408173,-0.007234606,1.000888083,0.001295961,-0.000849697,0.002434275,0.000000000,0.000000000,0.000000000,0.000000000,0.016440295,0.010143718,0.071487696,0.033079440,0.007254515,-0.001087245,0.009372815,0.000269105,0.001193626,-0.464897782,-0.497573739,-0.800090020,-0.004026529,0.004370325,-0.006964300,0.999957083,0.000000000,0.000000000,0.000000000,0.000000000,0.000000000,0.000000000,0.114281349,0.000000000,4.127859116
1772724092.248667955,0.015829000,0.010015000,0.071472000,-0.006808200,0.017494850,-0.009996380,0.999773800,-0.013972000,0.034853000,-0.020240000,-0.000580814,-0.000237854,0.001424443,0.019159233,-0.018626048,-0.006781492,0.000296905,-0.006805036,1.001063422,-0.000913625,0.001240038,0.001973807,0.000000000,0.000000000,0.000000000,0.000000000,0.016448044,0.010143530,0.071478786,0.033103411,0.007189318,-0.001078386,0.009535397,0.000622979,0.001290958,-0.464420227,-0.497419641,-0.799843452,-0.004022381,0.004368943,-0.006962172,0.999957123,0.000000000,0.000000000,0.000000000,0.000000000,0.000000000,0.000000000,0.114281349,0.000000000,4.127859116
1772724092.258668900,0.015828000,0.010015000,0.071478000,-0.006760950,0.017475470,-0.010077790,0.999773640,-0.013880000,0.034814000,-0.020401000,-0.001903162,-0.000885392,0.002800752,-0.067492058,0.093757681,-0.036485871,0.000185627,-0.006375425,1.001238778,-0.003123422,0.003329971,0.001513296,0.000000000,0.000000000,0.000000000,0.000000000,0.016460072,0.010147165,0.071464434,0.033129720,0.007144535,-0.001014869,0.009353399,0.001427464,0.000878375,-0.464269822,-0.497500348,-0.799474250,-0.004021078,0.004369625,-0.006958954,0.999957144,0.000000000,0.000000000,0.000000000,0.000000000,0.000000000,0.000000000,0.114281349,0.000000000,4.127859116
1772724092.268667936,0.015814000,0.010037000,0.071460000,-0.006789130,0.017393710,-0.010067970,0.999774980,-0.013934000,0.034650000,-0.020381000,-0.002390854,-0.001315685,0.003659706,-0.148259462,0.200695934,-0.064135170,0.000052573,-0.006202626,1.000163827,-0.002334925,0.000205699,0.001167908,0.000000000,0.000000000,0.000000000,0.000000000,0.016467252,0.010148253,0.071454744,0.033125199,0.007128495,-0.000993874,0.009024436,0.002108057,0.000318270,-0.464761946,-0.498042144,-0.798864356,-0.004025362,0.004374361,-0.006953593,0.999957170,0.000000000,0.000000000,0.000000000,0.000000000,0.000000000,0.000000000,0.114281349,0.000000000,4.127859116
1772724092.278667688,0.015751000,0.009989000,0.071567000,-0.008304960,0.019499310,-0.010728260,0.999717810,-0.017037000,0.038819000,-0.021792000,-0.002128331,-0.001308944,0.003060439,-0.181140722,0.247164856,-0.072003430,-0.000120367,-0.005972904,0.999353071,-0.001663158,-0.001320255,-0.000040400,0.000000000,0.000000000,0.000000000,0.000000000,0.016471654,0.010147723,0.071447861,0.033105523,0.007124291,-0.000998994,0.008755469,0.002430885,-0.000091234,-0.464296856,-0.497086007,-0.798423444,-0.004021379,0.004365974,-0.006949798,0.999957230,0.000000000,0.000000000,0.000000000,0.000000000,0.000000000,0.000000000,0.114281349,0.000000000,4.127859116
1772724092.288667679,0.015735000,0.009966000,0.071598000,-0.009426120,0.021027870,-0.011102280,0.999672800,-0.019331000,0.041845000,-0.022615000,-0.000643031,-0.000886149,0.001484853,-0.147668408,0.207861694,-0.056951346,-0.000440841,-0.005467311,0.999836492,-0.002118138,0.004449211,-0.004574364,0.000000000,0.000000000,0.000000000,0.000000000,0.016466043,0.010150519,0.071450033,0.032999549,0.007177149,-0.000985579,0.008551603,0.002271511,-0.000364382,-0.463936160,-0.496276533,-0.798385460,-0.004018282,0.004358888,-0.006949509,0.999957239,0.000000000,0.000000000,0.000000000,0.000000000,0.000000000,0.000000000,0.114281349,0.000000000,4.127859116
1772724092.298667431,0.015751000,0.009965000,0.071587000,-0.010043030,0.021885000,-0.011279760,0.999646410,-0.020594000,0.043542000,-0.023015000,0.000972472,-0.000028107,-0.000635106,-0.060207507,0.096431688,-0.025051144,0.001108541,-0.005364795,0.999536780,-0.001054032,-0.000945966,-0.001627516,0.000000000,0.000000000,0.000000000,0.000000000,0.016440809,0.010141275,0.071490931,0.032877574,0.007199732,-0.000827084,0.009509873,0.002250415,0.000190130,-0.463901721,-0.496240748,-0.799097979,-0.004017957,0.004358598,-0.006955729,0.999957251,0.000000000,0.000000000,0.000000000,0.000000000,0.000000000,0.000000000,0.114281349,0.000000000,4.127859116
1772724092.308667421,0.015766000,0.009975000,0.071582000,-0.010301560,0.022402050,-0.011483950,0.999630000,-0.021133000,0.044566000,-0.023446000,0.002009395,0.001198691,-0.002873827,0.050390223,-0.055998386,0.017646679,0.001106654,-0.006666777,1.000641808,0.000462314,0.001714954,0.004094872,0.000000000,0.000000000,0.000000000,0.000000000,0.016429188,0.010148419,0.071494386,0.032916463,0.007250189,-0.000736895,0.010013269,0.001914035,0.000024223,-0.463409513,-0.496884308,-0.797129448,-0.004013697,0.004364115,-0.006938547,0.999957356,0.000000000,0.000000000,0.000000000,0.000000000,0.000000000,0.000000000,0.114281349,0.000000000,4.127859116
1772724092.318668842,0.015805000,0.010008000,0.071493000,-0.009077420,0.020821590,-0.010994950,0.999681540,-0.018624000,0.041442000,-0.022382000,0.002346411,0.001912000,-0.004145476,0.141433606,-0.189967030,0.053888265,0.001162887,-0.006192474,0.999604190,0.000106122,-0.000386540,0.001156369,0.000000000,0.000000000,0.000000000,0.000000000,0.016440343,0.010160745,0.071468810,0.033016032,0.007285429,-0.000829085,0.009847007,0.002351244,-0.000580455,-0.462893430,-0.497176244,-0.796102893,-0.004009215,0.004366595,-0.006929598,0.999957448,0.000000000,0.000000000,0.000000000,0.000000000,0.000000000,0.000000000,0.114281349,0.000000000,4.127859116
1772724092.328668356,0.015833000,0.010016000,0.071476000,-0.008158380,0.019612960,-0.010678470,0.999717330,-0.016745000,0.039051000,-0.021689000,0.001469275,0.001348609,-0.003088527,0.161432755,-0.227361321,0.062760651,0.001219108,-0.005718261,0.998566771,-0.000250001,-0.002487634,-0.001781574,0.000000000,0.000000000,0.000000000,0.000000000,0.016446063,0.010164682,0.071452263,0.033069275,0.007330973,-0.000953769,0.009795230,0.002503175,-0.001139243,-0.461664202,-0.495599955,-0.795619586,-0.003998603,0.004352749,-0.006925483,0.999957552,0.000000000,0.000000000,0.000000000,0.000000000,0.000000000,0.000000000,0.114281349,0.000000000,4.127859116
1772724092.338669062,0.015825000,0.010031000,0.071453000,-0.007513910,0.018480280,-0.010428750,0.999746600,-0.015421000,0.036803000,-0.021146000,0.000935507,0.000751692,-0.002264128,0.155548690,-0.225497321,0.064945284,0.000497963,-0.005001775,0.997834457,0.000488083,-0.000520383,-0.000630735,0.000000000,0.000000000,0.000000000,0.000000000,0.016454213,0.010164134,0.071442106,0.033098183,0.007375607,-0.001103122,0.009508087,0.002719530,-0.002231601,-0.461400753,-0.494055333,-0.795014000,-0.003996421,0.004339233,-0.006920263,0.999957658,0.000000000,0.000000000,0.000000000,0.000000000,0.000000000,0.000000000,0.114281349,0.000000000,4.127859116
1772724092.348668814,0.015814000,0.010039000,0.071445000,-0.007015040,0.017679440,-0.010127600,0.999767800,-0.014394000,0.035216000,-0.020513000,-0.000165148,-0.000264602,0.000109768,0.086334648,-0.131835135,0.039457218,0.001219375,-0.004919208,0.996481146,-0.000140741,-0.003517534,-0.001715510,0.000000000,0.000000000,0.000000000,0.000000000,0.016302984,0.010125344,0.071449703,0.032649688,0.007333241,-0.001291814,0.009029982,0.002961980,-0.002890009,-0.461190350,-0.492372819,-0.794740508,-0.003994698,0.004324529,-0.006917945,0.999957778,0.000000000,0.000000000,0.000000000,0.000000000,0.000000000,0.000000000,0.114281349,0.000000000,4.127859116
1772724092.358668804,0.015832000,0.010012000,0.071457000,-0.006802140,0.017364290,-0.010079900,0.999775280,-0.013960000,0.034591000,-0.020405000,-0.000852428,-0.000955942,0.001846617,0.006326194,-0.015668410,0.006069849,0.001111475,-0.005562567,0.998088599,-0.001648366,0.002187551,-0.000252592,0.000000000,0.000000000,0.000000000,0.000000000,0.016284191,0.010118941,0.071454494,0.032571954,0.007354835,-0.001477550,0.008852100,0.001847304,-0.001699921,-0.460165690,-0.490277382,-0.794175412,-0.003985904,0.004306162,-0.006913126,0.999957918,0.000000000,0.000000000,0.000000000,0.000000000,0.000000000,0.000000000,0.114281349,0.000000000,4.127859116
1772724092.368668318,0.015821000,0.010012000,0.071463000,-0.006734320,0.017289340,-0.010000340,0.999777840,-0.013820000,0.034443000,-0.020242000,-0.000346903,-0.000612671,0.001022976,-0.018570489,0.020345958,-0.004813436,0.000776707,-0.006161362,0.999587396,0.000024386,0.001737394,0.000422284,0.000000000,0.000000000,0.000000000,0.000000000,0.016463467,0.010164372,0.071442808,0.033054737,0.007466999,-0.001578439,0.009330915,0.001944510,-0.000526862,-0.461419748,-0.491940780,-0.792556497,-0.003996808,0.004320696,-0.006898892,0.999957873,0.000000000,0.000000000,0.000000000,0.000000000,0.000000000,0.000000000,0.114281349,0.000000000,4.127859116
1772724092.378668308,0.015827000,0.010016000,0.071465000,-0.006611300,0.017196790,-0.009958650,0.999780670,-0.013571000,0.034261000,-0.020153000,-0.000265689,-0.000376371,0.000799651,-0.038706492,0.049275481,-0.014666243,0.000928720,-0.006830171,0.999825562,-0.001496883,-0.001532410,-0.001936403,0.000000000,0.000000000,0.000000000,0.000000000,0.016445481,0.010163504,0.071457662,0.032973976,0.007410800,-0.001481712,0.008958324,0.000981501,0.000184061,-0.461042185,-0.491631209,-0.791335857,-0.003993577,0.004317930,-0.006888267,0.999957972,0.000000000,0.000000000,0.000000000,0.000000000,0.000000000,0.000000000,0.114281349,0.000000000,4.127859116
1772724092.388668299,0.015773000,0.009982000,0.071565000,-0.008038130,0.019102410,-0.010568360,0.999729360,-0.016488000,0.038034000,-0.021455000,-0.000800409,-0.000144733,0.001097353,-0.065846241,0.086374250,-0.026064372,0.000944189,-0.006756184,0.999532250,-0.001931237,0.000948285,-0.000024356,0.000000000,0.000000000,0.000000000,0.000000000,0.016413792,0.010143308,0.071506066,0.032870505,0.007259090,-0.001236370,0.009609110,0.000857728,-0.000271144,-0.460972651,-0.491613311,-0.792419262,-0.003992931,0.004317807,-0.006897724,0.999957930,0.000000000,0.000000000,0.000000000,0.000000000,0.000000000,0.000000000,0.114281349,0.000000000,4.127859116
1772724092.398668289,0.015812000,0.010006000,0.071484000,-0.007712780,0.018586340,-0.010396490,0.999743450,-0.015820000,0.037011000,-0.021090000,-0.001621583,-0.000604221,0.002258709,-0.112419919,0.150538099,-0.045882195,0.000593958,-0.005968745,1.000383099,-0.001761556,0.003390991,0.005188280,0.000000000,0.000000000,0.000000000,0.000000000,0.016394469,0.010122933,0.071542333,0.032869839,0.007164381,-0.001062056,0.009755530,0.001780122,-0.000392436,-0.461807013,-0.492388826,-0.790397813,-0.004000241,0.004324554,-0.006880025,0.999958038,0.000000000,0.000000000,0.000000000,0.000000000,0.000000000,0.000000000,0.114281349,0.000000000,4.127859116
1772724092.408668756,0.015823000,0.010025000,0.071452000,-0.007498840,0.018115390,-0.010308920,0.999754630,-0.015378000,0.036075000,-0.020900000,-0.000890869,-0.000744971,0.001582967,-0.116275824,0.155762292,-0.050360507,-0.000333691,-0.005958230,0.999616090,0.000568970,0.000952109,0.002241214,0.000000000,0.000000000,0.000000000,0.000000000,0.016395618,0.010115616,0.071555053,0.032904944,0.007190156,-0.000975512,0.008521101,0.002253027,0.000425207,-0.462389582,-0.493238192,-0.788499669,-0.004005345,0.004331934,-0.006863409,0.999958057,0.000000000,0.000000000,0.000000000,0.000000000,0.000000000,0.000000000,0.114281349,0.000000000,4.127859116
1772724092.418668747,0.015758000,0.009986000,0.071558000,-0.008728140,0.020004230,-0.010797890,0.999703480,-0.017898000,0.039819000,-0.021958000,-0.000502028,-0.000534992,0.001042012,-0.099743208,0.133711309,-0.041775329,0.000168117,-0.006011552,1.000470260,0.002505450,0.000527224,-0.000652384,0.000000000,0.000000000,0.000000000,0.000000000,0.016408004,0.010122610,0.071540577,0.032918253,0.007262498,-0.000985471,0.008746561,0.001964294,0.000461865,-0.461493260,-0.494281323,-0.787786513,-0.003997488,0.004340958,-0.006857183,0.999958108,0.000000000,0.000000000,0.000000000,0.000000000,0.000000000,0.000000000,0.114281349,0.000000000,4.127859116
1772724092.428669453,0.015748000,0.009972000,0.071600000,-0.009719640,0.021465650,-0.011224090,0.999659330,-0.019934000,0.042711000,-0.022881000,-0.000178900,-0.000151201,0.000712241,-0.073296306,0.099876624,-0.029314472,0.001027427,-0.006848782,0.999409289,0.000906857,0.000218940,-0.001268701,0.000000000,0.000000000,0.000000000,0.000000000,0.016431703,0.010138048,0.071502334,0.033020187,0.007305086,-0.001080530,0.009747383,0.000379090,0.000149574,-0.460759671,-0.493150970,-0.787504405,-0.003991165,0.004331041,-0.006854788,0.999958150,0.000000000,0.000000000,0.000000000,0.000000000,0.000000000,0.000000000,0.114281349,0.000000000,4.127859116
1772724092.438670397,0.015755000,0.009956000,0.071596000,-0.010335780,0.022177220,-0.011538370,0.999634040,-0.021198000,0.044114000,-0.023552000,-0.000492413,-0.000078398,0.001021169,-0.068170074,0.092512652,-0.026872265,0.000464839,-0.006989752,0.999419315,0.003284764,0.000756052,-0.003575651,0.000000000,0.000000000,0.000000000,0.000000000,0.016452743,0.010151965,0.071468882,0.033134134,0.007190033,-0.001255405,0.009232379,0.000301005,-0.001330999,-0.460417714,-0.494824467,-0.787099700,-0.003988096,0.004345610,-0.006851211,0.999958121,0.000000000,0.000000000,0.000000000,0.000000000,0.000000000,0.000000000,0.114281349,0.000000000,4.127859116
1772724092.448669910,0.015821000,0.010009000,0.071481000,-0.009206970,0.020552600,-0.011022210,0.999685620,-0.018878000,0.040901000,-0.022437000,-0.000276043,-0.000035392,0.000499309,-0.047870504,0.065516777,-0.015772978,-0.000265738,-0.006790804,1.000058842,0.000801352,0.000313185,-0.001281289,0.000000000,0.000000000,0.000000000,0.000000000,0.016456246,0.010162874,0.071445342,0.033073771,0.007105689,-0.001352499,0.008585490,0.000972314,0.000229588,-0.458916350,-0.494026146,-0.787035989,-0.003975045,0.004338551,-0.006850741,0.999958235,0.000000000,0.000000000,0.000000000,0.000000000,0.000000000,0.000000000,0.114281349,0.000000000,4.127859116
1772724092.458670616,0.015762000,0.009994000,0.071567000,-0.009736740,0.021324330,-0.011139080,0.999663140,-0.019961000,0.042430000,-0.022708000,0.000004778,0.000156329,-0.000263203,-0.017521689,0.026220930,-0.001960544,-0.000178441,-0.007261999,0.998862866,-0.001594343,0.001697087,0.002935380,0.000000000,0.000000000,0.000000000,0.000000000,0.016457425,0.010164014,0.071434722,0.032971791,0.007006103,-0.001361643,0.008649788,0.000281878,-0.000533708,-0.459112712,-0.493768732,-0.785834573,-0.003976820,0.004336275,-0.006840259,0.999958343,0.000000000,0.000000000,0.000000000,0.000000000,0.000000000,0.000000000,0.114281349,0.000000000,4.127859116
1772724092.468671083,0.015759000,0.009994000,0.071569000,-0.009955640,0.021701900,-0.011267240,0.999651420,-0.020414000,0.043178000,-0.022982000,-0.000122025,0.000055515,-0.000126648,0.004661415,0.008461829,0.004095798,0.001686893,-0.006313882,0.998987226,-0.002017223,0.003739790,0.002663720,0.000000000,0.000000000,0.000000000,0.000000000,0.016461465,0.010154337,0.071433500,0.032930408,0.006826394,-0.001416124,0.010255751,0.001616283,-0.001163461,-0.460138288,-0.494096373,-0.783405639,-0.003985841,0.004339111,-0.006819012,0.999958401,0.000000000,0.000000000,0.000000000,0.000000000,0.000000000,0.000000000,0.114281349,0.000000000,4.127859116
1772724092.478671312,0.015749000,0.009976000,0.071580000,-0.010285000,0.022216890,-0.011424110,0.999634990,-0.021092000,0.044197000,-0.023322000,0.000833819,0.000347583,-0.001322658,0.058980990,-0.062242810,0.018939102,0.002421104,-0.005734545,0.999082469,-0.002587305,0.004916747,0.001645206,0.000000000,0.000000000,0.000000000,0.000000000,0.016452894,0.010144651,0.071452505,0.033095047,0.006875566,-0.001403937,0.010993692,0.004173206,-0.000317327,-0.460712051,-0.495388557,-0.780789553,-0.003990870,0.004350330,-0.006796115,0.999958474,0.000000000,0.000000000,0.000000000,0.000000000,0.000000000,0.000000000,0.114281349,0.000000000,4.127859116
1772724092.488671541,0.015761000,0.009961000,0.071589000,-0.010294050,0.022353750,-0.011390210,0.999632240,-0.021112000,0.044471000,-0.023257000,0.001093021,0.000035722,-0.001343035,0.085436165,-0.106408359,0.026823913,0.001895884,-0.005983652,0.998438972,-0.003502106,0.005677260,0.001582528,0.000000000,0.000000000,0.000000000,0.000000000,0.016449482,0.010141394,0.071467107,0.033183407,0.007005418,-0.001324980,0.010699945,0.003076651,-0.001374968,-0.459943447,-0.495413231,-0.777641094,-0.003984281,0.004350391,-0.006768670,0.999958711,0.000000000,0.000000000,0.000000000,0.000000000,0.000000000,0.000000000,0.114281349,0.000000000,4.127859116
1772724092.498671532,0.015808000,0.010006000,0.071491000,-0.008945640,0.020565860,-0.010924800,0.999688790,-0.018351000,0.040935000,-0.022231000,0.001503812,0.000381984,-0.002186469,0.118840871,-0.159137539,0.040413323,0.002112410,-0.006499630,0.998057719,-0.000359213,-0.001520719,0.004632713,0.000000000,0.000000000,0.000000000,0.000000000,0.016417935,0.010125986,0.071518689,0.033108423,0.006821028,-0.001099292,0.010355818,0.002119620,-0.001700994,-0.459107457,-0.495372355,-0.774465989,-0.003977108,0.004349874,-0.006740996,0.999958948,0.000000000,0.000000000,0.000000000,0.000000000,0.000000000,0.000000000,0.114281349,0.000000000,4.127859116
1772724092.508671522,0.015823000,0.010017000,0.071472000,-0.007902780,0.019177100,-0.010620100,0.999728460,-0.016221000,0.038185000,-0.021555000,0.000695536,0.000494142,-0.001439847,0.108880645,-0.142667571,0.041924606,0.000068773,-0.005480392,1.001039740,-0.003223445,0.005193657,0.001371064,0.000000000,0.000000000,0.000000000,0.000000000,0.016402112,0.010105960,0.071556762,0.033131594,0.006828324,-0.000929408,0.009547724,0.002006281,0.000157564,-0.459073331,-0.496401175,-0.771140149,-0.003976877,0.004358734,-0.006711939,0.999959089,0.000000000,0.000000000,0.000000000,0.000000000,0.000000000,0.000000000,0.114281349,0.000000000,4.127859116
1772724092.518672228,0.015833000,0.010011000,0.071462000,-0.007261660,0.018079730,-0.010351530,0.999756590,-0.014904000,0.036008000,-0.020976000,0.000541538,0.000761987,-0.001553150,0.101836180,-0.130368987,0.044382665,0.001789422,-0.006395086,1.000791271,-0.001464422,0.001862493,-0.000238008,0.000000000,0.000000000,0.000000000,0.000000000,0.016429493,0.010121225,0.071515742,0.033299608,0.006903680,-0.000999726,0.010227533,0.001628979,0.001132033,-0.458962267,-0.497872256,-0.768641775,-0.003975917,0.004371479,-0.006690090,0.999959187,0.000000000,0.000000000,0.000000000,0.000000000,0.000000000,0.000000000,0.114281349,0.000000000,4.127859116
1772724092.528672218,0.015764000,0.009968000,0.071572000,-0.008435880,0.019762540,-0.010677130,0.999712100,-0.017303000,0.039344000,-0.021700000,-0.000413413,-0.000001593,0.000234183,0.043516646,-0.051512320,0.024190775,-0.000502440,-0.004978465,0.998113847,-0.001749792,0.001964664,0.002914040,0.000000000,0.000000000,0.000000000,0.000000000,0.016315596,0.010104676,0.071542067,0.032489019,0.006922048,-0.000710949,0.008842047,0.002339630,-0.001025532,-0.457152367,-0.494857335,-0.769084204,-0.003960283,0.004345079,-0.006694125,0.999959329,0.000000000,0.000000000,0.000000000,0.000000000,0.000000000,0.000000000,0.114281349,0.000000000,4.127859116
1772724092.538672209,0.015803000,0.010008000,0.071479000,-0.007703200,0.018974180,-0.010457110,0.999735610,-0.015811000,0.037786000,-0.021218000,-0.000832634,-0.000485420,0.001464322,-0.009104987,0.023534528,0.003023394,0.001740039,-0.005108819,0.997565205,-0.001750067,0.000430521,0.000020134,0.000000000,0.000000000,0.000000000,0.000000000,0.016259224,0.010082386,0.071568176,0.031823829,0.007016123,-0.000798801,0.010660709,0.002322782,-0.002318285,-0.455578161,-0.490612111,-0.769779420,-0.003946769,0.004307966,-0.006700400,0.999959447,0.000000000,0.000000000,0.000000000,0.000000000,0.000000000,0.000000000,0.114281349,0.000000000,4.127859116
1772724092.548672438,0.015814000,0.010025000,0.071462000,-0.007206280,0.018469810,-0.010128110,0.999752150,-0.014794000,0.036793000,-0.020533000,-0.000192905,-0.000092849,0.000682890,-0.019642957,0.032774389,-0.004674666,0.001832600,-0.007113126,0.999367311,0.002275365,-0.002295451,-0.001029091,0.000000000,0.000000000,0.000000000,0.000000000,0.016394197,0.010130562,0.071491085,0.032696201,0.006980263,-0.001108274,0.008808221,0.000521068,-0.000290718,-0.455516654,-0.490008182,-0.766878544,-0.003946377,0.004302592,-0.006675109,0.999959575,0.000000000,0.000000000,0.000000000,0.000000000,0.000000000,0.000000000,0.114281349,0.000000000,4.127859116
1772724092.558672667,0.015822000,0.010013000,0.071473000,-0.006965300,0.017916950,-0.010060200,0.999764600,-0.014297000,0.035693000,-0.020380000,0.000257473,0.000210718,-0.000257842,-0.007816683,0.004594522,-0.005537416,0.001700664,-0.006946275,1.000035193,0.002521842,-0.000835753,-0.000828881,0.000000000,0.000000000,0.000000000,0.000000000,0.016426615,0.010138791,0.071469633,0.032841936,0.006938419,-0.001156967,0.008610066,0.000508839,0.000379309,-0.455966599,-0.489399881,-0.764838860,-0.003950415,0.004297240,-0.006657315,0.999959724,0.000000000,0.000000000,0.000000000,0.000000000,0.000000000,0.000000000,0.114281349,0.000000000,4.127859116
1772724092.568672657,0.015765000,0.009968000,0.071584000,-0.008357940,0.019754700,-0.010694670,0.999712720,-0.017148000,0.039329000,-0.021732000,0.000866608,0.000381537,-0.001437108,0.019141137,-0.052581607,0.004896720,0.001568731,-0.006779428,1.000703059,0.002768313,0.000623909,-0.000628674,0.000000000,0.000000000,0.000000000,0.000000000,0.016384624,0.010128083,0.071465788,0.032730902,0.006871896,-0.001126501,0.010064965,0.001627511,0.000008527,-0.455712226,-0.488850094,-0.764424391,-0.003948243,0.004292413,-0.006653727,0.999959873,0.000000000,0.000000000,0.000000000,0.000000000,0.000000000,0.000000000,0.114281349,0.000000000,4.127859116
1772724092.578672647,0.015804000,0.010006000,0.071503000,-0.007870270,0.019110090,-0.010527090,0.999730990,-0.016151000,0.038053000,-0.021366000,-0.000006818,-0.000149317,-0.000082632,-0.004857881,-0.025492242,-0.005322585,0.001436797,-0.006612581,1.001370925,0.003014784,0.002083572,-0.000428468,0.000000000,0.000000000,0.000000000,0.000000000,0.016226168,0.010091019,0.071481907,0.032298445,0.006757364,-0.001005503,0.009744322,0.001478887,0.000394853,-0.455310334,-0.488261776,-0.763953524,-0.003944788,0.004287240,-0.006649654,0.999959968,0.000000000,0.000000000,0.000000000,0.000000000,0.000000000,0.000000000,0.114281349,0.000000000,4.127859116
1772724092.588672400,0.015828000,0.010017000,0.071458000,-0.007582320,0.018374170,-0.010361230,0.999748740,-0.015553000,0.036590000,-0.021012000,0.000025660,0.000194071,-0.000330723,0.000017067,-0.023507146,-0.004844503,0.001018250,-0.006663852,1.000858826,0.001572390,0.000754168,-0.000225718,0.000000000,0.000000000,0.000000000,0.000000000,0.016179170,0.010078476,0.071491015,0.032173358,0.006701273,-0.000919589,0.009376832,0.001309880,0.000623267,-0.453751732,-0.487371345,-0.763040439,-0.003931273,0.004279348,-0.006641775,0.999960058,0.000000000,0.000000000,0.000000000,0.000000000,0.000000000,0.000000000,0.114281349,0.000000000,4.127859116
1772724092.598671913,0.015815000,0.010018000,0.071447000,-0.007188230,0.017724360,-0.010230130,0.999764730,-0.014745000,0.035301000,-0.020725000,0.000156912,0.000292048,-0.000237679,0.008559040,-0.024944597,0.001496694,0.000441595,-0.006835450,0.999695795,-0.000801661,-0.002113829,-0.000021566,0.000000000,0.000000000,0.000000000,0.000000000,0.016355835,0.010115140,0.071486056,0.032665070,0.006762454,-0.000904077,0.008643527,0.000981707,-0.000381154,-0.453128813,-0.486809268,-0.762195294,-0.003925902,0.004274378,-0.006634443,0.999960192,0.000000000,0.000000000,0.000000000,0.000000000,0.000000000,0.000000000,0.114281349,0.000000000,4.127859116
1772724092.608671665,0.015828000,0.010015000,0.071460000,-0.007058520,0.017464860,-0.010151530,0.999771030,-0.014478000,0.034785000,-0.020559000,0.000262581,0.000098230,0.000155805,0.009775070,-0.015718064,-0.000120845,-0.000615527,-0.006773692,1.000350706,-0.001716009,0.002294410,-0.000947899,0.000000000,0.000000000,0.000000000,0.000000000,0.016446046,0.010141091,0.071469611,0.032800269,0.006751286,-0.000955762,0.008189287,0.000906690,-0.000219532,-0.453099716,-0.486886672,-0.760748337,-0.003925697,0.004275002,-0.006621815,0.999960330,0.000000000,0.000000000,0.000000000,0.000000000,0.000000000,0.000000000,0.114281349,0.000000000,4.127859116
1772724092.618671894,0.015774000,0.009989000,0.071565000,-0.008124010,0.019153020,-0.010710820,0.999726180,-0.016667000,0.038131000,-0.021744000,-0.000213845,-0.000205823,0.000901164,-0.011211687,0.024181739,-0.008281611,0.001234256,-0.007022751,1.000865591,0.000823873,0.001911762,0.004983996,0.000000000,0.000000000,0.000000000,0.000000000,0.016446938,0.010140776,0.071464619,0.032668133,0.006599666,-0.000874098,0.010014171,0.000337944,0.001232560,-0.453050259,-0.487233495,-0.757355211,-0.003925372,0.004277909,-0.006592195,0.999960468,0.000000000,0.000000000,0.000000000,0.000000000,0.000000000,0.000000000,0.114281349,0.000000000,4.127859116
1772724092.628671885,0.015812000,0.010014000,0.071499000,-0.007746310,0.018656610,-0.010491860,0.999740890,-0.015892000,0.037150000,-0.021284000,-0.000017909,0.000400496,-0.000314231,0.005498447,0.014492267,0.003385586,0.001432711,-0.006207333,1.000193572,-0.001314447,0.002239859,0.004288838,0.000000000,0.000000000,0.000000000,0.000000000,0.016422824,0.010118872,0.071516188,0.032637925,0.006425198,-0.000524822,0.010051761,0.000640081,0.000596905,-0.453519766,-0.487988732,-0.755862102,-0.003929482,0.004284476,-0.006579122,0.999960482,0.000000000,0.000000000,0.000000000,0.000000000,0.000000000,0.000000000,0.114281349,0.000000000,4.127859116
1772724092.638671875,0.015828000,0.010012000,0.071472000,-0.007408490,0.018162260,-0.010363380,0.999753890,-0.015200000,0.036170000,-0.021006000,0.000447154,0.000564944,-0.001333827,0.026022957,-0.019785957,0.017179334,0.001171086,-0.004404257,0.999168532,-0.001440365,0.002318801,0.002793775,0.000000000,0.000000000,0.000000000,0.000000000,0.016428447,0.010124158,0.071505610,0.032696132,0.006469035,-0.000593794,0.009642582,0.002430652,0.000032377,-0.453908967,-0.488184815,-0.755131876,-0.003932894,0.004286184,-0.006572729,0.999960522,0.000000000,0.000000000,0.000000000,0.000000000,0.000000000,0.000000000,0.114281349,0.000000000,4.127859116
1772724092.648671627,0.015826000,0.010025000,0.071457000,-0.007179170,0.018084050,-0.010297450,0.999757670,-0.014737000,0.036019000,-0.020865000,0.000765134,0.000732248,-0.002179418,0.063399261,-0.070151924,0.034103175,0.000609294,-0.005107901,1.000630142,0.000336838,-0.000644664,-0.004804479,0.000000000,0.000000000,0.000000000,0.000000000,0.016442763,0.010133011,0.071478146,0.032727198,0.006585728,-0.000690429,0.009405125,0.002883460,0.000601205,-0.454056245,-0.487700293,-0.754556121,-0.003934228,0.004281945,-0.006567716,0.999960542,0.000000000,0.000000000,0.000000000,0.000000000,0.000000000,0.000000000,0.114281349,0.000000000,4.127859116
1772724092.658671856,0.015812000,0.010029000,0.071452000,-0.007014110,0.017838930,-0.010058390,0.999765670,-0.014393000,0.035536000,-0.020377000,0.000533904,0.000156912,-0.001040749,0.057949183,-0.068727236,0.033234744,0.001708746,-0.006610161,1.001967141,-0.000531020,0.003078824,-0.001906335,0.000000000,0.000000000,0.000000000,0.000000000,0.016446181,0.010139436,0.071457053,0.032753360,0.006631329,-0.000634493,0.009675370,0.001920550,0.001102641,-0.454016463,-0.486848111,-0.754091836,-0.003933947,0.004274490,-0.006563695,0.999960605,0.000000000,0.000000000,0.000000000,0.000000000,0.000000000,0.000000000,0.114281349,0.000000000,4.127859116
1772724092.668671131,0.015812000,0.010029000,0.071458000,-0.006898780,0.017825710,-0.009972610,0.999767570,-0.014159000,0.035513000,-0.020201000,-0.000801400,-0.000858683,0.001792869,-0.008259402,0.021128261,0.004106876,0.001995331,-0.007189325,1.000030751,-0.000262558,0.001098586,-0.001865108,0.000000000,0.000000000,0.000000000,0.000000000,0.016451484,0.010141374,0.071451143,0.032802826,0.006589543,-0.000591388,0.010305938,0.000361325,0.000561197,-0.454087486,-0.485993805,-0.753529927,-0.003934637,0.004267020,-0.006558819,0.999960661,0.000000000,0.000000000,0.000000000,0.000000000,0.000000000,0.000000000,0.114281349,0.000000000,4.127859116
1772724092.678671122,0.015836000,0.010008000,0.071469000,-0.006878050,0.017595930,-0.010015510,0.999771360,-0.014115000,0.035053000,-0.020282000,-0.001521702,-0.001677759,0.003524123,-0.088626712,0.120894984,-0.032297012,0.002575085,-0.008558564,1.000927099,-0.001097365,-0.000071391,-0.003921157,0.000000000,0.000000000,0.000000000,0.000000000,0.016443186,0.010134521,0.071477085,0.032862999,0.006407368,-0.000424745,0.010644507,-0.000098177,0.000543352,-0.454542060,-0.486085786,-0.752767435,-0.003938627,0.004267823,-0.006552145,0.999960661,0.000000000,0.000000000,0.000000000,0.000000000,0.000000000,0.000000000,0.114281349,0.000000000,4.127859116
1772724092.688670635,0.015821000,0.010013000,0.071474000,-0.006816000,0.017829450,-0.009993560,0.999767860,-0.013994000,0.035522000,-0.020240000,-0.001227497,-0.001544992,0.002949563,-0.123455745,0.161469324,-0.050136292,0.002115360,-0.006630366,1.000398731,-0.001155809,-0.002252171,-0.002148221,0.000000000,0.000000000,0.000000000,0.000000000,0.016327181,0.010107335,0.071499355,0.032638987,0.006180022,-0.000265649,0.010402117,0.000786579,0.001053304,-0.453893780,-0.486372548,-0.753003506,-0.003932945,0.004270296,-0.006554220,0.999960663,0.000000000,0.000000000,0.000000000,0.000000000,0.000000000,0.000000000,0.114281349,0.000000000,4.127859116
1772724092.698670626,0.015771000,0.009966000,0.071576000,-0.008360280,0.019660910,-0.010540980,0.999716180,-0.017144000,0.039144000,-0.021423000,-0.001249466,-0.000986458,0.002717110,-0.149450528,0.189355300,-0.063496088,0.001160528,-0.006415175,1.000427756,-0.000344302,-0.002026758,0.002755415,0.000000000,0.000000000,0.000000000,0.000000000,0.016235092,0.010090485,0.071484514,0.032439780,0.006112466,-0.000285459,0.009622049,0.001025129,-0.000045580,-0.454545914,-0.485514740,-0.752759556,-0.003938694,0.004262839,-0.006552096,0.999960736,0.000000000,0.000000000,0.000000000,0.000000000,0.000000000,0.000000000,0.114281349,0.000000000,4.127859116
1772724092.708671093,0.015749000,0.009961000,0.071601000,-0.009436770,0.021216710,-0.011001170,0.999669830,-0.019353000,0.042224000,-0.022417000,-0.000793436,-0.000113886,0.001406961,-0.130923412,0.167388704,-0.054796840,0.000390692,-0.008211691,1.001607134,0.001264352,-0.003041205,0.002621713,0.000000000,0.000000000,0.000000000,0.000000000,0.016455577,0.010133232,0.071478397,0.033055945,0.006124960,-0.000233021,0.009350573,-0.000394015,0.002072363,-0.454484578,-0.484528165,-0.750963508,-0.003938283,0.004254165,-0.006536460,0.999960902,0.000000000,0.000000000,0.000000000,0.000000000,0.000000000,0.000000000,0.114281349,0.000000000,4.127859116
1772724092.718671083,0.015764000,0.009962000,0.071587000,-0.010041200,0.021830980,-0.011325490,0.999647100,-0.020591000,0.043433000,-0.023105000,0.000425418,0.001061359,-0.001203644,-0.046818198,0.060766852,-0.017641626,0.000502620,-0.009056014,1.001992991,0.001957934,-0.003715111,0.000289902,0.000000000,0.000000000,0.000000000,0.000000000,0.016459203,0.010137596,0.071466347,0.033015619,0.005932720,-0.000105370,0.009430426,-0.001417834,0.002430798,-0.453728648,-0.482576444,-0.750818918,-0.003931803,0.004237086,-0.006535294,0.999960951,0.000000000,0.000000000,0.000000000,0.000000000,0.000000000,0.000000000,0.114281349,0.000000000,4.127859116
1772724092.728671551,0.015814000,0.010018000,0.071486000,-0.008957990,0.020438560,-0.010804740,0.999692590,-0.018368000,0.040682000,-0.021989000,0.001327203,0.001315996,-0.002526185,0.040243622,-0.054607811,0.016947872,0.002082241,-0.006911018,1.000282512,0.000600142,0.001579736,0.000888979,0.000000000,0.000000000,0.000000000,0.000000000,0.016454432,0.010139942,0.071457880,0.033041484,0.005741939,-0.000037517,0.010229550,0.001558797,0.000363841,-0.453470428,-0.482307978,-0.749966411,-0.003929596,0.004234699,-0.006527874,0.999961015,0.000000000,0.000000000,0.000000000,0.000000000,0.000000000,0.000000000,0.114281349,0.000000000,4.127859116
1772724092.738671541,0.015772000,0.009996000,0.071579000,-0.009709340,0.021344930,-0.011144560,0.999662900,-0.019907000,0.042472000,-0.022719000,0.000634853,0.000535943,-0.001331030,0.069824473,-0.081413029,0.027113171,0.001970323,-0.005472670,0.999777247,0.000264196,0.002414244,-0.001801734,0.000000000,0.000000000,0.000000000,0.000000000,0.016455514,0.010137856,0.071458526,0.033132137,0.005769515,-0.000029706,0.010299237,0.001226558,-0.000717580,-0.453411439,-0.483263088,-0.750053346,-0.003929023,0.004243033,-0.006528601,0.999960961,0.000000000,0.000000000,0.000000000,0.000000000,0.000000000,0.000000000,0.114281349,0.000000000,4.127859116
1772724092.748671532,0.015813000,0.010014000,0.071488000,-0.008606150,0.020264130,-0.010697830,0.999700380,-0.017656000,0.040343000,-0.021757000,0.000192342,-0.000251276,-0.000185349,0.058856578,-0.072024843,0.019537680,0.000670211,-0.006730490,1.000451672,0.000696653,0.001769387,0.000991192,0.000000000,0.000000000,0.000000000,0.000000000,0.016464735,0.010128542,0.071464984,0.033176234,0.005742526,-0.000055950,0.009063199,0.001441241,-0.000351135,-0.453338340,-0.483151142,-0.748997676,-0.003928431,0.004242016,-0.006519396,0.999961024,0.000000000,0.000000000,0.000000000,0.000000000,0.000000000,0.000000000,0.114281349,0.000000000,4.127859116
1772724092.758672237,0.015817000,0.010017000,0.071466000,-0.007786170,0.018954980,-0.010307670,0.999736880,-0.015971000,0.037748000,-0.020922000,-0.000482448,-0.001399754,0.001694386,0.007589221,-0.000432472,-0.002042792,-0.000201971,-0.007658098,0.999960513,-0.000401327,0.003629935,0.003411077,0.000000000,0.000000000,0.000000000,0.000000000,0.016454575,0.010117911,0.071487017,0.033056960,0.005625004,0.000045216,0.008182121,-0.000004701,0.000530887,-0.452132403,-0.482921361,-0.749056672,-0.003917919,0.004239944,-0.006519963,0.999961078,0.000000000,0.000000000,0.000000000,0.000000000,0.000000000,0.000000000,0.114281349,0.000000000,4.127859116
1772724092.768672228,0.015772000,0.009964000,0.071578000,-0.008762910,0.020288000,-0.010847970,0.999696920,-0.017976000,0.040385000,-0.022065000,-0.000462538,-0.001451598,0.001769773,-0.030010773,0.045777156,-0.018895975,0.001175802,-0.006645981,0.999936944,0.000271969,0.001395536,0.000838239,0.000000000,0.000000000,0.000000000,0.000000000,0.016430045,0.010095855,0.071535348,0.032921311,0.005478546,0.000235781,0.010043372,0.000662213,-0.000514196,-0.452031626,-0.483488564,-0.749619098,-0.003916986,0.004244907,-0.006524856,0.999961079,0.000000000,0.000000000,0.000000000,0.000000000,0.000000000,0.000000000,0.114281349,0.000000000,4.127859116
1772724092.778672695,0.015757000,0.009947000,0.071612000,-0.009478850,0.021385050,-0.011177100,0.999663900,-0.019448000,0.042557000,-0.022775000,-0.000019561,-0.000354227,0.000112624,-0.019854235,0.026527140,-0.009811948,0.002951520,-0.005648203,0.999334645,-0.000320719,-0.000017097,0.000518827,0.000000000,0.000000000,0.000000000,0.000000000,0.016409981,0.010081695,0.071570728,0.033032909,0.005483092,0.000349485,0.011445916,0.002575327,-0.000058148,-0.451229557,-0.483170073,-0.748700021,-0.003910040,0.004242051,-0.006516876,0.999961136,0.000000000,0.000000000,0.000000000,0.000000000,0.000000000,0.000000000,0.114281349,0.000000000,4.127859116
1772724092.788673639,0.015827000,0.009996000,0.071496000,-0.008550170,0.019905590,-0.010798970,0.999706980,-0.017540000,0.039625000,-0.021951000,-0.000094345,0.000545714,-0.000698954,-0.006556642,0.005059469,0.001534694,0.003133067,-0.006304244,0.999073100,-0.001096539,0.001387285,0.002928910,0.000000000,0.000000000,0.000000000,0.000000000,0.016412569,0.010080657,0.071573732,0.033293599,0.005595216,0.000247014,0.011734676,0.000478307,-0.001224427,-0.451387927,-0.483665699,-0.746943371,-0.003911458,0.004246325,-0.006501524,0.999961224,0.000000000,0.000000000,0.000000000,0.000000000,0.000000000,0.000000000,0.114281349,0.000000000,4.127859116
1772724092.798673868,0.015776000,0.009947000,0.071592000,-0.009285890,0.021192250,-0.010953110,0.999672290,-0.019048000,0.042180000,-0.022314000,0.000692039,0.001439050,-0.002885657,0.054984112,-0.079293972,0.033289537,0.002020217,-0.007226636,1.000055728,0.001996991,0.001668317,0.002929257,0.000000000,0.000000000,0.000000000,0.000000000,0.016434806,0.010103423,0.071536328,0.033567058,0.005610145,0.000047302,0.009984780,0.000578218,0.000395968,-0.450786014,-0.483211548,-0.746186633,-0.003906260,0.004242302,-0.006494958,0.999961313,0.000000000,0.000000000,0.000000000,0.000000000,0.000000000,0.000000000,0.114281349,0.000000000,4.127859116
1772724092.808674812,0.015801000,0.010016000,0.071477000,-0.008388860,0.019781580,-0.010641400,0.999712500,-0.017208000,0.039383000,-0.021627000,0.000879584,0.001621544,-0.003447240,0.106092288,-0.157574684,0.054600605,0.000591323,-0.007744176,1.000097816,0.001836006,0.000762732,0.000965271,0.000000000,0.000000000,0.000000000,0.000000000,0.016428918,0.010104366,0.071557359,0.033594314,0.005580005,0.000133482,0.009211353,0.000231975,0.000180997,-0.449370359,-0.482896931,-0.745617166,-0.003893945,0.004239457,-0.006490053,0.999961414,0.000000000,0.000000000,0.000000000,0.000000000,0.000000000,0.000000000,0.114281349,0.000000000,4.127859116
1772724092.818675280,0.015802000,0.010023000,0.071455000,-0.007744290,0.018772580,-0.010250320,0.999741240,-0.015881000,0.037385000,-0.020802000,0.001046849,0.001183539,-0.002442349,0.123675026,-0.180581422,0.053975917,0.000464676,-0.008258562,1.000366426,0.000243700,-0.001487504,-0.000961529,0.000000000,0.000000000,0.000000000,0.000000000,0.016447578,0.010113406,0.071520532,0.033606446,0.005431676,0.000023520,0.008203059,-0.001596810,0.000195451,-0.448618330,-0.483495707,-0.744605712,-0.003887386,0.004244605,-0.006481234,0.999961436,0.000000000,0.000000000,0.000000000,0.000000000,0.000000000,0.000000000,0.114281349,0.000000000,4.127859116
1772724092.828675032,0.015811000,0.010023000,0.071456000,-0.007255940,0.018149230,-0.010035320,0.999758600,-0.014883000,0.036152000,-0.020344000,0.000335618,0.000011713,0.000248304,0.079524375,-0.116094010,0.027583506,0.001349517,-0.007149603,0.999714595,-0.000058287,-0.002883528,-0.002119383,0.000000000,0.000000000,0.000000000,0.000000000,0.016452690,0.010110638,0.071503151,0.033590584,0.005251100,-0.000071878,0.009962246,0.001326226,0.000190182,-0.447321807,-0.482369532,-0.744343559,-0.003876146,0.004234695,-0.006479033,0.999961556,0.000000000,0.000000000,0.000000000,0.000000000,0.000000000,0.000000000,0.114281349,0.000000000,4.127859116
1772724092.838675261,0.015827000,0.010009000,0.071459000,-0.006939220,0.017468350,-0.009965370,0.999773670,-0.014233000,0.034798000,-0.020182000,0.000625296,-0.000221518,0.000678054,0.051661016,-0.075892703,0.013597321,0.001816791,-0.008206093,0.999603209,0.000161950,-0.000530268,-0.005770608,0.000000000,0.000000000,0.000000000,0.000000000,0.016432233,0.010080843,0.071554672,0.033610700,0.005080968,0.000120224,0.009861633,-0.000636819,-0.000066201,-0.446370118,-0.480577470,-0.744474785,-0.003867938,0.004219008,-0.006480274,0.999961606,0.000000000,0.000000000,0.000000000,0.000000000,0.000000000,0.000000000,0.114281349,0.000000000,4.127859116
1772724092.848674774,0.015823000,0.010011000,0.071478000,-0.006738690,0.017338700,-0.010030640,0.999776650,-0.013831000,0.034541000,-0.020304000,-0.000794931,-0.001255216,0.003063527,-0.034886705,0.054058138,-0.020774401,0.003121377,-0.005931743,0.999493209,-0.000941812,0.000295205,-0.000318232,0.000000000,0.000000000,0.000000000,0.000000000,0.016448903,0.010079070,0.071541251,0.033872801,0.004954653,-0.000006252,0.009396597,-0.000102456,-0.000591796,-0.445522218,-0.480341431,-0.746493588,-0.003860478,0.004216968,-0.006497930,0.999961582,0.000000000,0.000000000,0.000000000,0.000000000,0.000000000,0.000000000,0.114281349,0.000000000,4.127859116
1772724092.858675241,0.015839000,0.010015000,0.071486000,-0.006656950,0.017360840,-0.010000990,0.999777110,-0.013667000,0.034588000,-0.020242000,-0.001283013,-0.000696798,0.002303327,-0.081742561,0.119390024,-0.037237886,0.000218236,-0.005809591,1.000715719,-0.000143691,-0.002231902,-0.002202332,0.000000000,0.000000000,0.000000000,0.000000000,0.016452232,0.010100728,0.071499673,0.033773413,0.005301654,-0.000294031,0.007109268,0.001529058,-0.000131732,-0.443960181,-0.478683733,-0.746742889,-0.003846933,0.004202422,-0.006500220,0.999961687,0.000000000,0.000000000,0.000000000,0.000000000,0.000000000,0.000000000,0.114281349,0.000000000,4.127859116
1772724092.868675470,0.015761000,0.009965000,0.071598000,-0.008269570,0.019501000,-0.010629520,0.999719130,-0.016963000,0.038825000,-0.021594000,-0.001099450,-0.000167012,0.000923036,-0.090705722,0.131498332,-0.039415847,0.000811671,-0.006394928,1.000880164,-0.000069499,-0.000948642,-0.001406824,0.000000000,0.000000000,0.000000000,0.000000000,0.016462927,0.010118477,0.071461481,0.033619687,0.005509316,-0.000277686,0.009336912,0.001459673,0.000798906,-0.444435502,-0.474974442,-0.745810839,-0.003851326,0.004170050,-0.006492195,0.999961793,0.000000000,0.000000000,0.000000000,0.000000000,0.000000000,0.000000000,0.114281349,0.000000000,4.127859116
1772724092.878675938,0.015808000,0.010013000,0.071487000,-0.007745390,0.018821300,-0.010331930,0.999739480,-0.015887000,0.037482000,-0.020966000,-0.000369689,0.000416968,-0.000563235,-0.061049463,0.088580066,-0.027078713,-0.000078650,-0.005065566,0.998254822,-0.000434139,-0.001378566,0.001675815,0.000000000,0.000000000,0.000000000,0.000000000,0.016469161,0.010117779,0.071463819,0.033547249,0.005526344,-0.000290665,0.007917257,0.001745568,-0.001175840,-0.444926049,-0.473841587,-0.745724582,-0.003855674,0.004160189,-0.006491463,0.999961855,0.000000000,0.000000000,0.000000000,0.000000000,0.000000000,0.000000000,0.114281349,0.000000000,4.127859116
1772724092.888675928,0.015754000,0.009983000,0.071565000,-0.008882480,0.020463850,-0.010880510,0.999691930,-0.018221000,0.040733000,-0.022138000,0.000508089,0.000684192,-0.001619874,-0.011551574,0.011311734,-0.009099841,-0.000899802,-0.004513614,0.998819518,-0.001780677,0.002427586,0.001458267,0.000000000,0.000000000,0.000000000,0.000000000,0.016477249,0.010120774,0.071472301,0.033343393,0.005656013,-0.000420713,0.008082080,0.003030086,-0.000933149,-0.444767907,-0.473521799,-0.744351555,-0.003854362,0.004157343,-0.006479498,0.999961951,0.000000000,0.000000000,0.000000000,0.000000000,0.000000000,0.000000000,0.114281349,0.000000000,4.127859116
1772724092.898675680,0.015805000,0.010021000,0.071474000,-0.008215650,0.019452670,-0.010602300,0.999720810,-0.016853000,0.038730000,-0.021536000,0.001088320,0.000853127,-0.001952131,0.042626776,-0.063338316,0.009976657,-0.000041433,-0.004698427,1.000773618,-0.001201918,0.002859874,0.001635789,0.000000000,0.000000000,0.000000000,0.000000000,0.016439525,0.010099252,0.071533607,0.033087263,0.005803967,-0.000146703,0.008257645,0.002876425,0.001250218,-0.444796287,-0.473983029,-0.743243735,-0.003854624,0.004161332,-0.006469815,0.999961972,0.000000000,0.000000000,0.000000000,0.000000000,0.000000000,0.000000000,0.114281349,0.000000000,4.127859116
1772724092.908675671,0.015830000,0.010024000,0.071459000,-0.007632370,0.018664510,-0.010550080,0.999741010,-0.015666000,0.037167000,-0.021396000,0.001373434,0.000851515,-0.001700952,0.076481523,-0.107618519,0.027284101,0.001637842,-0.006830355,1.000174848,-0.002557996,0.001331471,0.000019957,0.000000000,0.000000000,0.000000000,0.000000000,0.016440985,0.010112243,0.071511705,0.033090555,0.005888333,-0.000163647,0.010423109,0.000478969,0.000350355,-0.444959812,-0.475241801,-0.741895353,-0.003856029,0.004172280,-0.006457999,0.999962024,0.000000000,0.000000000,0.000000000,0.000000000,0.000000000,0.000000000,0.114281349,0.000000000,4.127859116
1772724092.918675661,0.015824000,0.010025000,0.071473000,-0.007318380,0.018142520,-0.010313040,0.999755440,-0.015018000,0.036133000,-0.020902000,0.000666923,0.000043822,-0.000307841,0.062613676,-0.091906879,0.028266572,0.001772569,-0.007505142,0.999756642,-0.003043094,0.000740946,0.001075952,0.000000000,0.000000000,0.000000000,0.000000000,0.016419974,0.010106004,0.071533759,0.033173523,0.005754169,-0.000090761,0.009850222,0.000753177,-0.000518597,-0.445420884,-0.475112471,-0.740631223,-0.003860106,0.004171135,-0.006446955,0.999962081,0.000000000,0.000000000,0.000000000,0.000000000,0.000000000,0.000000000,0.114281349,0.000000000,4.127859116
1772724092.928675413,0.015820000,0.010018000,0.071480000,-0.007228430,0.017983760,-0.010269890,0.999759400,-0.014833000,0.035818000,-0.020810000,0.000381790,0.000155066,-0.000559836,0.061124491,-0.089495230,0.034420273,0.000951183,-0.006903539,0.999937836,0.002215804,-0.002463425,-0.001147333,0.000000000,0.000000000,0.000000000,0.000000000,0.016439275,0.010121635,0.071495654,0.033275074,0.005744214,-0.000274897,0.008999028,0.000871886,0.000336484,-0.446042179,-0.474387301,-0.739357824,-0.003865614,0.004164799,-0.006435845,0.999962149,0.000000000,0.000000000,0.000000000,0.000000000,0.000000000,0.000000000,0.114281349,0.000000000,4.127859116
1772724092.938674688,0.015823000,0.010023000,0.071470000,-0.006991400,0.017732870,-0.010117820,0.999767120,-0.014348000,0.035323000,-0.020493000,-0.000422213,-0.000276975,0.000397233,0.025572413,-0.036887532,0.018379272,0.001594209,-0.008702391,1.001239017,0.000253379,-0.001979831,-0.000878761,0.000000000,0.000000000,0.000000000,0.000000000,0.016457623,0.010128942,0.071474481,0.033338752,0.005628237,-0.000307464,0.009664520,-0.000626445,0.000959468,-0.445234382,-0.472800022,-0.738560653,-0.003858684,0.004150876,-0.006428973,0.999962276,0.000000000,0.000000000,0.000000000,0.000000000,0.000000000,0.000000000,0.114281349,0.000000000,4.127859116
1772724092.948675156,0.015827000,0.010027000,0.071460000,-0.006886270,0.017564130,-0.009979010,0.999772220,-0.014129000,0.034990000,-0.020209000,-0.000157145,-0.000073347,-0.000079427,0.016964906,-0.022321877,0.012239757,0.000928714,-0.008453874,1.002308075,-0.001266850,0.000126511,0.002377405,0.000000000,0.000000000,0.000000000,0.000000000,0.016462896,0.010128927,0.071472998,0.033372137,0.005374001,-0.000116620,0.009842183,-0.001313160,0.002400184,-0.445263547,-0.470930152,-0.737611098,-0.003859078,0.004134528,-0.006420750,0.999962350,0.000000000,0.000000000,0.000000000,0.000000000,0.000000000,0.000000000,0.114281349,0.000000000,4.127859116
1772724092.958675146,0.015824000,0.010010000,0.071469000,-0.006812470,0.017364410,-0.009962990,0.999776380,-0.013977000,0.034592000,-0.020172000,0.000357490,0.000115673,-0.000746467,0.029194806,-0.033619239,0.010729055,0.000652219,-0.008071176,1.000361260,-0.001501885,-0.000603449,0.002357020,0.000000000,0.000000000,0.000000000,0.000000000,0.016465782,0.010125183,0.071473388,0.033380348,0.005082071,0.000159175,0.009971767,0.000088198,0.001025688,-0.445307279,-0.469000176,-0.736698982,-0.003859601,0.004117659,-0.006412854,0.999962535,0.000000000,0.000000000,0.000000000,0.000000000,0.000000000,0.000000000,0.114281349,0.000000000,4.127859116
1772724092.968675137,0.015812000,0.010030000,0.071461000,-0.006697830,0.017297250,-0.009965430,0.999778290,-0.013746000,0.034460000,-0.020171000,-0.000433634,-0.000028574,0.000479729,0.001014588,0.007392633,-0.000377784,0.000924909,-0.008342468,0.998040917,-0.000941028,-0.002709767,0.000383392,0.000000000,0.000000000,0.000000000,0.000000000,0.016468066,0.010124764,0.071469762,0.033399016,0.004980616,0.000097444,0.009735302,-0.000073609,-0.000541706,-0.445373156,-0.467594582,-0.736649137,-0.003860257,0.004105395,-0.006412465,0.999962568,0.000000000,0.000000000,0.000000000,0.000000000,0.000000000,0.000000000,0.114281349,0.000000000,4.127859116
1772724092.978674889,0.015827000,0.010016000,0.071471000,-0.006760090,0.017475110,-0.010065070,0.999773780,-0.013878000,0.034813000,-0.020376000,-0.000769796,-0.000429303,0.001194689,-0.037390562,0.056782811,-0.016343883,0.000969358,-0.008072432,0.998120369,-0.000907567,-0.002663684,-0.000525763,0.000000000,0.000000000,0.000000000,0.000000000,0.016469673,0.010122458,0.071467041,0.033400204,0.004877267,-0.000001006,0.008940607,-0.001071270,-0.001270783,-0.445483575,-0.466915606,-0.737112613,-0.003861242,0.004099491,-0.006416528,0.999962568,0.000000000,0.000000000,0.000000000,0.000000000,0.000000000,0.000000000,0.114281349,0.000000000,4.128225533
1772724092.988673925,0.015823000,0.010020000,0.071471000,-0.006802550,0.017558070,-0.010003180,0.999772660,-0.013962000,0.034979000,-0.020254000,-0.000576716,-0.000430468,0.001129830,-0.059134758,0.083611716,-0.025467277,0.000476323,-0.007298530,0.998251561,-0.001983290,-0.002000330,-0.001466897,0.000000000,0.000000000,0.000000000,0.000000000,0.016469511,0.010113833,0.071467389,0.033351131,0.004708084,-0.000123590,0.009337712,0.000692582,-0.002765194,-0.445311818,-0.465890972,-0.736894404,-0.003859809,0.004090533,-0.006414666,0.999962618,0.000000000,0.000000000,0.000000000,0.000000000,0.000000000,0.000000000,0.114281349,0.000000000,4.128819182
1772724092.998673916,0.015818000,0.010021000,0.071463000,-0.006800840,0.017592360,-0.010000950,0.999772090,-0.013959000,0.035048000,-0.020250000,-0.000008236,-0.000317203,0.000631843,-0.060015789,0.081478239,-0.024728647,-0.000007068,-0.006284986,0.999218543,-0.003244581,0.002737004,-0.000386902,0.000000000,0.000000000,0.000000000,0.000000000,0.016462962,0.010116440,0.071461940,0.033176704,0.004730452,-0.000340720,0.007302762,0.001931715,0.000377023,-0.445332571,-0.465105680,-0.736873184,-0.003860035,0.004083681,-0.006414506,0.999962629,0.000000000,0.000000000,0.000000000,0.000000000,0.000000000,0.000000000,0.114281349,0.000000000,4.129412887
1772724093.008674383,0.015760000,0.009995000,0.071564000,-0.008287830,0.019577540,-0.010565910,0.999718160,-0.016998000,0.038979000,-0.021468000,0.000549346,-0.000399389,0.000305918,-0.039634036,0.049609460,-0.019994786,0.000638055,-0.006821534,0.999725906,-0.002043911,0.001962715,0.001413692,0.000000000,0.000000000,0.000000000,0.000000000,0.016464237,0.010112391,0.071463394,0.033035376,0.004746850,-0.000324940,0.008997697,0.000898537,-0.000615054,-0.445562264,-0.465735897,-0.735882748,-0.003862039,0.004089160,-0.006405834,0.999962696,0.000000000,0.000000000,0.000000000,0.000000000,0.000000000,0.000000000,0.114281349,0.000000000,4.130006620
1772724093.018673897,0.015827000,0.009998000,0.071481000,-0.007919420,0.018921270,-0.010498990,0.999734480,-0.016244000,0.037675000,-0.021309000,0.000635145,0.000050484,-0.000402613,-0.005619573,-0.000716659,-0.008392055,0.002119661,-0.006869243,0.997756141,-0.001690274,-0.000697289,-0.003501588,0.000000000,0.000000000,0.000000000,0.000000000,0.016460513,0.010112412,0.071460515,0.033027730,0.004705376,-0.000473478,0.009906062,0.000479537,-0.000967874,-0.444816471,-0.464925609,-0.735141814,-0.003855603,0.004082023,-0.006399423,0.999962747,0.000000000,0.000000000,0.000000000,0.000000000,0.000000000,0.000000000,0.114281349,0.000000000,4.130600297
1772724093.028673887,0.015838000,0.010019000,0.071470000,-0.007524270,0.018464720,-0.010406280,0.999747040,-0.015440000,0.036772000,-0.021101000,0.000982573,0.000669332,-0.001756623,0.047013858,-0.073333903,0.010211113,0.001189848,-0.005507147,1.000357907,-0.000633568,-0.000098972,-0.001847661,0.000000000,0.000000000,0.000000000,0.000000000,0.016429310,0.010099311,0.071508528,0.032994358,0.004674439,-0.000311722,0.009148703,0.001943566,-0.000326333,-0.444396289,-0.464268423,-0.734360339,-0.003852001,0.004076238,-0.006392640,0.999962827,0.000000000,0.000000000,0.000000000,0.000000000,0.000000000,0.000000000,0.114281349,0.000000000,4.131194002
1772724093.038674116,0.015842000,0.010014000,0.071472000,-0.007246470,0.018107100,-0.010286320,0.999756880,-0.014872000,0.036064000,-0.020845000,0.000350167,0.000789026,-0.001577878,0.065855084,-0.099017374,0.023223128,0.001092232,-0.005241195,1.000169957,0.000384495,-0.001811548,0.000342460,0.000000000,0.000000000,0.000000000,0.000000000,0.016449943,0.010095900,0.071489328,0.033038793,0.004838443,-0.000400938,0.009435694,0.002020193,0.001180771,-0.443542802,-0.463101026,-0.733169261,-0.003844660,0.004065964,-0.006382317,0.999962972,0.000000000,0.000000000,0.000000000,0.000000000,0.000000000,0.000000000,0.114281349,0.000000000,4.131787722
1772724093.048674822,0.015830000,0.010011000,0.071479000,-0.007070770,0.017753210,-0.010282250,0.999764520,-0.014513000,0.035360000,-0.020825000,-0.001017615,-0.000122491,0.000735686,0.014857790,-0.022439489,0.007172558,0.002223889,-0.006459579,1.000070167,0.001211946,0.004140506,-0.000324903,0.000000000,0.000000000,0.000000000,0.000000000,0.016468224,0.010105649,0.071473384,0.033183608,0.004898417,-0.000367410,0.010692765,0.000763024,-0.000376882,-0.442982182,-0.463242139,-0.732047509,-0.003839800,0.004067126,-0.006372543,0.999963053,0.000000000,0.000000000,0.000000000,0.000000000,0.000000000,0.000000000,0.114281349,0.000000000,4.132381469
1772724093.058674335,0.015808000,0.010032000,0.071452000,-0.006965790,0.017486000,-0.010149160,0.999771330,-0.014292000,0.034830000,-0.020551000,-0.001870392,-0.000740853,0.002387610,-0.055311339,0.081990989,-0.018023736,0.002194057,-0.004636775,0.997491147,-0.000310961,0.003886305,0.002543169,0.000000000,0.000000000,0.000000000,0.000000000,0.016473984,0.010107034,0.071469963,0.033311413,0.004966953,-0.000512887,0.009954995,0.002316469,-0.001872028,-0.442774120,-0.463831133,-0.731096147,-0.003837985,0.004072222,-0.006364229,0.999963083,0.000000000,0.000000000,0.000000000,0.000000000,0.000000000,0.000000000,0.114281349,0.000000000,4.132975146
1772724093.068675041,0.015814000,0.010033000,0.071448000,-0.006872520,0.017481100,-0.010153410,0.999772020,-0.014106000,0.034822000,-0.020556000,-0.001330078,-0.001261082,0.002842884,-0.105362126,0.157816016,-0.040796519,0.000517915,-0.003758133,0.998112057,0.000812156,-0.000211599,-0.001246920,0.000000000,0.000000000,0.000000000,0.000000000,0.016466691,0.010115191,0.071459540,0.033272302,0.005181553,-0.000748242,0.008539682,0.003098196,-0.001773486,-0.443139985,-0.464292752,-0.730533304,-0.003841172,0.004076252,-0.006359288,0.999963067,0.000000000,0.000000000,0.000000000,0.000000000,0.000000000,0.000000000,0.114281349,0.000000000,4.132739742
1772724093.078674793,0.015764000,0.009976000,0.071579000,-0.008400140,0.019674920,-0.010638440,0.999714540,-0.017228000,0.039170000,-0.021620000,-0.000663913,-0.001041410,0.002476769,-0.122025662,0.187206793,-0.050305455,0.000732689,-0.005545914,0.998933246,-0.001050804,0.000926496,-0.000379469,0.000000000,0.000000000,0.000000000,0.000000000,0.016459615,0.010125858,0.071445126,0.033137768,0.005374044,-0.000935572,0.008356238,0.001806826,-0.000700003,-0.442247127,-0.464551718,-0.730031461,-0.003833385,0.004078446,-0.006354932,0.999963131,0.000000000,0.000000000,0.000000000,0.000000000,0.000000000,0.000000000,0.114281349,0.000000000,4.132191805
1772724093.088674784,0.015766000,0.009957000,0.071610000,-0.009411420,0.021310140,-0.011138760,0.999666560,-0.019310000,0.042409000,-0.022694000,0.000449931,-0.000308113,0.000375380,-0.078047421,0.124186393,-0.028725540,0.001195449,-0.007323536,0.999646609,-0.000860644,-0.000090442,-0.000751515,0.000000000,0.000000000,0.000000000,0.000000000,0.016435984,0.010108412,0.071492305,0.033024796,0.005289873,-0.000757027,0.009149093,0.000518905,-0.001341680,-0.441902566,-0.465063065,-0.729752694,-0.003830359,0.004082879,-0.006352495,0.999963164,0.000000000,0.000000000,0.000000000,0.000000000,0.000000000,0.000000000,0.114281349,0.000000000,4.131643855
1772724093.098674774,0.015813000,0.010007000,0.071499000,-0.008650420,0.020298500,-0.010856630,0.999697590,-0.017752000,0.040408000,-0.022078000,0.000464578,0.000253666,-0.000524308,-0.036246988,0.054270610,-0.011921098,0.000150675,-0.005333019,0.998304650,0.000002545,0.000806815,-0.003561670,0.000000000,0.000000000,0.000000000,0.000000000,0.016418899,0.010083708,0.071546496,0.032958768,0.005220929,-0.000671395,0.007986065,0.002117786,-0.001607508,-0.441499358,-0.465114568,-0.729389829,-0.003826851,0.004083294,-0.006349341,0.999963164,0.000000000,0.000000000,0.000000000,0.000000000,0.000000000,0.000000000,0.114281349,0.000000000,4.131095905
1772724093.108674288,0.015793000,0.009979000,0.071569000,-0.009389230,0.021262910,-0.011166660,0.999667460,-0.019266000,0.042315000,-0.022748000,0.000361433,0.000950561,-0.001673932,0.014113154,-0.031383717,0.010548002,-0.001177937,-0.005535192,0.998670120,0.001475606,0.000681889,0.002988142,0.000000000,0.000000000,0.000000000,0.000000000,0.016433966,0.010096091,0.071517210,0.032828090,0.005367424,-0.000927990,0.007188545,0.001518145,-0.002013949,-0.440524270,-0.465212436,-0.728042091,-0.003818384,0.004084049,-0.006337611,0.999963284,0.000000000,0.000000000,0.000000000,0.000000000,0.000000000,0.000000000,0.114281349,0.000000000,4.130547981
