t,px,py,pz,qx,qy,qz,qw,roll,pitch,yaw,vx,vy,vz,wx_vicon,wy_vicon,wz_vicon,imu_acc_x,imu_acc_y,imu_acc_z,imu_gyro_x,imu_gyro_y,imu_gyro_z,motor_motor_m1,motor_motor_m2,motor_motor_m3,motor_motor_m4,est_stateEstimate_x,est_stateEstimate_y,est_stateEstimate_z,est_stateEstimate_vx,est_stateEstimate_vy,est_stateEstimate_vz,est_stateEstimate_ax,est_stateEstimate_ay,est_stateEstimate_az,att_stateEstimate_roll,att_stateEstimate_pitch,att_stateEstimate_yaw,att_stateEstimate_qx,att_stateEstimate_qy,att_stateEstimate_qz,att_stateEstimate_qw,sp_ctrltarget_x,sp_ctrltarget_y,sp_ctrltarget_z,sp_ctrltarget_yaw,pid_controller_roll,pid_controller_pitch,pid_controller_yaw,pid_controller_cmd_thrust,pwr_pm_vbat
1772690025.446707487,0.018080000,0.009286000,0.053952000,-0.001392400,0.002578540,0.006200550,0.999976480,-0.002753000,0.005174000,0.012394000,0.002030888,-0.001848748,0.001284361,-0.019060763,-0.327204590,0.033798967,0.007450961,-0.002194482,0.999543994,-0.001604098,0.002042787,-0.004982560,0.000000000,0.000000000,0.000000000,0.000000000,0.018381185,0.009262859,0.053912013,0.015128569,-0.000262248,-0.000458846,0.006034062,0.001605288,-0.001437676,-0.126528886,0.113462539,0.414648102,-0.001100573,-0.000994137,0.003617377,0.999991530,0.000000000,0.000000000,0.000000000,0.000000000,0.000000000,0.000000000,0.022768926,0.000000000,4.020263852
1772690025.456707478,0.018088000,0.009278000,0.053958000,-0.001356030,0.001944670,0.006244670,0.999977690,-0.002688000,0.003906000,0.012484000,0.001124753,-0.000788891,-0.000552499,0.003522733,-0.072654235,0.015388469,0.007209437,-0.001967605,0.998113165,0.002658582,-0.004466645,0.000063770,0.000000000,0.000000000,0.000000000,0.000000000,0.018212604,0.009256527,0.053912879,0.012922940,-0.000380511,-0.000716605,0.004346079,0.000657034,-0.002101792,-0.127303300,0.144825675,0.420497006,-0.001106284,-0.001267911,0.003668108,0.999991317,0.000000000,0.000000000,0.000000000,0.000000000,0.000000000,0.000000000,0.022768926,0.000000000,4.020484630
1772690025.466707706,0.018084000,0.009283000,0.053954000,-0.001331750,0.001531890,0.006361260,0.999977710,-0.002644000,0.003081000,0.012719000,0.000424320,-0.000127616,-0.001251185,0.013274569,0.058137574,0.003964080,0.005464229,-0.002727074,1.000388609,-0.000796486,-0.002641473,-0.000569675,0.000000000,0.000000000,0.000000000,0.000000000,0.018232391,0.009242228,0.053891441,0.012537457,-0.000399434,-0.000890716,0.003100517,-0.000844193,0.000024174,-0.127922596,0.143704505,0.418765796,-0.001111743,-0.001258130,0.003653004,0.999991104,0.000000000,0.000000000,0.000000000,0.000000000,0.000000000,0.000000000,0.022768926,0.000000000,4.020705412
1772690025.476707935,0.018098000,0.009280000,0.053952000,-0.001259210,0.001263260,0.006509070,0.999977230,-0.002502000,0.002543000,0.013015000,-0.000085097,0.000210596,-0.001124967,0.013494522,0.094640632,-0.001846888,0.005036722,-0.003783027,1.000958505,-0.000247765,0.000876997,-0.003911257,0.000000000,0.000000000,0.000000000,0.000000000,0.018307657,0.009252018,0.053905791,0.012834140,-0.000517583,-0.000790107,0.002583662,-0.001823471,0.000505425,-0.127423898,0.145296936,0.417237280,-0.001107357,-0.001271996,0.003639656,0.999990940,0.000000000,0.000000000,0.000000000,0.000000000,0.000000000,0.000000000,0.022768926,0.000000000,4.020926195
1772690025.486707926,0.018142000,0.009239000,0.053882000,-0.001351580,0.003665170,0.006160700,0.999973390,-0.002658000,0.007347000,0.012312000,-0.000418182,0.000301268,-0.000487118,0.007431053,0.066329541,-0.003396789,0.007531357,-0.001783993,1.000807254,0.000680396,-0.001285546,-0.002910420,0.000000000,0.000000000,0.000000000,0.000000000,0.018321441,0.009261597,0.053923248,0.012883564,-0.000594594,-0.000662268,0.004480734,0.000552523,0.000654211,-0.127549771,0.145835045,0.415986104,-0.001108452,-0.001276683,0.003628730,0.999990955,0.000000000,0.000000000,0.000000000,0.000000000,0.000000000,0.000000000,0.022768926,0.000000000,4.021146972
1772690025.496707916,0.018075000,0.009286000,0.053935000,-0.001204760,0.002832960,0.006310750,0.999975350,-0.002374000,0.005681000,0.012615000,-0.000589619,0.000219920,0.000349090,-0.001558364,0.002660021,-0.002167323,0.007461624,-0.001471364,1.000428711,-0.000817127,0.001872104,-0.001062537,0.000000000,0.000000000,0.000000000,0.000000000,0.018346231,0.009251311,0.053907852,0.013148951,-0.000507827,-0.000627967,0.004953631,0.001487914,0.000325565,-0.128032602,0.146872465,0.414939354,-0.001112645,-0.001285742,0.003619580,0.999991000,0.000000000,0.000000000,0.000000000,0.000000000,0.000000000,0.000000000,0.022768926,0.000000000,4.021367750
1772690025.506707907,0.018063000,0.009297000,0.053954000,-0.001184760,0.002129820,0.006387280,0.999976630,-0.002342000,0.004275000,0.012770000,-0.000708611,0.000006099,0.000771137,-0.007421212,-0.041206054,0.000062533,0.007014749,-0.001325337,0.999577839,0.000384279,0.001611586,0.001602129,0.000000000,0.000000000,0.000000000,0.000000000,0.018347098,0.009258811,0.053911116,0.013272289,-0.000368848,-0.000569778,0.003849649,0.001302839,-0.000273943,-0.128696853,0.147574350,0.414614145,-0.001118423,-0.001291884,0.003616728,0.999991000,0.000000000,0.000000000,0.000000000,0.000000000,0.000000000,0.000000000,0.022768926,0.000000000,4.021588527
1772690025.516708374,0.018083000,0.009286000,0.053948000,-0.001239030,0.001747810,0.006346350,0.999977570,-0.002456000,0.003511000,0.012688000,-0.000590027,0.000015229,0.000919868,-0.008800015,-0.075688243,0.002370384,0.005893435,-0.001212033,0.998734649,0.000240783,0.000808334,-0.003178500,0.000000000,0.000000000,0.000000000,0.000000000,0.018362466,0.009256723,0.053895736,0.013363418,-0.000222629,-0.000638739,0.003791033,0.000746514,-0.002033612,-0.127692658,0.147229320,0.414827256,-0.001109668,-0.001288844,0.003618602,0.999991000,0.000000000,0.000000000,0.000000000,0.000000000,0.000000000,0.000000000,0.022768926,0.000000000,4.021809315
1772690025.526708364,0.018085000,0.009269000,0.053952000,-0.001431840,0.001579970,0.006323580,0.999977730,-0.002844000,0.003178000,0.012643000,-0.000118215,0.000017676,0.000454388,-0.005359406,-0.077540215,0.003590188,0.006396481,-0.002516895,0.997859525,-0.003398335,-0.000324101,0.001020032,0.000000000,0.000000000,0.000000000,0.000000000,0.018352805,0.009270276,0.053904578,0.013346443,-0.000117990,-0.000826478,0.003664983,0.000138455,-0.002212449,-0.126802169,0.146889756,0.413975664,-0.001101917,-0.001285844,0.003611184,0.999991006,0.000000000,0.000000000,0.000000000,0.000000000,0.000000000,0.000000000,0.022768926,0.000000000,4.022030093
1772690025.536708117,0.018081000,0.009264000,0.053952000,-0.001461130,0.001551650,0.006358020,0.999977520,-0.002902000,0.003122000,0.012712000,0.000502813,-0.000181946,-0.000536746,-0.003079452,-0.020702543,-0.003618732,0.006001768,-0.001565944,0.998938534,-0.003105463,-0.003107525,0.002799477,0.000000000,0.000000000,0.000000000,0.000000000,0.018341286,0.009280552,0.053921051,0.013222315,-0.000076071,-0.000910515,0.003358402,0.001188652,-0.001614150,-0.125988880,0.147488106,0.414246285,-0.001094798,-0.001291043,0.003613549,0.999991028,0.000000000,0.000000000,0.000000000,0.000000000,0.000000000,0.000000000,0.022768926,0.000000000,4.022250865
1772690025.546708107,0.018073000,0.009277000,0.053947000,-0.001338780,0.001349020,0.006381390,0.999977830,-0.002660000,0.002715000,0.012759000,-0.000096052,0.000466625,-0.000373817,0.001296434,-0.016601316,-0.001006959,0.007162483,-0.003308310,0.997136788,-0.004101887,0.002263004,0.000417503,0.000000000,0.000000000,0.000000000,0.000000000,0.018347940,0.009274195,0.053915991,0.013184906,0.000036692,-0.001143473,0.004511588,-0.000773518,-0.004024569,-0.125338543,0.149174693,0.413489016,-0.001089079,-0.001305733,0.003606932,0.999991051,0.000000000,0.000000000,0.000000000,0.000000000,0.000000000,0.000000000,0.022768926,0.000000000,4.022287369
1772690025.556708336,0.018081000,0.009293000,0.053949000,-0.001275210,0.001249620,0.006293830,0.999978600,-0.002535000,0.002515000,0.012585000,-0.000188841,0.000694645,-0.000276114,0.003508450,-0.011410374,0.001545186,0.007381032,-0.004763550,0.999111449,-0.001976955,0.000439101,-0.003197821,0.000000000,0.000000000,0.000000000,0.000000000,0.018374600,0.009249393,0.053884564,0.013409923,-0.000164130,-0.001525994,0.005338619,-0.001937013,-0.000980520,-0.125584930,0.149957467,0.413009591,-0.001091209,-0.001312567,0.003602738,0.999991059,0.000000000,0.000000000,0.000000000,0.000000000,0.000000000,0.000000000,0.022768926,0.000000000,4.022287369
1772690025.566708326,0.018078000,0.009296000,0.053935000,-0.001284870,0.001219110,0.006345310,0.999978300,-0.002554000,0.002454000,0.012688000,0.000052018,0.000384306,-0.000093585,-0.000367748,-0.000721463,0.001926522,0.007741414,-0.003831612,0.999293693,0.000169916,-0.003530286,0.001117664,0.000000000,0.000000000,0.000000000,0.000000000,0.018352806,0.009253861,0.053897254,0.012878932,-0.000410269,-0.001383575,0.004577185,-0.001424191,-0.000599164,-0.126694686,0.151958991,0.412523128,-0.001100836,-0.001330064,0.003598460,0.999990779,0.000000000,0.000000000,0.000000000,0.000000000,0.000000000,0.000000000,0.022768926,0.000000000,4.022287369
1772690025.576708317,0.018081000,0.009290000,0.053943000,-0.001378850,0.001211220,0.006343300,0.999978200,-0.002742000,0.002440000,0.012683000,0.000194804,-0.000080124,0.000340718,-0.003392753,0.002120732,0.002091480,0.006886654,-0.001239633,1.001644358,0.003554458,-0.002196167,0.000422490,0.000000000,0.000000000,0.000000000,0.000000000,0.018261735,0.009277597,0.053928611,0.012240275,-0.000435682,-0.001033932,0.003494299,0.001488731,0.000676350,-0.127404033,0.162785433,0.412569695,-0.001106686,-0.001424565,0.003598753,0.999990457,0.000000000,0.000000000,0.000000000,0.000000000,0.000000000,0.000000000,0.022768926,0.000000000,4.022287369
1772690025.586709261,0.018073000,0.009292000,0.053945000,-0.001415150,0.001176160,0.006394650,0.999977860,-0.002815000,0.002370000,0.012786000,0.000092808,-0.000438655,0.000538300,-0.004175103,0.010631641,0.000828456,0.006153416,-0.003041094,0.998969339,0.002633447,0.001500967,-0.000668843,0.000000000,0.000000000,0.000000000,0.000000000,0.018306209,0.009270070,0.053908614,0.012516531,-0.000265462,-0.001073297,0.002324523,-0.000322855,-0.001858550,-0.128009474,0.167888587,0.411603233,-0.001111821,-0.001469107,0.003590262,0.999990135,0.000000000,0.000000000,0.000000000,0.000000000,0.000000000,0.000000000,0.022768926,0.000000000,4.022287369
1772690025.596709490,0.018086000,0.009282000,0.053950000,-0.001368840,0.001467610,0.006370310,0.999977700,-0.002719000,0.002953000,0.012737000,-0.000103744,-0.000453903,0.000361211,0.001742099,0.009242776,-0.004684237,0.006838968,-0.002370613,0.999614985,0.000015509,0.000623953,-0.001360076,0.000000000,0.000000000,0.000000000,0.000000000,0.018318737,0.009263551,0.053917836,0.012496706,-0.000317626,-0.001024297,0.004618113,0.000306366,0.001338090,-0.127730355,0.167609069,0.410386268,-0.001109410,-0.001466648,0.003579648,0.999989813,0.000000000,0.000000000,0.000000000,0.000000000,0.000000000,0.000000000,0.022768926,0.000000000,4.022272199
1772690025.606709719,0.018082000,0.009277000,0.053964000,-0.001398590,0.001417140,0.006343060,0.999977900,-0.002779000,0.002852000,0.012682000,-0.000138980,-0.000204963,0.000012645,0.007774015,0.002262243,-0.010258924,0.007932904,-0.000988621,1.001216430,-0.003090909,-0.001569654,-0.001936163,0.000000000,0.000000000,0.000000000,0.000000000,0.018275782,0.009273236,0.053917801,0.011900840,-0.000028951,-0.000935665,0.003664116,0.000465289,-0.000394684,-0.127803337,0.177136528,0.414226371,-0.001109696,-0.001549829,0.003613065,0.999989490,0.000000000,0.000000000,0.000000000,0.000000000,0.000000000,0.000000000,0.022768926,0.000000000,4.021351362
1772690025.616709948,0.018080000,0.009282000,0.053963000,-0.001242130,0.001173380,0.006292860,0.999978740,-0.002469000,0.002362000,0.012583000,-0.000196067,-0.000077910,-0.000262905,0.010686226,-0.002000400,-0.011241921,0.008744213,-0.002613012,1.000131651,-0.001215690,0.002197306,-0.000502879,0.000000000,0.000000000,0.000000000,0.000000000,0.018262986,0.009285856,0.053948152,0.005081424,-0.000312324,0.000150623,0.002883887,0.000188231,-0.000668325,-0.132221322,0.213280139,0.426603442,-0.001146886,-0.001865506,0.003720640,0.999989168,0.000000000,0.000000000,0.000000000,0.000000000,0.000000000,0.000000000,0.022768926,0.000000000,4.020430525
1772690025.626710415,0.018070000,0.009278000,0.053946000,-0.001316770,0.001472820,0.006189110,0.999978900,-0.002615000,0.002962000,0.012374000,-0.000140767,-0.000065887,-0.000048424,0.005223218,-0.008777149,-0.008772884,0.008579694,-0.002031841,1.000106215,0.001854154,0.002980905,-0.000866082,0.000000000,0.000000000,0.000000000,0.000000000,0.018183028,0.009255713,0.053916968,0.005979552,-0.000141877,-0.000046024,0.006971829,0.000486611,-0.000554085,-0.135833666,0.240112111,0.435518652,-0.001177396,-0.002099863,0.003798109,0.999988837,0.000000000,0.000000000,0.000000000,0.000000000,0.000000000,0.000000000,0.022768926,0.000000000,4.019509666
1772690025.636710882,0.018072000,0.009281000,0.053939000,-0.001197710,0.001212750,0.006120530,0.999979820,-0.002381000,0.002440000,0.012238000,-0.000287030,0.000025174,0.000155102,0.000627991,-0.016720042,-0.003347406,0.008495659,-0.000463154,1.000127071,-0.000226558,0.001402449,0.000109232,0.000000000,0.000000000,0.000000000,0.000000000,0.018155960,0.009284421,0.053946538,0.006972712,-0.000014808,0.000004340,0.004157464,0.002308465,0.000208865,-0.137183415,0.232645704,0.453043128,-0.001189113,-0.002034933,0.003951092,0.999988472,0.000000000,0.000000000,0.000000000,0.000000000,0.000000000,0.000000000,0.022768926,0.000000000,4.018588808
1772690025.646710634,0.018075000,0.009283000,0.053947000,-0.001217660,0.001143670,0.006202310,0.999979370,-0.002421000,0.002302000,0.012402000,-0.000049337,0.000054368,0.000180139,-0.000599924,-0.020097662,0.004432104,0.006531233,-0.001740863,0.999646474,0.000058594,-0.003365466,0.002347078,0.000000000,0.000000000,0.000000000,0.000000000,0.018192965,0.009290509,0.053941829,0.007377565,0.000191877,0.000001094,0.002751793,0.001272815,-0.000070972,-0.137593243,0.230425102,0.454573418,-0.001192738,-0.002015585,0.003964462,0.999988377,0.000000000,0.000000000,0.000000000,0.000000000,0.000000000,0.000000000,0.022768926,0.000000000,4.017668015
1772690025.656710625,0.018075000,0.009276000,0.053966000,-0.001262700,0.001188390,0.006219060,0.999979160,-0.002511000,0.002392000,0.012435000,0.000168426,0.000209586,0.000046560,-0.002370254,-0.023651227,0.008306444,0.005420311,-0.001298862,1.000078189,-0.000418560,-0.002157488,0.000873013,0.000000000,0.000000000,0.000000000,0.000000000,0.018208625,0.009293154,0.053942855,0.007508566,0.000303057,-0.000009959,0.001081578,0.001241061,-0.000295774,-0.137345942,0.230535870,0.453939307,-0.001190587,-0.002016536,0.003958931,0.999988425,0.000000000,0.000000000,0.000000000,0.000000000,0.000000000,0.000000000,0.022768926,0.000000000,4.017138512
1772690025.666710377,0.018074000,0.009279000,0.053970000,-0.001370020,0.000933810,0.006277220,0.999978920,-0.002728000,0.001885000,0.012552000,0.000218308,0.000260672,-0.000105628,-0.002585360,-0.017115205,0.010618182,0.006306441,-0.000338476,1.000182594,0.000782910,0.001470780,0.001049311,0.000000000,0.000000000,0.000000000,0.000000000,0.018217058,0.009294335,0.053944898,0.007548574,0.000425626,-0.000004536,0.001742647,0.001721872,0.000248500,-0.136353217,0.230894418,0.454142902,-0.001181908,-0.002019633,0.003960722,0.999988437,0.000000000,0.000000000,0.000000000,0.000000000,0.000000000,0.000000000,0.022768926,0.000000000,4.017595176
1772690025.676710844,0.018067000,0.009287000,0.053952000,-0.001250930,0.000810210,0.006306380,0.999979000,-0.002492000,0.001636000,0.012611000,0.000162774,0.000229049,-0.000204730,-0.007460537,0.002840131,0.008118199,0.005715886,-0.000766599,1.000157514,-0.001805180,0.003077301,-0.002261338,0.000000000,0.000000000,0.000000000,0.000000000,0.018226282,0.009291664,0.053952820,0.007640298,0.000616627,0.000054139,0.001893797,0.001308384,0.000185474,-0.134950771,0.231125807,0.454422578,-0.001169656,-0.002021607,0.003963185,0.999988464,0.000000000,0.000000000,0.000000000,0.000000000,0.000000000,0.000000000,0.022768926,0.000000000,4.018051873
1772690025.686711550,0.018086000,0.009291000,0.053937000,-0.001247950,0.000809840,0.006390090,0.999978480,-0.002485000,0.001636000,0.012778000,0.000243442,0.000012839,-0.000145487,-0.005640600,0.004684864,0.000292054,0.006075094,-0.001739152,1.000216311,0.003807833,-0.004627592,-0.000461949,0.000000000,0.000000000,0.000000000,0.000000000,0.018228656,0.009292370,0.053959263,0.007701225,0.000698744,0.000081383,0.002166842,0.000801656,-0.000502856,-0.134195040,0.229988666,0.453136553,-0.001163123,-0.002011644,0.003951988,0.999988483,0.000000000,0.000000000,0.000000000,0.000000000,0.000000000,0.000000000,0.022768926,0.000000000,4.018508581
1772690025.696712255,0.018085000,0.009292000,0.053940000,-0.001349880,0.001024940,0.006302880,0.999978700,-0.002687000,0.002067000,0.012603000,0.000305425,-0.000114719,0.000232973,-0.004746528,0.011503632,-0.001448100,0.006044322,-0.002271778,0.999882511,0.001957188,-0.002781359,0.002140278,0.000000000,0.000000000,0.000000000,0.000000000,0.018221966,0.009296963,0.053944494,0.006742767,0.000854133,-0.000487531,0.002192080,0.000672722,-0.000914148,-0.133174579,0.232877393,0.452671250,-0.001154127,-0.002036813,0.003947916,0.999988352,0.000000000,0.000000000,0.000000000,0.000000000,0.000000000,0.000000000,0.022768926,0.000000000,4.018965289
1772690025.706712008,0.018077000,0.009280000,0.053962000,-0.001431800,0.001243690,0.006379290,0.999977850,-0.002848000,0.002506000,0.012755000,0.000019366,-0.000262439,0.000368922,-0.004964191,0.018289524,-0.002346188,0.006521387,-0.001567029,0.999645111,-0.000489271,-0.000764928,0.001160167,0.000000000,0.000000000,0.000000000,0.000000000,0.018148002,0.009293102,0.053946397,0.006517272,0.000742977,-0.000716714,0.002400957,0.000549315,-0.000751967,-0.133291608,0.239712474,0.462835247,-0.001154728,-0.002096567,0.004036540,0.999988123,0.000000000,0.000000000,0.000000000,0.000000000,0.000000000,0.000000000,0.022768926,0.000000000,4.019421953
1772690025.716712713,0.018083000,0.009283000,0.053968000,-0.001452120,0.001151590,0.006290320,0.999978500,-0.002890000,0.002321000,0.012577000,-0.000304298,-0.000033196,0.000099665,-0.001730738,0.013237229,-0.000490944,0.007376781,-0.001978330,1.000811861,0.000531381,0.000297075,0.000080939,0.000000000,0.000000000,0.000000000,0.000000000,0.018184408,0.009295620,0.053949741,0.006818212,0.000857152,-0.000715602,0.003340134,0.000594709,0.000225102,-0.134283129,0.237539424,0.468721791,-0.001163349,-0.002077698,0.004087914,0.999987814,0.000000000,0.000000000,0.000000000,0.000000000,0.000000000,0.000000000,0.022768926,0.000000000,4.019878661
1772690025.726713419,0.018085000,0.009274000,0.053960000,-0.001330460,0.000953360,0.006224480,0.999979290,-0.002649000,0.001923000,0.012447000,-0.000854020,0.000455088,-0.000078940,0.005971836,-0.026360433,0.007993159,0.006274567,-0.002399917,1.001208785,-0.000690924,0.000376553,0.001081914,0.000000000,0.000000000,0.000000000,0.000000000,0.018203523,0.009294834,0.053947951,0.007080238,0.000823337,-0.000584850,0.002724060,-0.000916452,0.001331941,-0.134577286,0.238713027,0.468597736,-0.001165876,-0.002087949,0.004086814,0.999987781,0.000000000,0.000000000,0.000000000,0.000000000,0.000000000,0.000000000,0.022768926,0.000000000,4.020335369
1772690025.736713886,0.018077000,0.009289000,0.053955000,-0.001358850,0.001293510,0.006411360,0.999977690,-0.002701000,0.002604000,0.012819000,0.000273084,-0.000008430,-0.000989056,0.008085293,0.008896486,0.006398247,0.004406594,-0.001288422,1.000366072,0.000840688,-0.001250144,0.000309355,0.000000000,0.000000000,0.000000000,0.000000000,0.018208222,0.009300207,0.053942844,0.007119859,0.000845708,-0.000500447,0.000245140,0.001271532,0.000107036,-0.134569135,0.238329172,0.468259743,-0.001165825,-0.002084595,0.004083868,0.999987781,0.000000000,0.000000000,0.000000000,0.000000000,0.000000000,0.000000000,0.022768926,0.000000000,4.020792066
1772690025.746715069,0.018062000,0.009289000,0.053930000,-0.001346850,0.001297500,0.006384820,0.999977870,-0.002677000,0.002612000,0.012766000,0.000867403,-0.000479814,-0.001107155,0.006356086,0.072297994,-0.002333361,0.005346437,-0.002425138,0.999508119,-0.001866370,0.001776019,0.003790593,0.000000000,0.000000000,0.000000000,0.000000000,0.018205896,0.009305046,0.053931230,0.007015142,0.000929949,-0.000529381,0.001021112,0.000232997,-0.000266197,-0.134139758,0.238076850,0.467657521,-0.001162098,-0.002082372,0.004078623,0.999987803,0.000000000,0.000000000,0.000000000,0.000000000,0.000000000,0.000000000,0.022768926,0.000000000,4.021248796
1772690025.756715536,0.018074000,0.009297000,0.053935000,-0.001234390,0.001201180,0.006423630,0.999977880,-0.002453000,0.002418000,0.012844000,0.001041735,-0.000785492,-0.000427816,0.000782198,0.106199141,-0.009898251,0.005774539,-0.002966321,0.998228554,0.001550942,0.001001508,-0.004461735,0.000000000,0.000000000,0.000000000,0.000000000,0.018213527,0.009304150,0.053931227,0.007008717,0.000846368,-0.000675420,0.001363077,-0.000306417,-0.001552117,-0.134733626,0.236355838,0.467911426,-0.001167337,-0.002067377,0.004080846,0.999987845,0.000000000,0.000000000,0.000000000,0.000000000,0.000000000,0.000000000,0.022768926,0.000000000,4.021705493
1772690025.766716480,0.018085000,0.009280000,0.053947000,-0.001288550,0.001210800,0.006455520,0.999977600,-0.002561000,0.002438000,0.012908000,0.000975032,-0.000619493,0.000272326,-0.006001161,0.102122167,-0.015624053,0.006162927,-0.002330035,0.999895269,-0.003385384,0.001186138,-0.001599246,0.000000000,0.000000000,0.000000000,0.000000000,0.018257916,0.009273165,0.053908329,0.007210619,0.000718416,-0.000849933,0.002055132,-0.000194322,-0.000268541,-0.134465884,0.236441402,0.466641486,-0.001165020,-0.002068101,0.004069767,0.999987905,0.000000000,0.000000000,0.000000000,0.000000000,0.000000000,0.000000000,0.022768926,0.000000000,4.022162211
1772690025.776717424,0.018162000,0.009228000,0.053900000,-0.001378580,0.004003610,0.006024950,0.999972880,-0.002709000,0.008024000,0.012039000,0.000258671,-0.000217472,0.000494130,-0.007619208,0.050570380,-0.015299004,0.006075006,-0.002528248,1.000168079,-0.002445271,0.000912528,-0.001208321,0.000000000,0.000000000,0.000000000,0.000000000,0.018256975,0.009272798,0.053911142,0.007227301,0.000701808,-0.000816063,0.002176155,-0.000407369,0.000408820,-0.134796627,0.236217469,0.466490827,-0.001167917,-0.002066157,0.004068449,0.999987918,0.000000000,0.000000000,0.000000000,0.000000000,0.000000000,0.000000000,0.022768926,0.000000000,4.022001026
1772690025.786717892,0.018091000,0.009268000,0.053956000,-0.001362710,0.003324780,0.006087580,0.999975010,-0.002685000,0.006666000,0.012166000,-0.000567670,0.000476454,0.000391629,-0.007848898,-0.008031981,-0.002355524,0.005987088,-0.002726451,1.000440876,-0.001505202,0.000638930,-0.000817415,0.000000000,0.000000000,0.000000000,0.000000000,0.018253872,0.009273881,0.053915249,0.007234766,0.000689691,-0.000773800,0.002188248,-0.000652725,0.000605095,-0.135127354,0.235993547,0.466340174,-0.001170814,-0.002064213,0.004067131,0.999987932,0.000000000,0.000000000,0.000000000,0.000000000,0.000000000,0.000000000,0.022768926,0.000000000,4.021606613
1772690025.796718359,0.018087000,0.009283000,0.053962000,-0.001464200,0.002256010,0.006155220,0.999977440,-0.002901000,0.004530000,0.012304000,-0.001160047,0.000815308,-0.000041140,-0.005419506,-0.063216924,0.009347084,0.005899171,-0.002924655,1.000713674,-0.000565133,0.000365332,-0.000426510,0.000000000,0.000000000,0.000000000,0.000000000,0.018250770,0.009274964,0.053919356,0.007242231,0.000677574,-0.000731537,0.002200340,-0.000898080,0.000801369,-0.135458081,0.235769625,0.466189522,-0.001173711,-0.002062269,0.004065812,0.999987945,0.000000000,0.000000000,0.000000000,0.000000000,0.000000000,0.000000000,0.022768926,0.000000000,4.021212200
1772690025.806718349,0.018078000,0.009293000,0.053947000,-0.001483960,0.001878250,0.006286690,0.999977370,-0.002944000,0.003775000,0.012568000,-0.001018698,0.000852524,0.000032730,0.000043095,-0.104073594,0.019440086,0.005864577,-0.003160932,1.000984068,-0.000064301,0.000329767,-0.000105150,0.000000000,0.000000000,0.000000000,0.000000000,0.018247667,0.009276046,0.053923463,0.007249696,0.000665457,-0.000689276,0.002212432,-0.001143424,0.000997634,-0.135792900,0.235495164,0.466014614,-0.001176646,-0.002059884,0.004064283,0.999987959,0.000000000,0.000000000,0.000000000,0.000000000,0.000000000,0.000000000,0.022768926,0.000000000,4.020817806
1772690025.816719294,0.018062000,0.009294000,0.053930000,-0.001385140,0.001171720,0.006356630,0.999978150,-0.002755000,0.002361000,0.012710000,-0.000487817,0.000317312,0.000186025,0.003867206,-0.103433102,0.020279338,0.006386743,-0.003794898,1.001229538,-0.004149501,0.002779616,-0.000509768,0.000000000,0.000000000,0.000000000,0.000000000,0.018241177,0.009281933,0.053933208,0.007288576,0.000602462,-0.000544932,0.002561656,-0.000935680,0.001492804,-0.136307618,0.235008198,0.465777922,-0.001181159,-0.002055651,0.004062213,0.999987960,0.000000000,0.000000000,0.000000000,0.000000000,0.000000000,0.000000000,0.022768926,0.000000000,4.020423374
1772690025.826719522,0.018082000,0.009288000,0.053935000,-0.001372700,0.001384950,0.006499750,0.999976980,-0.002727000,0.002788000,0.012996000,0.000654670,-0.000466606,-0.000032904,0.005739313,-0.029580067,0.008155030,0.009619124,-0.002147763,1.002052225,0.001180513,0.000165398,-0.002547008,0.000000000,0.000000000,0.000000000,0.000000000,0.018233331,0.009291459,0.053939688,0.007485189,0.000581803,-0.000316305,0.004336255,0.000041449,0.002081524,-0.137865153,0.234288867,0.465464581,-0.001194782,-0.002049426,0.004059459,0.999987960,0.000000000,0.000000000,0.000000000,0.000000000,0.000000000,0.000000000,0.022768926,0.000000000,4.020028971
1772690025.836720228,0.018087000,0.009277000,0.053945000,-0.001393700,0.001415290,0.006449560,0.999977230,-0.002769000,0.002848000,0.012895000,0.000040266,-0.000157821,0.000953297,0.004862918,-0.034007515,0.002643512,0.008735171,-0.003259821,1.000257566,0.000152485,0.001265132,0.000179984,0.000000000,0.000000000,0.000000000,0.000000000,0.018225391,0.009298280,0.053936166,0.007782550,0.000573891,-0.000194239,0.005390508,-0.000341979,0.000577532,-0.137808897,0.234580591,0.464603035,-0.001194296,-0.002051960,0.004051938,0.999987960,0.000000000,0.000000000,0.000000000,0.000000000,0.000000000,0.000000000,0.022768926,0.000000000,4.019634549
1772690025.846720219,0.018088000,0.009279000,0.053967000,-0.001353020,0.001066600,0.006430230,0.999977840,-0.002692000,0.002151000,0.012858000,0.000237440,-0.000404565,0.000340155,-0.001958253,0.009518098,-0.009519064,0.007870839,-0.003524695,0.998221675,-0.000578478,0.005035763,-0.002026942,0.000000000,0.000000000,0.000000000,0.000000000,0.018226302,0.009299772,0.053932237,0.008044839,0.000492117,-0.000249614,0.003720987,-0.000771296,-0.001932001,-0.138238066,0.234234823,0.464650769,-0.001198052,-0.002048958,0.004052351,0.999987960,0.000000000,0.000000000,0.000000000,0.000000000,0.000000000,0.000000000,0.022768926,0.000000000,4.019240155
1772690025.856720448,0.018079000,0.009281000,0.053962000,-0.001326090,0.001074850,0.006360340,0.999978320,-0.002638000,0.002167000,0.012718000,0.000442384,-0.000529831,-0.000510932,-0.004230112,0.065414930,-0.016032142,0.006723639,-0.002659796,0.996362190,0.000677019,-0.002034289,0.002165411,0.000000000,0.000000000,0.000000000,0.000000000,0.018237112,0.009293243,0.053933662,0.008268158,0.000369929,-0.000571980,0.003351886,-0.000289756,-0.003293342,-0.137798183,0.233394799,0.464627720,-0.001194244,-0.002041612,0.004052166,0.999987960,0.000000000,0.000000000,0.000000000,0.000000000,0.000000000,0.000000000,0.022768926,0.000000000,4.018845751
1772690025.866720676,0.018086000,0.009282000,0.053955000,-0.001382200,0.001310030,0.006343590,0.999978070,-0.002748000,0.002638000,0.012684000,0.000379198,-0.000603799,-0.001031381,-0.004027592,0.098094459,-0.017429557,0.007999375,-0.001721680,0.999431728,0.002967276,-0.001081604,-0.002499400,0.000000000,0.000000000,0.000000000,0.000000000,0.018243344,0.009289430,0.053942017,0.008406619,0.000381486,-0.000709882,0.003239896,0.000950292,-0.000930906,-0.136711542,0.234284236,0.464457134,-0.001184733,-0.002049334,0.004050688,0.999987969,0.000000000,0.000000000,0.000000000,0.000000000,0.000000000,0.000000000,0.022768926,0.000000000,4.018451348
1772690025.876721621,0.018072000,0.009278000,0.053953000,-0.001451580,0.001347890,0.006269430,0.999978380,-0.002886000,0.002714000,0.012535000,0.000244064,-0.000328248,-0.000994009,-0.001625492,0.114415585,-0.012078122,0.008704794,-0.001723875,1.000296724,0.001909981,0.002132571,-0.001695528,0.000000000,0.000000000,0.000000000,0.000000000,0.018244672,0.009288822,0.053946107,0.008571846,0.000451170,-0.000651190,0.004075364,0.000656575,0.000786550,-0.136172217,0.234900355,0.463717848,-0.001180018,-0.002054684,0.004044239,0.999988019,0.000000000,0.000000000,0.000000000,0.000000000,0.000000000,0.000000000,0.022768926,0.000000000,4.018056916
1772690025.886721611,0.018118000,0.009240000,0.053883000,-0.001487850,0.003865560,0.006007730,0.999973380,-0.002929000,0.007749000,0.012004000,-0.000272753,0.000139659,-0.000609276,0.001336113,0.083699676,-0.002440270,0.009505760,-0.002336342,0.999608226,-0.000706555,0.000438742,-0.000610730,0.000000000,0.000000000,0.000000000,0.000000000,0.018248669,0.009289520,0.053945809,0.008831284,0.000471750,-0.000610174,0.004817200,-0.000145305,0.000057375,-0.136090964,0.234860356,0.463460234,-0.001179315,-0.002054329,0.004041993,0.999988019,0.000000000,0.000000000,0.000000000,0.000000000,0.000000000,0.000000000,0.022768926,0.000000000,4.017662522
1772690025.896722317,0.018102000,0.009266000,0.053932000,-0.001360910,0.003239980,0.006195040,0.999974640,-0.002682000,0.006497000,0.012382000,-0.000473074,0.000522586,0.000218638,0.005499684,0.017069974,0.012302089,0.007436340,-0.003158513,0.999992810,-0.003107773,0.003373244,0.001454400,0.000000000,0.000000000,0.000000000,0.000000000,0.018249856,0.009289008,0.053944145,0.009063476,0.000447368,-0.000606588,0.004258965,-0.000329130,-0.000440283,-0.136736423,0.234725877,0.463332498,-0.001184955,-0.002053177,0.004040868,0.999988019,0.000000000,0.000000000,0.000000000,0.000000000,0.000000000,0.000000000,0.022768926,0.000000000,4.017268100
1772690025.906722784,0.018078000,0.009276000,0.053946000,-0.001390130,0.002822670,0.006251010,0.999975510,-0.002745000,0.005663000,0.012494000,-0.000664907,0.000887585,0.001243648,0.008058815,-0.078234651,0.022767531,0.006538821,-0.003944938,0.999033957,0.002144572,0.000407959,-0.001533999,0.000000000,0.000000000,0.000000000,0.000000000,0.018262122,0.009277070,0.053923262,0.009192479,0.000327277,-0.000713689,0.002185444,-0.001225286,-0.000554467,-0.137603106,0.233989651,0.463898039,-0.001192534,-0.002046789,0.004045796,0.999988019,0.000000000,0.000000000,0.000000000,0.000000000,0.000000000,0.000000000,0.022768926,0.000000000,4.017192208
1772690025.916723251,0.018063000,0.009298000,0.053945000,-0.001293040,0.002366350,0.006370160,0.999976070,-0.002556000,0.004749000,0.012734000,0.000335202,0.000305871,0.000966777,0.006830281,-0.080745181,0.018597315,0.007014780,-0.001572119,0.997583295,0.000018277,-0.001124403,0.001246548,0.000000000,0.000000000,0.000000000,0.000000000,0.018276426,0.009267543,0.053907126,0.009294235,0.000257262,-0.000876681,0.003157685,0.000500701,-0.001626905,-0.136521866,0.232997841,0.463275368,-0.001183144,-0.002038089,0.004040392,0.999988019,0.000000000,0.000000000,0.000000000,0.000000000,0.000000000,0.000000000,0.022768926,0.000000000,4.017727730
1772690025.926723957,0.018069000,0.009293000,0.053947000,-0.001300080,0.001768030,0.006546030,0.999976170,-0.002577000,0.003553000,0.013088000,0.000832673,-0.000418667,0.000400098,0.005241414,-0.032836049,0.001914917,0.007192164,-0.001121011,0.999765538,0.001157104,-0.006640369,0.002114787,0.000000000,0.000000000,0.000000000,0.000000000,0.018273495,0.009272882,0.053915619,0.009375567,0.000350550,-0.000936406,0.003223439,0.000588299,-0.000881999,-0.136055004,0.233214195,0.463639506,-0.001179056,-0.002039964,0.004043576,0.999988078,0.000000000,0.000000000,0.000000000,0.000000000,0.000000000,0.000000000,0.022768926,0.000000000,4.018263264
1772690025.936724424,0.018103000,0.009275000,0.053964000,-0.001277710,0.001614000,0.006572260,0.999976280,-0.002534000,0.003245000,0.013141000,0.001137515,-0.000923267,-0.000749188,0.003840574,0.057244384,-0.017361662,0.008368020,-0.001473720,0.998956411,-0.000609599,-0.000984078,0.002161270,0.000000000,0.000000000,0.000000000,0.000000000,0.018262142,0.009285932,0.053922241,0.009489817,0.000468697,-0.000941916,0.004170282,0.000364424,-0.000973312,-0.135119395,0.233872037,0.463576316,-0.001170869,-0.002045671,0.004043035,0.999988079,0.000000000,0.000000000,0.000000000,0.000000000,0.000000000,0.000000000,0.022768926,0.000000000,4.018798786
1772690025.946724415,0.018108000,0.009272000,0.053966000,-0.001263970,0.001616780,0.006353790,0.999977710,-0.002507000,0.003250000,0.012704000,0.000489993,-0.000437703,-0.000746682,0.004649547,0.072468108,-0.019128629,0.008039631,-0.001925726,0.997180978,0.001003755,-0.001017892,0.000258079,0.000000000,0.000000000,0.000000000,0.000000000,0.018256790,0.009296181,0.053925353,0.009634065,0.000528909,-0.001045687,0.003818821,0.000590427,-0.002143670,-0.134654089,0.232800146,0.463197877,-0.001166853,-0.002036297,0.004039751,0.999988091,0.000000000,0.000000000,0.000000000,0.000000000,0.000000000,0.000000000,0.022768926,0.000000000,4.019334282
1772690025.956724644,0.018149000,0.009234000,0.053899000,-0.001259040,0.004174170,0.006021810,0.999972360,-0.002468000,0.008363000,0.012033000,-0.000626136,0.000343904,-0.000638587,0.002705461,0.041450867,-0.016490102,0.010062142,-0.001238434,0.996867549,0.001135958,-0.001772089,0.000051567,0.000000000,0.000000000,0.000000000,0.000000000,0.018275602,0.009291639,0.053933847,0.009935872,0.000601498,-0.001331240,0.005709467,0.000981783,-0.003367812,-0.134483785,0.233124402,0.462654603,-0.001165365,-0.002039115,0.004035010,0.999988119,0.000000000,0.000000000,0.000000000,0.000000000,0.000000000,0.000000000,0.022768926,0.000000000,4.019869791
1772690025.966725111,0.018079000,0.009275000,0.053938000,-0.001202110,0.003247440,0.006034900,0.999975790,-0.002365000,0.006509000,0.012062000,-0.001175392,0.000922490,-0.000263061,0.001356073,-0.014462745,-0.007919622,0.010088849,-0.001774531,0.998571206,0.000574483,0.001004524,0.001069086,0.000000000,0.000000000,0.000000000,0.000000000,0.018290227,0.009287970,0.053936342,0.010357212,0.000657324,-0.001517885,0.006215383,0.000606897,-0.001007140,-0.133767358,0.233697888,0.462250075,-0.001159100,-0.002044090,0.004031486,0.999988102,0.000000000,0.000000000,0.000000000,0.000000000,0.000000000,0.000000000,0.022768926,0.000000000,4.020405313
1772690025.976726055,0.018064000,0.009298000,0.053932000,-0.001232710,0.002448810,0.006193430,0.999977060,-0.002435000,0.004913000,0.012381000,-0.001262548,0.000989115,0.000804119,-0.002198537,-0.111846045,0.007314135,0.009121222,-0.002942230,0.999800888,0.000492089,0.002166810,-0.000727753,0.000000000,0.000000000,0.000000000,0.000000000,0.018321930,0.009267451,0.053901296,0.010786883,0.000579168,-0.001652064,0.004792645,-0.000537479,-0.000737125,-0.133370835,0.233336346,0.461569016,-0.001155665,-0.002040915,0.004025554,0.999988161,0.000000000,0.000000000,0.000000000,0.000000000,0.000000000,0.000000000,0.022768926,0.000000000,4.020940860
1772690025.986726284,0.018070000,0.009300000,0.053939000,-0.001231010,0.001813420,0.006345700,0.999977460,-0.002439000,0.003642000,0.012687000,0.000106230,-0.000109669,0.000985502,-0.004167948,-0.112367335,0.010436483,0.008329457,-0.003261587,1.000330094,0.001187672,0.001780077,-0.003141778,0.000000000,0.000000000,0.000000000,0.000000000,0.018308021,0.009275226,0.053903758,0.010879976,0.000492745,-0.001609850,0.003116064,-0.000787606,0.000435935,-0.133108421,0.233457763,0.460044722,-0.001153398,-0.002041950,0.004012256,0.999988212,0.000000000,0.000000000,0.000000000,0.000000000,0.000000000,0.000000000,0.022768926,0.000000000,4.021476369
1772690025.996726751,0.018074000,0.009294000,0.053951000,-0.001272090,0.001185290,0.006224150,0.999979120,-0.002529000,0.002386000,0.012445000,0.001084992,-0.000976528,0.000576644,-0.007557384,-0.051810531,0.002503205,0.006950607,-0.001701562,1.000922329,-0.002933707,0.004138015,-0.002368735,0.000000000,0.000000000,0.000000000,0.000000000,0.018292561,0.009289677,0.053903909,0.010845983,0.000508299,-0.001444809,0.003234707,0.000546487,0.001171640,-0.133066944,0.233370407,0.458446158,-0.001153068,-0.002041170,0.003998307,0.999988268,0.000000000,0.000000000,0.000000000,0.000000000,0.000000000,0.000000000,0.022768926,0.000000000,4.022011890
1772690026.006727457,0.018104000,0.009267000,0.053966000,-0.001315430,0.001198140,0.006223140,0.999979050,-0.002616000,0.002413000,0.012443000,0.001485925,-0.001583162,-0.000412976,-0.009114377,0.049127176,-0.008519200,0.008270234,-0.001088090,1.000096585,-0.004082386,0.001091725,-0.003564811,0.000000000,0.000000000,0.000000000,0.000000000,0.018286291,0.009299131,0.053907204,0.010885488,0.000616629,-0.001326925,0.004113060,0.001397719,0.000382656,-0.133730121,0.232154058,0.457743506,-0.001158910,-0.002030571,0.003992176,0.999988317,0.000000000,0.000000000,0.000000000,0.000000000,0.000000000,0.000000000,0.022768926,0.000000000,4.022287369
1772690026.016727448,0.018100000,0.009258000,0.053973000,-0.001338510,0.000916000,0.006270580,0.999979020,-0.002665000,0.001849000,0.012539000,-0.000154849,-0.000480339,-0.000183674,-0.007320689,0.036335635,-0.002945214,0.008682895,-0.001350150,0.999529434,0.001719256,-0.002436846,-0.004329142,0.000000000,0.000000000,0.000000000,0.000000000,0.018285041,0.009304132,0.053915148,0.010997316,0.000729287,-0.001249031,0.004379669,0.001139516,-0.000847838,-0.133903468,0.231939292,0.456541812,-0.001160451,-0.002028691,0.003981688,0.999988323,0.000000000,0.000000000,0.000000000,0.000000000,0.000000000,0.000000000,0.022768926,0.000000000,4.022287369
1772690026.026728392,0.018141000,0.009223000,0.053906000,-0.001373650,0.003512360,0.006024750,0.999974740,-0.002705000,0.007041000,0.012040000,-0.000697326,0.000230156,-0.001048766,-0.005101950,0.061531323,-0.002341003,0.007082552,-0.002218914,0.999117201,-0.002066418,-0.001773638,-0.000208908,0.000000000,0.000000000,0.000000000,0.000000000,0.018296516,0.009297268,0.053927002,0.011108134,0.000763063,-0.001232851,0.003466230,0.000810818,-0.000913254,-0.132844124,0.232370665,0.455322169,-0.001151214,-0.002032406,0.003971060,0.999988377,0.000000000,0.000000000,0.000000000,0.000000000,0.000000000,0.000000000,0.022768926,0.000000000,4.022287369
1772690026.036728859,0.018082000,0.009271000,0.053933000,-0.001460160,0.002653690,0.006128860,0.999976630,-0.002888000,0.005325000,0.012250000,-0.000956055,0.000921558,-0.000679572,-0.000336946,0.038214048,-0.000872481,0.006325725,-0.002677012,1.000324067,-0.003608874,0.001509067,0.002356993,0.000000000,0.000000000,0.000000000,0.000000000,0.018306403,0.009285892,0.053938184,0.011078492,0.000701340,-0.001155804,0.002493261,0.000030477,-0.000038891,-0.133275134,0.232851014,0.455239056,-0.001154959,-0.002036612,0.003970322,0.999988377,0.000000000,0.000000000,0.000000000,0.000000000,0.000000000,0.000000000,0.022768926,0.000000000,4.022287369
1772690026.046729803,0.018060000,0.009284000,0.053939000,-0.001405430,0.001868630,0.006227900,0.999977870,-0.002788000,0.003755000,0.012451000,-0.000177167,0.000452543,-0.000695985,0.001880062,0.051791621,-0.006409832,0.007269097,-0.002034808,0.999888569,-0.000764151,0.003238740,-0.000247769,0.000000000,0.000000000,0.000000000,0.000000000,0.018323233,0.009267773,0.053924080,0.011112135,0.000626702,-0.001170314,0.003747909,-0.000055269,0.000564849,-0.133698520,0.232008140,0.455388488,-0.001158681,-0.002029273,0.003971627,0.999988377,0.000000000,0.000000000,0.000000000,0.000000000,0.000000000,0.000000000,0.022768926,0.000000000,4.022287369
1772690026.056730032,0.018052000,0.009302000,0.053939000,-0.001357200,0.001559730,0.006339750,0.999977770,-0.002695000,0.003137000,0.012675000,0.000533075,-0.000036964,0.000050542,0.005361497,0.043401604,-0.007086550,0.008909286,-0.003390270,1.001612969,0.000347969,-0.001414607,-0.003394865,0.000000000,0.000000000,0.000000000,0.000000000,0.018324190,0.009264458,0.053911516,0.011205284,0.000577317,-0.001089523,0.003614740,0.000569497,0.001386885,-0.133778753,0.232597374,0.455221794,-0.001159364,-0.002034416,0.003970165,0.999988377,0.000000000,0.000000000,0.000000000,0.000000000,0.000000000,0.000000000,0.022768926,0.000000000,4.022287369
1772690026.066730738,0.018126000,0.009251000,0.053887000,-0.001358280,0.004106030,0.005870200,0.999973420,-0.002668000,0.008228000,0.011730000,0.001488004,-0.000996146,-0.000052523,0.005552583,0.079942565,-0.012881480,0.007120584,-0.000027003,1.000378617,0.001343888,-0.000597976,-0.001709740,0.000000000,0.000000000,0.000000000,0.000000000,0.018327501,0.009287188,0.053917286,0.010546088,0.001037606,-0.000708658,0.002046007,0.003220706,-0.000456292,-0.132458550,0.241715605,0.453966315,-0.001147550,-0.002113929,0.003959140,0.999988351,0.000000000,0.000000000,0.000000000,0.000000000,0.000000000,0.000000000,0.022768926,0.000000000,4.022287369
1772690026.076731443,0.018108000,0.009266000,0.053955000,-0.001309010,0.002921670,0.006007120,0.999976830,-0.002583000,0.005859000,0.012007000,0.001763651,-0.001368118,-0.000641811,0.005975424,0.148526344,-0.018740821,0.007521063,-0.001796687,0.999728460,-0.003118330,-0.002386220,0.000732612,0.000000000,0.000000000,0.000000000,0.000000000,0.018268146,0.009270894,0.053913114,0.010372635,0.001180780,-0.000725784,0.002790257,0.000292951,-0.000356767,-0.131570396,0.241540902,0.452983144,-0.001139823,-0.002112363,0.003950578,0.999988324,0.000000000,0.000000000,0.000000000,0.000000000,0.000000000,0.000000000,0.022768926,0.000000000,4.022119149
1772690026.086731911,0.018146000,0.009220000,0.053895000,-0.001356660,0.004850670,0.005903090,0.999969890,-0.002656000,0.009717000,0.011793000,0.000132103,-0.000371894,0.000167572,0.002703044,0.076017614,-0.010197328,0.008284598,-0.002542334,0.999393450,-0.000644884,0.002464875,0.003278729,0.000000000,0.000000000,0.000000000,0.000000000,0.018300305,0.009266150,0.053907852,0.010608877,0.001154699,-0.000752877,0.003570667,-0.000825710,-0.000734536,-0.132245881,0.241853298,0.452951132,-0.001145708,-0.002115113,0.003950283,0.999988317,0.000000000,0.000000000,0.000000000,0.000000000,0.000000000,0.000000000,0.022768926,0.000000000,4.021560259
1772690026.096732616,0.018105000,0.009262000,0.053943000,-0.001265440,0.003793450,0.005948800,0.999974310,-0.002486000,0.007602000,0.011888000,-0.000909340,0.000367970,0.000519265,0.000810848,-0.010001594,-0.002498118,0.007912144,-0.003000001,0.999291667,0.000137966,-0.001413123,-0.002224880,0.000000000,0.000000000,0.000000000,0.000000000,0.018313332,0.009268925,0.053908662,0.010802176,0.001110341,-0.000776911,0.003566494,0.000167418,-0.000705189,-0.133175338,0.240403791,0.453515284,-0.001153858,-0.002102501,0.003955204,0.999988317,0.000000000,0.000000000,0.000000000,0.000000000,0.000000000,0.000000000,0.022768926,0.000000000,4.021001356
1772690026.106733084,0.018135000,0.009231000,0.053894000,-0.001349220,0.005322160,0.005748850,0.999968400,-0.002637000,0.010660000,0.011484000,-0.000636392,0.000436907,-0.000300433,-0.002199035,-0.006199477,-0.000008892,0.008480004,-0.001909515,0.998926014,0.000144015,-0.000006090,0.000904755,0.000000000,0.000000000,0.000000000,0.000000000,0.018319840,0.009270072,0.053900412,0.010979473,0.001094631,-0.000840191,0.004440543,0.000100749,-0.000530959,-0.132948823,0.240583916,0.452356441,-0.001151897,-0.002104054,0.003945093,0.999988362,0.000000000,0.000000000,0.000000000,0.000000000,0.000000000,0.000000000,0.022768926,0.000000000,4.020442466
1772690026.116733551,0.018079000,0.009278000,0.053930000,-0.001271560,0.004193930,0.005924610,0.999972850,-0.002493000,0.008403000,0.011839000,0.000190259,0.000133366,-0.000745925,-0.006340139,0.045799162,-0.007212169,0.008574105,-0.002740104,0.999795398,-0.001021302,-0.000595398,-0.000094178,0.000000000,0.000000000,0.000000000,0.000000000,0.018305237,0.009284693,0.053912533,0.011095189,0.001128692,-0.000811769,0.004070912,-0.000144966,-0.000360835,-0.132870598,0.239722190,0.452463113,-0.001151242,-0.002096532,0.003946034,0.999988377,0.000000000,0.000000000,0.000000000,0.000000000,0.000000000,0.000000000,0.022768926,0.000000000,4.019883576
1772690026.126734257,0.018077000,0.009273000,0.053948000,-0.001365150,0.002881150,0.005978240,0.999977050,-0.002696000,0.005779000,0.011949000,0.000257622,0.000234430,0.000046579,-0.008272367,0.027431405,-0.000940615,0.008260312,-0.002904683,0.998309745,0.000582671,-0.000941772,0.002194056,0.000000000,0.000000000,0.000000000,0.000000000,0.018316779,0.009281293,0.053908143,0.011273351,0.001051073,-0.000874402,0.003626106,-0.000542129,-0.001109625,-0.134010268,0.240120460,0.452327590,-0.001161176,-0.002100046,0.003944827,0.999988324,0.000000000,0.000000000,0.000000000,0.000000000,0.000000000,0.000000000,0.022768926,0.000000000,4.019324673
1772690026.136734724,0.018136000,0.009244000,0.053897000,-0.001399800,0.004693820,0.005771860,0.999971350,-0.002745000,0.009404000,0.011531000,0.000050075,0.000158268,0.000485894,-0.007617355,-0.012664312,0.009341690,0.005252392,-0.002642952,0.999474792,-0.001423704,0.004980819,0.002456998,0.000000000,0.000000000,0.000000000,0.000000000,0.018348144,0.009265996,0.053879651,0.011351027,0.000953667,-0.001094068,0.001497171,-0.000565066,-0.000177494,-0.134380599,0.238583366,0.452576265,-0.001164456,-0.002086647,0.003947006,0.999988328,0.000000000,0.000000000,0.000000000,0.000000000,0.000000000,0.000000000,0.022768926,0.000000000,4.018765783
1772690026.146735907,0.018152000,0.009234000,0.053874000,-0.001463090,0.006224280,0.005785940,0.999962820,-0.002854000,0.012465000,0.011554000,-0.000165824,0.000068470,0.000528103,0.000955420,-0.047382537,0.011347551,0.006095166,-0.002689322,0.999545543,0.001422243,-0.000823089,0.003389041,0.000000000,0.000000000,0.000000000,0.000000000,0.018330120,0.009279896,0.053906869,0.011116202,0.000859986,-0.000888825,0.002079764,-0.000385410,-0.000799965,-0.134519981,0.236844631,0.453850898,-0.001165709,-0.002071492,0.003958145,0.999988353,0.000000000,0.000000000,0.000000000,0.000000000,0.000000000,0.000000000,0.022768926,0.000000000,4.018206854
1772690026.156737089,0.018095000,0.009276000,0.053951000,-0.001455570,0.004404180,0.005941190,0.999971590,-0.002859000,0.008826000,0.011870000,-0.000500948,0.000173321,0.000267198,0.009737599,-0.072690017,0.012919909,0.007582822,-0.002231425,0.999981752,0.000365797,0.000210471,-0.000476330,0.000000000,0.000000000,0.000000000,0.000000000,0.018312793,0.009285721,0.053921343,0.011049662,0.000858631,-0.000895336,0.004130499,-0.000382791,-0.000808538,-0.134336741,0.236801676,0.454722872,-0.001164096,-0.002071119,0.003965758,0.999988317,0.000000000,0.000000000,0.000000000,0.000000000,0.000000000,0.000000000,0.022768926,0.000000000,4.017647924
1772690026.166737080,0.018086000,0.009274000,0.053950000,-0.001361770,0.003170290,0.006149050,0.999975140,-0.002685000,0.006357000,0.012290000,-0.001132057,0.000582296,0.000294994,0.016176723,-0.108961380,0.013736140,0.007744338,-0.002153752,0.999924711,0.000379199,0.002498601,0.000216786,0.000000000,0.000000000,0.000000000,0.000000000,0.018301572,0.009287152,0.053924006,0.011087463,0.000834066,-0.000848554,0.004682480,0.000204851,0.000230540,-0.134680329,0.236203269,0.454605263,-0.001167117,-0.002065908,0.003964732,0.999988317,0.000000000,0.000000000,0.000000000,0.000000000,0.000000000,0.000000000,0.022768926,0.000000000,4.017089061
1772690026.176737547,0.018072000,0.009275000,0.053949000,-0.001244550,0.002014400,0.006228040,0.999977800,-0.002464000,0.004044000,0.012451000,-0.000316788,-0.000081251,-0.000524432,0.012379442,-0.048259168,0.000851256,0.007551585,-0.001946994,0.999172072,-0.000518794,0.004753659,0.001833951,0.000000000,0.000000000,0.000000000,0.000000000,0.018316080,0.009273837,0.053897505,0.011217517,0.000803127,-0.000944176,0.003463008,0.000025357,0.000234386,-0.134920203,0.235662534,0.454511653,-0.001169231,-0.002061197,0.003963916,0.999988320,0.000000000,0.000000000,0.000000000,0.000000000,0.000000000,0.000000000,0.022768926,0.000000000,4.017307243
1772690026.186738491,0.018119000,0.009240000,0.053879000,-0.001120060,0.004031580,0.005918400,0.999973730,-0.002192000,0.008076000,0.011828000,0.000874629,-0.000638063,-0.001492549,0.003104485,0.080268234,-0.012242817,0.007494726,-0.002261539,0.999491395,-0.000791524,0.003432251,0.001715696,0.000000000,0.000000000,0.000000000,0.000000000,0.018317286,0.009273472,0.053893726,0.011236949,0.000789147,-0.000944383,0.002764662,-0.000418756,0.000034258,-0.135036163,0.235277691,0.454561872,-0.001170255,-0.002057843,0.003964356,0.999988331,0.000000000,0.000000000,0.000000000,0.000000000,0.000000000,0.000000000,0.022768926,0.000000000,4.017655783
1772690026.196738482,0.018080000,0.009287000,0.053928000,-0.001153900,0.002926290,0.006127500,0.999976280,-0.002272000,0.005867000,0.012248000,0.001232227,-0.000651543,-0.001213793,-0.009031739,0.153164244,-0.014375108,0.007437873,-0.002576054,0.999810688,-0.001064229,0.002110968,0.001597454,0.000000000,0.000000000,0.000000000,0.000000000,0.018315258,0.009276257,0.053895471,0.011229484,0.000779292,-0.000921393,0.003035755,-0.000786350,0.000044986,-0.135152113,0.234892885,0.454612086,-0.001171279,-0.002054489,0.003964796,0.999988341,0.000000000,0.000000000,0.000000000,0.000000000,0.000000000,0.000000000,0.022768926,0.000000000,4.018004290
1772690026.206739187,0.018124000,0.009243000,0.053886000,-0.001316460,0.004844560,0.005850770,0.999970280,-0.002576000,0.009704000,0.011689000,-0.000056369,0.000433857,0.000791202,-0.016427388,0.063474750,-0.000980861,0.007381016,-0.002890592,1.000130004,-0.001336953,0.000789591,0.001479202,0.000000000,0.000000000,0.000000000,0.000000000,0.018313229,0.009279041,0.053897216,0.011222019,0.000769437,-0.000898402,0.003306866,-0.001153971,0.000055715,-0.135268071,0.234508051,0.454662304,-0.001172304,-0.002051136,0.003965236,0.999988352,0.000000000,0.000000000,0.000000000,0.000000000,0.000000000,0.000000000,0.022768926,0.000000000,4.018352822
1772690026.216739416,0.018142000,0.009234000,0.053880000,-0.001453630,0.006288220,0.005748480,0.999962650,-0.002835000,0.012593000,0.011479000,-0.000303579,0.000534688,0.001034528,-0.016381377,-0.009526212,0.007223106,0.007324162,-0.003205114,1.000449305,-0.001609663,-0.000531723,0.001360957,0.000000000,0.000000000,0.000000000,0.000000000,0.018311201,0.009281825,0.053898962,0.011214554,0.000759582,-0.000875411,0.003577965,-0.001521574,0.000066443,-0.135384024,0.234123235,0.454712519,-0.001173328,-0.002047782,0.003965676,0.999988363,0.000000000,0.000000000,0.000000000,0.000000000,0.000000000,0.000000000,0.022768926,0.000000000,4.018701337
1772690026.226739645,0.018095000,0.009278000,0.053934000,-0.001501700,0.004502850,0.006078990,0.999970260,-0.002949000,0.009024000,0.012145000,-0.000551392,0.000479581,0.000862042,-0.011461355,-0.077273265,0.011743698,0.007267308,-0.003519637,1.000768606,-0.001882374,-0.001853037,0.001242711,0.000000000,0.000000000,0.000000000,0.000000000,0.018309172,0.009284609,0.053900707,0.011207090,0.000749727,-0.000852421,0.003849064,-0.001889177,0.000077172,-0.135504765,0.233760373,0.454761393,-0.001174393,-0.002044620,0.003966104,0.999988374,0.000000000,0.000000000,0.000000000,0.000000000,0.000000000,0.000000000,0.022768926,0.000000000,4.019049852
1772690026.236740112,0.018085000,0.009282000,0.053958000,-0.001490160,0.003167220,0.006177240,0.999974790,-0.002941000,0.006353000,0.012345000,-0.000479348,0.000245637,0.000198087,-0.003457593,-0.085299861,0.011049800,0.007563546,-0.004438980,0.999689246,-0.002279831,-0.000221471,0.000745340,0.000000000,0.000000000,0.000000000,0.000000000,0.018309739,0.009284925,0.053900094,0.011221515,0.000702712,-0.000842206,0.004120169,-0.002256788,0.000087900,-0.135727960,0.233867188,0.454781579,-0.001176337,-0.002045560,0.003966276,0.999988377,0.000000000,0.000000000,0.000000000,0.000000000,0.000000000,0.000000000,0.022768926,0.000000000,4.019398375
1772690026.246741056,0.018069000,0.009293000,0.053952000,-0.001430410,0.002207470,0.006268650,0.999976890,-0.002833000,0.004433000,0.012531000,-0.000633595,0.000423329,0.000413928,0.003149536,-0.120139559,0.011809753,0.007727140,-0.004523561,0.999265245,-0.000371162,-0.000287064,0.000692180,0.000000000,0.000000000,0.000000000,0.000000000,0.018326312,0.009270015,0.053884934,0.011370935,0.000426543,-0.000910777,0.004067703,-0.001851416,-0.000006421,-0.136501685,0.233621971,0.454295012,-0.001183106,-0.002043442,0.003962019,0.999988377,0.000000000,0.000000000,0.000000000,0.000000000,0.000000000,0.000000000,0.022768926,0.000000000,4.019746916
1772690026.256741285,0.018132000,0.009244000,0.053878000,-0.001452230,0.004174330,0.005948080,0.999972540,-0.002855000,0.008366000,0.011884000,-0.000008721,-0.000159996,0.000142612,0.006925860,-0.087507343,0.003238375,0.006889982,-0.003378495,0.999694953,0.000316698,-0.002006963,-0.001170137,0.000000000,0.000000000,0.000000000,0.000000000,0.018344530,0.009256070,0.053873869,0.011530081,0.000228858,-0.000959819,0.002495621,-0.000650317,-0.000733539,-0.136585594,0.233753370,0.454348409,-0.001183833,-0.002044592,0.003962482,0.999988377,0.000000000,0.000000000,0.000000000,0.000000000,0.000000000,0.000000000,0.022768926,0.000000000,4.020095431
1772690026.266742229,0.018088000,0.009272000,0.053930000,-0.001465280,0.002943620,0.006174610,0.999975530,-0.002894000,0.005905000,0.012341000,0.000288953,-0.000364901,0.000310572,0.007389806,-0.048458138,0.000335203,0.006159828,-0.002755732,0.999804521,-0.002387321,-0.001642313,-0.003394625,0.000000000,0.000000000,0.000000000,0.000000000,0.018335536,0.009265190,0.053889773,0.011416530,0.000243673,-0.000896400,0.002439420,0.000126596,-0.000869505,-0.136045783,0.234332351,0.454162509,-0.001179106,-0.002049624,0.003960863,0.999988377,0.000000000,0.000000000,0.000000000,0.000000000,0.000000000,0.000000000,0.022768926,0.000000000,4.020443971
1772690026.276742697,0.018080000,0.009279000,0.053950000,-0.001400450,0.002295120,0.006262650,0.999976770,-0.002772000,0.004608000,0.012519000,-0.000385122,0.000228350,0.000985677,0.006372043,-0.073553248,0.006144630,0.007755402,-0.003869116,0.999767699,-0.000847948,0.001004291,-0.000214695,0.000000000,0.000000000,0.000000000,0.000000000,0.018322637,0.009274828,0.053911816,0.011358180,0.000223701,-0.000803189,0.003190586,-0.000515002,-0.000148771,-0.136077466,0.234618307,0.453627603,-0.001179382,-0.002052115,0.003956191,0.999988375,0.000000000,0.000000000,0.000000000,0.000000000,0.000000000,0.000000000,0.022768926,0.000000000,4.020792494
1772690026.286743641,0.018095000,0.009273000,0.053959000,-0.001304430,0.001552240,0.006186910,0.999978810,-0.002590000,0.003121000,0.012370000,-0.000524024,0.000357695,0.001136233,0.005100342,-0.087503166,0.009658708,0.006834649,-0.003372709,1.001080299,-0.001640105,0.004320825,-0.003846699,0.000000000,0.000000000,0.000000000,0.000000000,0.018307708,0.009283897,0.053926944,0.011292417,0.000139128,-0.000670353,0.003119155,-0.000804296,0.000566403,-0.136485924,0.234263288,0.454412176,-0.001182944,-0.002049039,0.003963034,0.999988319,0.000000000,0.000000000,0.000000000,0.000000000,0.000000000,0.000000000,0.022768926,0.000000000,4.021141034
1772690026.296743870,0.018085000,0.009276000,0.053967000,-0.001286380,0.001303120,0.006275350,0.999978630,-0.002556000,0.002622000,0.012547000,-0.000593834,0.000371214,0.000389667,0.004693093,-0.076109693,0.009989008,0.007770729,-0.000867942,0.999697362,0.001735490,0.003260536,0.001838702,0.000000000,0.000000000,0.000000000,0.000000000,0.018321940,0.009270952,0.053904206,0.011346971,0.000112078,-0.000716745,0.003870817,0.001843968,-0.000241706,-0.136138751,0.232923624,0.453506884,-0.001179977,-0.002037327,0.003955154,0.999988386,0.000000000,0.000000000,0.000000000,0.000000000,0.000000000,0.000000000,0.022768926,0.000000000,4.021489550
1772690026.306744337,0.018080000,0.009277000,0.053956000,-0.001326800,0.001495220,0.006322650,0.999978010,-0.002635000,0.003007000,0.012641000,0.000274210,-0.000112971,-0.000890129,0.002788110,-0.003464578,0.000595230,0.008911471,0.000378229,0.999842020,-0.003024728,-0.001408272,0.001252461,0.000000000,0.000000000,0.000000000,0.000000000,0.018319350,0.009271013,0.053905802,0.011471421,0.000389846,-0.000699088,0.004513733,0.003117869,0.000279510,-0.135865474,0.232018121,0.454200774,-0.001177611,-0.002029423,0.003961224,0.999988422,0.000000000,0.000000000,0.000000000,0.000000000,0.000000000,0.000000000,0.022768926,0.000000000,4.021838073
1772690026.316745281,0.018070000,0.009286000,0.053947000,-0.001318370,0.001236180,0.006301630,0.999978510,-0.002621000,0.002489000,0.012600000,0.000052057,-0.000114622,-0.000672113,-0.000935243,0.004459704,-0.000336442,0.007954560,-0.002018932,0.999560459,0.000314836,-0.002054602,-0.000715546,0.000000000,0.000000000,0.000000000,0.000000000,0.018310672,0.009280069,0.053921844,0.011522400,0.000624552,-0.000587748,0.003910099,0.000798691,-0.000458109,-0.136886782,0.232479927,0.453572484,-0.001186519,-0.002033482,0.003955718,0.999988377,0.000000000,0.000000000,0.000000000,0.000000000,0.000000000,0.000000000,0.022768926,0.000000000,4.022186613
1772690026.326745272,0.018094000,0.009269000,0.053939000,-0.001300300,0.001467340,0.006322710,0.999978090,-0.002582000,0.002951000,0.012642000,0.000285690,-0.000321760,-0.000252455,0.000105744,0.006902557,-0.003512078,0.008311732,-0.003030073,0.999705946,0.001403805,0.001310091,-0.000866794,0.000000000,0.000000000,0.000000000,0.000000000,0.018314092,0.009282787,0.053936679,0.011565172,0.000529880,-0.000573529,0.004519137,-0.000259583,-0.000156827,-0.137225663,0.232498313,0.452123584,-0.001189502,-0.002033639,0.003943068,0.999988420,0.000000000,0.000000000,0.000000000,0.000000000,0.000000000,0.000000000,0.022768926,0.000000000,4.022287369
1772690026.336746454,0.018081000,0.009277000,0.053933000,-0.001265890,0.001328480,0.006280030,0.999978600,-0.002515000,0.002673000,0.012557000,0.000381373,-0.000336950,0.000365037,0.003692136,-0.002440698,-0.009398046,0.008686644,-0.001798474,0.999962941,0.002152082,-0.001449057,-0.001735598,0.000000000,0.000000000,0.000000000,0.000000000,0.018310431,0.009284646,0.053947183,0.011672687,0.000521832,-0.000500054,0.004403658,-0.000223382,-0.000728143,-0.136588237,0.232766035,0.451098891,-0.001183948,-0.002035943,0.003934134,0.999988496,0.000000000,0.000000000,0.000000000,0.000000000,0.000000000,0.000000000,0.022768926,0.000000000,4.022287369
1772690026.346746683,0.018100000,0.009272000,0.053947000,-0.001284450,0.001495590,0.006190880,0.999978890,-0.002550000,0.003007000,0.012378000,0.000068198,-0.000014393,0.000704454,0.003605583,-0.003499707,-0.008162844,0.008285075,0.000628100,1.001093460,0.002418148,0.001416806,0.001286924,0.000000000,0.000000000,0.000000000,0.000000000,0.018305473,0.009288618,0.053945101,0.011726170,0.000680320,-0.000443428,0.003758355,0.003271159,0.001257453,-0.135363949,0.233966036,0.450116672,-0.001173240,-0.002046362,0.003925573,0.999988496,0.000000000,0.000000000,0.000000000,0.000000000,0.000000000,0.000000000,0.022768926,0.000000000,4.022287369
