t,px,py,pz,qx,qy,qz,qw,roll,pitch,yaw,vx,vy,vz,wx_vicon,wy_vicon,wz_vicon,imu_acc_x,imu_acc_y,imu_acc_z,imu_gyro_x,imu_gyro_y,imu_gyro_z,motor_motor_m1,motor_motor_m2,motor_motor_m3,motor_motor_m4,est_stateEstimate_x,est_stateEstimate_y,est_stateEstimate_z,est_stateEstimate_vx,est_stateEstimate_vy,est_stateEstimate_vz,est_stateEstimate_ax,est_stateEstimate_ay,est_stateEstimate_az,att_stateEstimate_roll,att_stateEstimate_pitch,att_stateEstimate_yaw,att_stateEstimate_qx,att_stateEstimate_qy,att_stateEstimate_qz,att_stateEstimate_qw,sp_ctrltarget_x,sp_ctrltarget_y,sp_ctrltarget_z,sp_ctrltarget_yaw,pid_controller_roll,pid_controller_pitch,pid_controller_yaw,pid_controller_cmd_thrust,pwr_pm_vbat
1772725297.440031528,0.016091000,0.009310000,0.071080000,0.003653750,-0.005968740,0.013011050,-0.999890860,-0.007463000,0.011841000,-0.026068000,-0.002339163,0.002267737,-0.001830829,0.132565542,-0.204995004,-0.081141235,0.009982916,-0.009861088,0.999523765,-0.000103153,-0.002041908,-0.001022055,0.000000000,0.000000000,0.000000000,0.000000000,0.016598225,0.009084299,0.071221954,0.024861663,0.000385962,0.000428781,0.007342932,-0.003074271,-0.000397044,-0.442823522,0.132608983,-0.922248179,-0.003873537,-0.001126086,-0.008052446,0.999958499,0.000000000,0.000000000,0.000000000,0.000000000,0.000000000,0.000000000,1.370361328,0.000000000,4.164809227
1772725297.450032234,0.016067000,0.009312000,0.071076000,0.003853660,-0.006337360,0.012839750,-0.999890060,-0.007870000,0.012575000,-0.025730000,0.001140794,-0.008524464,0.005147499,-0.143478598,0.221359054,0.073052573,0.009362874,-0.008514671,1.000058366,0.000494543,0.000601926,-0.001669275,0.000000000,0.000000000,0.000000000,0.000000000,0.016576673,0.009192330,0.071165625,0.024815094,0.000577650,0.000145352,0.007225673,-0.001412838,0.000042955,-0.442295806,0.132747611,-0.921127951,-0.003868930,-0.001127371,-0.008042670,0.999958634,0.000000000,0.000000000,0.000000000,0.000000000,0.000000000,0.000000000,1.370361328,0.000000000,4.164809227
1772725297.460031986,0.016084000,0.009312000,0.071060000,0.003743280,-0.006045310,0.012754740,-0.999893370,-0.007641000,0.011994000,-0.025557000,0.002538231,-0.011875516,0.007209389,-0.256271040,0.398401669,0.145989452,0.009194848,-0.007193029,0.999896548,0.001101726,0.000494932,-0.000477965,0.000000000,0.000000000,0.000000000,0.000000000,0.016562697,0.009269246,0.071117501,0.024730999,0.000785082,-0.000064688,0.007101193,0.000611528,-0.000638233,-0.441959858,0.133225070,-0.919778282,-0.003866019,-0.001131606,-0.008030905,0.999958647,0.000000000,0.000000000,0.000000000,0.000000000,0.000000000,0.000000000,1.370361328,0.000000000,4.164809227
1772725297.470031977,0.016152000,0.008886000,0.071371000,0.007139320,-0.011558330,0.011433990,-0.999842340,-0.014545000,0.022952000,-0.023038000,0.002418184,-0.009979128,0.005843654,-0.250436089,0.392585306,0.157387844,0.008332159,-0.007116954,0.999694600,0.000511338,0.001835809,0.000698729,0.000000000,0.000000000,0.000000000,0.000000000,0.016551402,0.009313326,0.071087856,0.024631983,0.000986453,-0.000207310,0.006129129,0.000509511,0.000273782,-0.442049663,0.133422447,-0.918613582,-0.003866805,-0.001133362,-0.008020748,0.999958775,0.000000000,0.000000000,0.000000000,0.000000000,0.000000000,0.000000000,1.370361328,0.000000000,4.164809227
1772725297.480031490,0.016158000,0.009000000,0.071239000,0.007082530,-0.011641010,0.010755510,-0.999849310,-0.014418000,0.023128000,-0.021680000,0.001345689,-0.005029006,0.002539105,-0.169181748,0.271230731,0.127044374,0.008812121,-0.008054881,1.000219432,-0.003746286,0.002000051,0.002070042,0.000000000,0.000000000,0.000000000,0.000000000,0.016536688,0.009326040,0.071085573,0.024435456,0.001036351,-0.000199321,0.006674899,0.000184428,0.000150423,-0.442393799,0.132408145,-0.916864482,-0.003869720,-0.001124546,-0.008005455,0.999958940,0.000000000,0.000000000,0.000000000,0.000000000,0.000000000,0.000000000,1.370361328,0.000000000,4.164809227
1772725297.490031719,0.016132000,0.009042000,0.071216000,0.007217510,-0.011730530,0.010382510,-0.999851240,-0.014681000,0.023310000,-0.020938000,-0.000114219,0.000781139,-0.001215444,-0.057345739,0.100605713,0.074794023,0.009638790,-0.008026110,0.999602399,-0.003440064,-0.003000034,-0.001184767,0.000000000,0.000000000,0.000000000,0.000000000,0.016528190,0.009324304,0.071083980,0.024329483,0.000971840,-0.000203131,0.006772217,-0.000713925,-0.000494246,-0.442403268,0.130319315,-0.914852950,-0.003869638,-0.001106385,-0.007987832,0.999959169,0.000000000,0.000000000,0.000000000,0.000000000,0.000000000,0.000000000,1.370361328,0.000000000,4.164809227
1772725297.500031948,0.016130000,0.009046000,0.071229000,0.007506840,-0.012253140,0.010363620,-0.999843040,-0.015270000,0.024349000,-0.020916000,-0.000980906,0.001958627,-0.001395689,-0.015696688,0.031125509,0.039045498,0.009960208,-0.007656186,1.000556708,-0.001744704,-0.003566481,-0.000527768,0.000000000,0.000000000,0.000000000,0.000000000,0.016512126,0.009319411,0.071103556,0.024253653,0.000860584,-0.000150704,0.008188595,0.000677738,0.000086681,-0.442093649,0.129897047,-0.912855656,-0.003866887,-0.001102789,-0.007970385,0.999959130,0.000000000,0.000000000,0.000000000,0.000000000,0.000000000,0.000000000,1.370361328,0.000000000,4.164809227
1772725297.510031939,0.016138000,0.009063000,0.071206000,0.007156240,-0.011926310,0.010143080,-0.999851820,-0.014557000,0.023706000,-0.020461000,-0.000717444,0.001283898,-0.000508936,-0.007924848,0.011001806,0.012416610,0.009872434,-0.008218029,1.000414863,0.001404407,0.000069772,-0.002846180,0.000000000,0.000000000,0.000000000,0.000000000,0.016522927,0.009314682,0.071100459,0.024334439,0.000791741,-0.000074549,0.007716044,-0.000966899,0.000674302,-0.442552567,0.132247195,-0.910243690,-0.003871029,-0.001123354,-0.007947676,0.999959248,0.000000000,0.000000000,0.000000000,0.000000000,0.000000000,0.000000000,1.370361328,0.000000000,4.164809227
1772725297.520031691,0.016099000,0.009068000,0.071209000,0.007415360,-0.012159740,0.010204960,-0.999846490,-0.015082000,0.024167000,-0.020595000,0.000361422,-0.003894584,0.003011988,-0.073251829,0.108103893,0.029179142,0.011313673,-0.008647925,0.999932753,0.000036237,0.001224985,0.001447704,0.000000000,0.000000000,0.000000000,0.000000000,0.016527969,0.009311907,0.071098429,0.024424946,0.000674024,-0.000040479,0.008633370,-0.001190479,-0.000208509,-0.442352859,0.131889402,-0.909375408,-0.003869254,-0.001120275,-0.007940085,0.999959391,0.000000000,0.000000000,0.000000000,0.000000000,0.000000000,0.000000000,1.370361328,0.000000000,4.164809227
1772725297.530031681,0.016122000,0.009083000,0.071190000,0.007156320,-0.011800570,0.010183210,-0.999852910,-0.014555000,0.023454000,-0.020539000,0.000366667,-0.001939726,0.001495767,-0.057780382,0.082210805,0.022667784,0.009972543,-0.009962295,0.999044666,0.000156095,-0.000608486,0.001506140,0.000000000,0.000000000,0.000000000,0.000000000,0.016520645,0.009314297,0.071100669,0.024505522,0.000505337,-0.000048884,0.007244276,-0.003275396,-0.000438172,-0.441645205,0.130621582,-0.906298697,-0.003862960,-0.001109364,-0.007913185,0.999959594,0.000000000,0.000000000,0.000000000,0.000000000,0.000000000,0.000000000,1.370361328,0.000000000,4.164809227
1772725297.540031433,0.016140000,0.008861000,0.071378000,0.009094230,-0.014657920,0.009746230,-0.999803710,-0.018479000,0.029137000,-0.019765000,-0.000289297,0.001747884,-0.000616726,-0.003236534,-0.007277674,-0.009818342,0.008380632,-0.008964307,0.999258819,-0.001011453,0.000935228,0.000770543,0.000000000,0.000000000,0.000000000,0.000000000,0.016519329,0.009314938,0.071098501,0.024440339,0.000197801,-0.000147904,0.005666447,-0.001068626,-0.001113088,-0.441684448,0.130357742,-0.905714398,-0.003863279,-0.001107079,-0.007908079,0.999959707,0.000000000,0.000000000,0.000000000,0.000000000,0.000000000,0.000000000,1.370361328,0.000000000,4.164809227
1772725297.550031424,0.016144000,0.009018000,0.071246000,0.008347490,-0.013560940,0.009860060,-0.999824580,-0.016966000,0.026956000,-0.019952000,-0.000763734,0.005776074,-0.003153053,0.077484444,-0.122354776,-0.059069798,0.009057380,-0.007765424,1.000600477,-0.000476329,-0.001127378,0.002936346,0.000000000,0.000000000,0.000000000,0.000000000,0.016511390,0.009311946,0.071102552,0.024257038,0.000087616,-0.000206530,0.007104069,0.000043515,0.000285784,-0.441711038,0.130178973,-0.905318499,-0.003863495,-0.001105530,-0.007904619,0.999959730,0.000000000,0.000000000,0.000000000,0.000000000,0.000000000,0.000000000,1.370361328,0.000000000,4.164809227
1772725297.560031176,0.016120000,0.009065000,0.071208000,0.007644540,-0.012425240,0.009998710,-0.999843590,-0.015541000,0.024696000,-0.020192000,-0.001394446,0.008770871,-0.005064030,0.160740776,-0.240653907,-0.106830155,0.010386346,-0.008417071,1.000820174,-0.000327484,-0.002527572,0.001039821,0.000000000,0.000000000,0.000000000,0.000000000,0.016513753,0.009317098,0.071091103,0.024227963,0.000090415,-0.000183976,0.008293146,-0.001117071,0.001151937,-0.440903789,0.130497329,-0.902545599,-0.003856446,-0.001108457,-0.007880425,0.999959865,0.000000000,0.000000000,0.000000000,0.000000000,0.000000000,0.000000000,1.370361328,0.000000000,4.164809227
1772725297.570030689,0.016075000,0.009285000,0.071111000,0.006196640,-0.010124260,0.011281190,-0.999865910,-0.012623000,0.020107000,-0.022691000,-0.001959209,0.009315316,-0.005718051,0.213004553,-0.317031441,-0.136733211,0.010147416,-0.008697691,0.999475626,-0.002244937,-0.003297676,0.000280536,0.000000000,0.000000000,0.000000000,0.000000000,0.016527320,0.009258953,0.071124408,0.024315089,-0.000172509,0.000041201,0.007215734,-0.000544843,-0.000891352,-0.440519691,0.130648807,-0.901226223,-0.003853092,-0.001109850,-0.007868914,0.999960018,0.000000000,0.000000000,0.000000000,0.000000000,0.000000000,0.000000000,1.370361328,0.000000000,4.164809227
1772725297.580029964,0.016072000,0.009325000,0.071076000,0.005118060,-0.008460650,0.012014630,-0.999878930,-0.010440000,0.016797000,-0.024119000,-0.001770903,0.007042917,-0.004213058,0.207879534,-0.307821507,-0.138948927,0.008533052,-0.008522131,0.998516610,-0.002961417,-0.004026694,0.002144912,0.000000000,0.000000000,0.000000000,0.000000000,0.016563344,0.009103051,0.071230649,0.024530256,-0.000736141,0.000476601,0.006530620,-0.000470378,-0.000977123,-0.440773576,0.130298553,-0.898797107,-0.003855260,-0.001106858,-0.007847707,0.999960160,0.000000000,0.000000000,0.000000000,0.000000000,0.000000000,0.000000000,1.370361328,0.000000000,4.164809227
1772725297.590029716,0.016070000,0.009340000,0.071057000,0.004438310,-0.007629600,0.012521620,-0.999882640,-0.009068000,0.015147000,-0.025114000,-0.001507266,0.001661132,-0.000200156,0.115992420,-0.173939195,-0.111988806,0.008556548,-0.008426006,0.999910841,-0.000975960,-0.000527247,0.003865011,0.000000000,0.000000000,0.000000000,0.000000000,0.016582604,0.009055933,0.071248454,0.024559109,-0.000904043,0.000441602,0.006037484,-0.000864227,-0.000122075,-0.441284776,0.129593313,-0.893906057,-0.003859625,-0.001100833,-0.007805007,0.999960399,0.000000000,0.000000000,0.000000000,0.000000000,0.000000000,0.000000000,1.370361328,0.000000000,4.164809227
1772725297.600029707,0.016048000,0.009322000,0.071088000,0.004205040,-0.007073690,0.012924360,-0.999882610,-0.008593000,0.014037000,-0.025911000,-0.000652623,-0.000633781,0.000828672,0.053244797,-0.075560262,-0.071437702,0.007722467,-0.008719961,1.001505983,0.003667017,-0.002200753,0.000826741,0.000000000,0.000000000,0.000000000,0.000000000,0.016601134,0.009039394,0.071233950,0.024547967,-0.000978172,0.000358869,0.005666761,-0.000955355,0.000390823,-0.441239981,0.129657498,-0.893902744,-0.003859239,-0.001101396,-0.007804980,0.999960482,0.000000000,0.000000000,0.000000000,0.000000000,0.000000000,0.000000000,1.370361328,0.000000000,4.164809227
1772725297.610029221,0.016053000,0.009304000,0.071081000,0.003870730,-0.006617290,0.012982800,-0.999886330,-0.007913000,0.013133000,-0.026019000,-0.000033372,-0.002180791,0.001469582,0.000282140,0.001889659,-0.029725416,0.008048894,-0.007954751,0.999393512,0.001321116,0.000782494,0.000138530,0.000000000,0.000000000,0.000000000,0.000000000,0.016605071,0.009038967,0.071226669,0.024453310,-0.000961458,0.000384314,0.005671470,-0.000380694,-0.000029347,-0.440700264,0.130430838,-0.893862831,-0.003854581,-0.001108183,-0.007804652,0.999960482,0.000000000,0.000000000,0.000000000,0.000000000,0.000000000,0.000000000,1.370361328,0.000000000,4.164809227
1772725297.620028734,0.016033000,0.009300000,0.071122000,0.004325700,-0.007250450,0.013289220,-0.999876050,-0.008844000,0.014385000,-0.026644000,-0.000014336,-0.001047573,0.000960549,-0.025847373,0.037024591,-0.016704713,0.008341412,-0.008402042,1.000046417,0.000534100,-0.000290491,-0.002047222,0.000000000,0.000000000,0.000000000,0.000000000,0.016619671,0.009043819,0.071220169,0.024380444,-0.000934148,0.000312834,0.006038720,-0.001204243,-0.000445741,-0.440668195,0.130476788,-0.893860459,-0.003854305,-0.001108586,-0.007804633,0.999960514,0.000000000,0.000000000,0.000000000,0.000000000,0.000000000,0.000000000,1.370361328,0.000000000,4.164809227
1772725297.630028725,0.016034000,0.009297000,0.071115000,0.004457930,-0.007476250,0.013385280,-0.999872530,-0.009116000,0.014832000,-0.026840000,0.000388792,-0.000305944,0.000128400,-0.026342881,0.034135603,0.000993038,0.009913962,-0.008260282,1.001040306,0.000542575,-0.000400703,-0.001070762,0.000000000,0.000000000,0.000000000,0.000000000,0.016614243,0.009048972,0.071217736,0.024286535,-0.000922101,0.000293883,0.007605991,-0.000838355,0.000988076,-0.439637599,0.130842230,-0.894013212,-0.003845338,-0.001111840,-0.007805969,0.999960568,0.000000000,0.000000000,0.000000000,0.000000000,0.000000000,0.000000000,1.370361328,0.000000000,4.164809227
1772725297.640028238,0.016076000,0.009295000,0.071093000,0.004287080,-0.007359050,0.013169160,-0.999877010,-0.008768000,0.014604000,-0.026404000,0.000234654,0.000090113,-0.000158372,-0.027302484,0.023635320,0.009861424,0.010833271,-0.006502186,1.001342428,0.001430090,0.000936401,0.000615839,0.000000000,0.000000000,0.000000000,0.000000000,0.016604600,0.009000307,0.071264432,0.024318347,-0.001022234,0.000610905,0.008286165,0.001243794,0.001909854,-0.439574008,0.130346358,-0.893321151,-0.003844742,-0.001107541,-0.007799912,0.999960673,0.000000000,0.000000000,0.000000000,0.000000000,0.000000000,0.000000000,1.370361328,0.000000000,4.164809227
1772725297.650027990,0.016058000,0.009296000,0.071099000,0.004526020,-0.007439430,0.013156680,-0.999875530,-0.009248000,0.014758000,-0.026383000,-0.000074514,0.000335587,-0.000109907,-0.019803029,0.005170874,0.014064889,0.010739639,-0.008290266,0.999458943,-0.000202439,-0.003746345,-0.001262042,0.000000000,0.000000000,0.000000000,0.000000000,0.016601378,0.008964541,0.071302618,0.024487556,-0.000995477,0.000857523,0.008879985,-0.000850356,-0.000524007,-0.438544685,0.129696868,-0.891773134,-0.003835701,-0.001101995,-0.007786373,0.999960803,0.000000000,0.000000000,0.000000000,0.000000000,0.000000000,0.000000000,1.370361328,0.000000000,4.164809227
1772725297.660027981,0.016041000,0.009303000,0.071105000,0.004695160,-0.007606050,0.013141360,-0.999873700,-0.009590000,0.015087000,-0.026357000,-0.000746543,0.002788542,-0.001936715,0.029076746,-0.069618110,0.002205690,0.009799934,-0.008807544,0.998992199,0.000110339,-0.004330787,-0.004189497,0.000000000,0.000000000,0.000000000,0.000000000,0.016594963,0.008994387,0.071284982,0.024621460,-0.000852810,0.000685157,0.007682439,-0.002147452,-0.001814082,-0.437205035,0.130346402,-0.891005689,-0.003824047,-0.001107780,-0.007779684,0.999960821,0.000000000,0.000000000,0.000000000,0.000000000,0.000000000,0.000000000,1.370361328,0.000000000,4.164809227
1772725297.670027494,0.016054000,0.009313000,0.071091000,0.004469080,-0.007075930,0.012888440,-0.999881920,-0.009121000,0.014035000,-0.025843000,-0.000445241,-0.000111344,0.000433664,-0.004530936,-0.020779553,0.012991450,0.009610402,-0.007354823,1.000340449,-0.000236970,-0.000640422,-0.000077551,0.000000000,0.000000000,0.000000000,0.000000000,0.016599242,0.009026976,0.071259429,0.024695723,-0.000775611,0.000438322,0.007090141,0.000479637,0.000154948,-0.437253457,0.131126916,-0.890696756,-0.003824520,-0.001114598,-0.007777014,0.999960814,0.000000000,0.000000000,0.000000000,0.000000000,0.000000000,0.000000000,1.370361328,0.000000000,4.164809227
1772725297.680027246,0.016028000,0.009299000,0.071119000,0.004857870,-0.007388620,0.013021040,-0.999876120,-0.009908000,0.014649000,-0.026116000,0.000513520,-0.003988426,0.002870768,-0.064182862,0.083280097,0.044317646,0.010145917,-0.006383876,1.002497637,0.000121099,0.001316018,0.003169454,0.000000000,0.000000000,0.000000000,0.000000000,0.016610300,0.009048284,0.071237927,0.024753323,-0.000611314,0.000368789,0.008000696,0.000496884,0.002407498,-0.436810633,0.131677598,-0.890400841,-0.003820690,-0.001119443,-0.007774446,0.999960913,0.000000000,0.000000000,0.000000000,0.000000000,0.000000000,0.000000000,1.370361328,0.000000000,4.164809227
1772725297.690026760,0.016049000,0.009322000,0.071088000,0.004516470,-0.007249310,0.012830120,-0.999881210,-0.009219000,0.014382000,-0.025728000,0.002014979,-0.006908690,0.003900412,-0.111875391,0.175132322,0.090907006,0.010080973,-0.006034272,1.002883757,0.001735194,0.000498684,0.000886640,0.000000000,0.000000000,0.000000000,0.000000000,0.016612440,0.009056024,0.071227724,0.024843374,-0.000419527,0.000542458,0.008114223,0.002172214,0.002938192,-0.436013141,0.131771739,-0.889222549,-0.003813726,-0.001120358,-0.007764159,0.999961044,0.000000000,0.000000000,0.000000000,0.000000000,0.000000000,0.000000000,1.370361328,0.000000000,4.164809227
1772725297.700026751,0.016047000,0.009315000,0.071080000,0.004518840,-0.007039170,0.012655940,-0.999884920,-0.009216000,0.013963000,-0.025378000,0.002558608,-0.008022074,0.004125820,-0.143603381,0.236537924,0.124581510,0.009626928,-0.006788126,1.000926826,-0.000057402,0.000007591,-0.000879406,0.000000000,0.000000000,0.000000000,0.000000000,0.016610982,0.009053116,0.071237676,0.024903874,-0.000191595,0.000834295,0.007288478,0.000558573,0.001337515,-0.435576063,0.131037759,-0.886578530,-0.003809836,-0.001114070,-0.007741058,0.999961266,0.000000000,0.000000000,0.000000000,0.000000000,0.000000000,0.000000000,1.370361328,0.000000000,4.164809227
1772725297.710027218,0.016137000,0.008908000,0.071360000,0.007482010,-0.011702990,0.011062810,-0.999842320,-0.015225000,0.023239000,-0.022305000,0.002520515,-0.006953775,0.003160376,-0.135660610,0.233045627,0.141411950,0.010115536,-0.008686828,1.000620607,-0.001278182,0.000799299,-0.000683273,0.000000000,0.000000000,0.000000000,0.000000000,0.016611119,0.009061048,0.071232598,0.024919720,-0.000095790,0.000850806,0.008401222,-0.001263372,0.000494412,-0.435395880,0.130231891,-0.884843019,-0.003808193,-0.001107108,-0.007725885,0.999961323,0.000000000,0.000000000,0.000000000,0.000000000,0.000000000,0.000000000,1.370361328,0.000000000,4.164809227
1772725297.720027685,0.016131000,0.009013000,0.071260000,0.007441000,-0.012064760,0.010562050,-0.999843750,-0.015139000,0.023971000,-0.021308000,0.001725099,-0.003090271,0.000476729,-0.071420945,0.127638922,0.123642564,0.010387571,-0.009207604,0.999599156,0.002134331,-0.000486300,0.000478818,0.000000000,0.000000000,0.000000000,0.000000000,0.016614392,0.009059031,0.071231612,0.025025929,-0.000163561,0.000857576,0.008194884,-0.000642589,-0.000512600,-0.435209038,0.129997821,-0.884230582,-0.003806541,-0.001105098,-0.007720532,0.999961373,0.000000000,0.000000000,0.000000000,0.000000000,0.000000000,0.000000000,1.370361328,0.000000000,4.164809227
1772725297.730027199,0.016145000,0.009046000,0.071204000,0.007156920,-0.011634640,0.010054060,-0.999856150,-0.014550000,0.023124000,-0.020279000,0.000632382,-0.001562686,0.000340735,-0.048728156,0.078873987,0.086879612,0.009869204,-0.008447409,0.999429226,0.002590866,-0.000010983,0.002469343,0.000000000,0.000000000,0.000000000,0.000000000,0.016632147,0.008972844,0.071311128,0.025192809,-0.000473776,0.001120703,0.007781915,-0.001483610,-0.000608031,-0.434647098,0.130272575,-0.883500511,-0.003801648,-0.001107558,-0.007714164,0.999961376,0.000000000,0.000000000,0.000000000,0.000000000,0.000000000,0.000000000,1.370361328,0.000000000,4.164809227
1772725297.740027428,0.016133000,0.009058000,0.071214000,0.007103660,-0.011607870,0.009934770,-0.999858040,-0.014440000,0.023073000,-0.020038000,-0.000263986,0.000228322,-0.000059538,-0.031598822,0.042105104,0.041860758,0.010357055,-0.010023270,0.999800468,-0.002915141,0.000178212,0.001932652,0.000000000,0.000000000,0.000000000,0.000000000,0.016618903,0.008992311,0.071307283,0.025220491,-0.000503755,0.001030385,0.008053994,-0.002881668,0.000283510,-0.433596282,0.130657426,-0.883580241,-0.003792505,-0.001110984,-0.007714862,0.999961504,0.000000000,0.000000000,0.000000000,0.000000000,0.000000000,0.000000000,1.370361328,0.000000000,4.164809227
1772725297.750027418,0.016130000,0.009071000,0.071203000,0.006922550,-0.011183680,0.009805160,-0.999865420,-0.014066000,0.022230000,-0.019769000,-0.001087452,0.000751749,0.000295299,-0.036342195,0.033246659,0.000649832,0.010137621,-0.009485324,1.001078171,0.001879828,0.001071450,-0.001094004,0.000000000,0.000000000,0.000000000,0.000000000,0.016624895,0.009030080,0.071256836,0.025361647,-0.000532657,0.000798461,0.007829076,-0.002095935,0.000473032,-0.431649224,0.130707960,-0.882520954,-0.003775508,-0.001111591,-0.007705601,0.999961684,0.000000000,0.000000000,0.000000000,0.000000000,0.000000000,0.000000000,1.370361328,0.000000000,4.164809227
1772725297.760027647,0.016113000,0.009071000,0.071213000,0.007117300,-0.011212610,0.010043340,-0.999861370,-0.014462000,0.022281000,-0.020250000,-0.000389861,-0.001862414,0.002482598,-0.077578274,0.098989430,-0.008729014,0.008627134,-0.008035982,0.998733070,0.001446146,-0.002069515,-0.002827131,0.000000000,0.000000000,0.000000000,0.000000000,0.016628406,0.009049052,0.071238219,0.025399484,-0.000557325,0.000707609,0.006751022,-0.001419509,-0.000904338,-0.430985663,0.128976854,-0.880554629,-0.003769582,-0.001096594,-0.007688380,0.999961816,0.000000000,0.000000000,0.000000000,0.000000000,0.000000000,0.000000000,1.370361328,0.000000000,4.164809227
1772725297.770027637,0.016137000,0.008880000,0.071376000,0.009079460,-0.014299010,0.009646870,-0.999810000,-0.018440000,0.028421000,-0.019559000,-0.000056022,-0.000111461,0.000684771,-0.043134548,0.058627983,-0.016466712,0.009208464,-0.008938916,0.998443156,0.000848583,0.000707517,-0.001596463,0.000000000,0.000000000,0.000000000,0.000000000,0.016638764,0.009053420,0.071222119,0.025410858,-0.000597420,0.000506902,0.007212675,-0.001170359,-0.001338348,-0.430044215,0.129454079,-0.879788466,-0.003761392,-0.001100847,-0.007681701,0.999961814,0.000000000,0.000000000,0.000000000,0.000000000,0.000000000,0.000000000,1.370361328,0.000000000,4.164809227
1772725297.780027151,0.016113000,0.009019000,0.071270000,0.008640950,-0.013514580,0.009993970,-0.999821390,-0.017556000,0.026855000,-0.020227000,0.000332926,0.001093125,-0.000799360,0.005719269,-0.010651047,-0.021965971,0.010903565,-0.007632830,0.999518804,0.002812116,0.001506666,-0.004220632,0.000000000,0.000000000,0.000000000,0.000000000,0.016641281,0.009050470,0.071216668,0.025427624,-0.000616819,0.000375767,0.007779028,-0.000018162,-0.000553131,-0.429149444,0.130203464,-0.880794529,-0.003753644,-0.001107414,-0.007690496,0.999961822,0.000000000,0.000000000,0.000000000,0.000000000,0.000000000,0.000000000,1.370361328,0.000000000,4.164809227
1772725297.790027142,0.016114000,0.009065000,0.071233000,0.007981830,-0.012660670,0.010192220,-0.999836040,-0.016225000,0.025157000,-0.020591000,0.000355206,0.001986599,-0.001624535,0.053612416,-0.072840348,-0.027942718,0.010186211,-0.006633396,1.000556155,0.001896787,0.000895519,-0.001537107,0.000000000,0.000000000,0.000000000,0.000000000,0.016641509,0.009048096,0.071214815,0.025510826,-0.000566551,0.000321408,0.008898028,0.000529140,-0.000137145,-0.428816629,0.130083982,-0.880097136,-0.003750724,-0.001106416,-0.007684403,0.999961871,0.000000000,0.000000000,0.000000000,0.000000000,0.000000000,0.000000000,1.370361328,0.000000000,4.164809227
1772725297.800027132,0.016146000,0.009085000,0.071210000,0.007284580,-0.011743220,0.010290970,-0.999851550,-0.014813000,0.023335000,-0.020757000,0.000110451,0.003466689,-0.003245943,0.114252239,-0.161599601,-0.032834660,0.010074024,-0.006212153,1.002567314,0.000456221,-0.001728939,-0.001245183,0.000000000,0.000000000,0.000000000,0.000000000,0.016633824,0.009049168,0.071218855,0.025581773,-0.000434741,0.000424024,0.007928478,0.001108040,0.002647186,-0.427582965,0.129067163,-0.879656970,-0.003739887,-0.001097640,-0.007680516,0.999961932,0.000000000,0.000000000,0.000000000,0.000000000,0.000000000,0.000000000,1.370361328,0.000000000,4.164809227
1772725297.810027122,0.016137000,0.009078000,0.071201000,0.006918960,-0.010924630,0.010250730,-0.999863840,-0.014064000,0.021706000,-0.020656000,0.000410898,0.000649651,-0.001083082,0.087361895,-0.128112060,-0.022802475,0.010407958,-0.006178497,1.002467696,0.001802224,-0.004328243,0.001146166,0.000000000,0.000000000,0.000000000,0.000000000,0.016615763,0.009058818,0.071224938,0.025592211,-0.000233566,0.000713501,0.008126900,0.000893016,0.002694101,-0.426459440,0.130738519,-0.879208420,-0.003730190,-0.001112315,-0.007676646,0.999962021,0.000000000,0.000000000,0.000000000,0.000000000,0.000000000,0.000000000,1.370361328,0.000000000,4.164809227
1772725297.820027113,0.016129000,0.009050000,0.071239000,0.007135970,-0.011304250,0.010581230,-0.999854650,-0.014513000,0.022456000,-0.021328000,0.000286092,-0.003164067,0.002669835,-0.011395957,0.019150213,-0.001971979,0.009837928,-0.007163674,1.000313173,0.002868169,-0.005659102,0.001989651,0.000000000,0.000000000,0.000000000,0.000000000,0.016612702,0.009067555,0.071221376,0.025658234,-0.000058583,0.000853003,0.007735206,0.000860116,0.000660642,-0.424963721,0.132438798,-0.878176846,-0.003717242,-0.001127286,-0.007667685,0.999962137,0.000000000,0.000000000,0.000000000,0.000000000,0.000000000,0.000000000,1.370361328,0.000000000,4.164809227
1772725297.830027103,0.016129000,0.009069000,0.071216000,0.006835700,-0.011085730,0.010547910,-0.999859550,-0.013907000,0.022026000,-0.021251000,-0.000029293,-0.002589707,0.002220865,-0.053999535,0.082073536,0.007967048,0.009582327,-0.008489680,0.999644655,0.002180016,-0.002683411,-0.001018836,0.000000000,0.000000000,0.000000000,0.000000000,0.016616832,0.009066786,0.071221969,0.025721083,-0.000023184,0.000835966,0.007909351,-0.001544237,-0.000838369,-0.423168203,0.134497467,-0.877182618,-0.003701701,-0.001145403,-0.007659057,0.999962227,0.000000000,0.000000000,0.000000000,0.000000000,0.000000000,0.000000000,1.370361328,0.000000000,4.164809227
1772725297.840027571,0.016132000,0.009075000,0.071199000,0.006596050,-0.010583600,0.010516570,-0.999866930,-0.013416000,0.021027000,-0.021176000,-0.000185800,-0.001292756,0.001321738,-0.063463608,0.101662790,0.011190161,0.009774052,-0.007816220,1.000114976,0.000949851,0.000760288,-0.001687388,0.000000000,0.000000000,0.000000000,0.000000000,0.016623547,0.009062309,0.071225465,0.025768060,-0.000092713,0.000783884,0.007325840,-0.000344137,0.000318753,-0.422070072,0.136031514,-0.876530547,-0.003692214,-0.001158884,-0.007653405,0.999962281,0.000000000,0.000000000,0.000000000,0.000000000,0.000000000,0.000000000,1.370361328,0.000000000,4.164809227
1772725297.850027561,0.016165000,0.008880000,0.071379000,0.008486250,-0.013434570,0.010078090,-0.999822950,-0.017247000,0.026697000,-0.020389000,0.000279740,0.000233528,-0.000225894,-0.036202668,0.064494559,0.010611385,0.009854472,-0.006841543,1.000496530,0.001426636,-0.000238412,-0.000328828,0.000000000,0.000000000,0.000000000,0.000000000,0.016638978,0.009060453,0.071222649,0.025823116,-0.000095699,0.000792466,0.007262786,-0.000637615,0.000834141,-0.421225128,0.136449610,-0.876098796,-0.003684865,-0.001162602,-0.007649642,0.999962341,0.000000000,0.000000000,0.000000000,0.000000000,0.000000000,0.000000000,1.370361328,0.000000000,4.164809227
1772725297.860027313,0.016112000,0.009031000,0.071276000,0.008201800,-0.013174760,0.010313230,-0.999826380,-0.016679000,0.026179000,-0.020848000,0.000344464,0.001280906,-0.001488560,0.004855023,0.001886869,0.007972986,0.009670234,-0.009077648,1.000447024,0.004003331,-0.003560222,-0.001772612,0.000000000,0.000000000,0.000000000,0.000000000,0.016645247,0.009055713,0.071227499,0.025857827,-0.000088638,0.000845694,0.007261277,-0.002414046,0.000557792,-0.420254020,0.136134138,-0.875500110,-0.003676363,-0.001159933,-0.007644398,0.999962432,0.000000000,0.000000000,0.000000000,0.000000000,0.000000000,0.000000000,1.370361328,0.000000000,4.164809227
1772725297.870027542,0.016146000,0.009081000,0.071179000,0.007344920,-0.011901140,0.010259080,-0.999849570,-0.014937000,0.023650000,-0.020697000,0.000520727,0.001715483,-0.002115795,0.045493946,-0.055484908,-0.004767870,0.009663920,-0.010815989,1.000036872,0.000789494,-0.001234012,0.002506455,0.000000000,0.000000000,0.000000000,0.000000000,0.016650692,0.009055273,0.071222139,0.025865493,-0.000303375,0.000810169,0.007061522,-0.002669344,0.000782425,-0.419280324,0.135790447,-0.874868915,-0.003667837,-0.001157019,-0.007638869,0.999962449,0.000000000,0.000000000,0.000000000,0.000000000,0.000000000,0.000000000,1.370361328,0.000000000,4.164809227
1772725297.880027533,0.016139000,0.009076000,0.071212000,0.007187870,-0.011711840,0.010432570,-0.999851150,-0.014622000,0.023272000,-0.021038000,0.000331411,0.001811307,-0.002190600,0.079742859,-0.104469010,-0.014857532,0.010203875,-0.009294126,1.000966028,0.001839995,0.002028900,0.002039322,0.000000000,0.000000000,0.000000000,0.000000000,0.016647704,0.009058781,0.071210913,0.025826924,-0.000438559,0.000807012,0.007260467,-0.001259450,0.001355096,-0.417656075,0.137182268,-0.875148641,-0.003653759,-0.001169264,-0.007641338,0.999962603,0.000000000,0.000000000,0.000000000,0.000000000,0.000000000,0.000000000,1.370361328,0.000000000,4.164809227
1772725297.890027523,0.016162000,0.009065000,0.071192000,0.006715570,-0.011030430,0.010393160,-0.999862600,-0.013662000,0.021920000,-0.020938000,-0.000254060,0.001120611,-0.001225934,0.080280742,-0.115592501,-0.014052304,0.010159760,-0.009515615,1.000020292,0.000242717,-0.001667996,-0.002419794,0.000000000,0.000000000,0.000000000,0.000000000,0.016627506,0.009131636,0.071168160,0.025798789,-0.000304970,0.000668893,0.008176100,-0.001756102,0.000659383,-0.417973048,0.136815355,-0.871642865,-0.003656465,-0.001166153,-0.007610737,0.999962719,0.000000000,0.000000000,0.000000000,0.000000000,0.000000000,0.000000000,1.370361328,0.000000000,4.164809227
1772725297.900027990,0.016149000,0.009055000,0.071206000,0.006577670,-0.010921610,0.010386950,-0.999864770,-0.013384000,0.021705000,-0.020921000,-0.000477001,-0.000958159,0.001028090,0.028405527,-0.039102828,-0.000107968,0.009087419,-0.009971093,1.000032367,0.000843056,-0.004136473,-0.001778103,0.000000000,0.000000000,0.000000000,0.000000000,0.016598922,0.009216898,0.071127255,0.025666747,-0.000192617,0.000519371,0.005890663,-0.002756260,0.000601783,-0.417760196,0.136732405,-0.871000079,-0.003654595,-0.001165464,-0.007605123,0.999962823,0.000000000,0.000000000,0.000000000,0.000000000,0.000000000,0.000000000,1.370361328,0.000000000,4.164809227
1772725297.910028696,0.016149000,0.009056000,0.071206000,0.006452110,-0.010667050,0.010500760,-0.999867150,-0.013130000,0.021197000,-0.021143000,-0.001353867,-0.000147961,0.000803089,-0.000018044,-0.003481463,0.004586395,0.009350267,-0.007694383,0.998854467,0.002190539,-0.002346042,0.001587865,0.000000000,0.000000000,0.000000000,0.000000000,0.016580289,0.009275107,0.071100053,0.025509984,-0.000144832,0.000385729,0.007295422,0.000288414,-0.000532005,-0.416786829,0.135795561,-0.869618425,-0.003646025,-0.001157397,-0.007593027,0.999962992,0.000000000,0.000000000,0.000000000,0.000000000,0.000000000,0.000000000,1.370361328,0.000000000,4.164809227
1772725297.920028687,0.016111000,0.009062000,0.071228000,0.006607260,-0.010821880,0.010530630,-0.999864160,-0.013444000,0.021503000,-0.021208000,-0.000862413,0.000317017,-0.000081760,-0.007742608,0.005272110,0.010127653,0.009979972,-0.007806304,0.998880819,0.000412487,-0.000076668,0.002977853,0.000000000,0.000000000,0.000000000,0.000000000,0.016574318,0.009298509,0.071089839,0.025444627,-0.000092320,0.000229132,0.007553356,-0.000438470,-0.001548324,-0.416234695,0.135863629,-0.867230243,-0.003641188,-0.001158104,-0.007572183,0.999963126,0.000000000,0.000000000,0.000000000,0.000000000,0.000000000,0.000000000,1.370361328,0.000000000,4.164809227
1772725297.930029154,0.016101000,0.009082000,0.071209000,0.006627830,-0.010817210,0.010276780,-0.999866710,-0.013480000,0.021497000,-0.020700000,-0.000260956,0.000134713,0.000115521,-0.015181577,0.013403671,0.006756852,0.009421458,-0.008877516,1.000881628,-0.001069606,0.001726415,0.003653673,0.000000000,0.000000000,0.000000000,0.000000000,0.016589447,0.009196562,0.071164823,0.025481735,-0.000489702,0.000456973,0.006448026,-0.001549545,0.000510744,-0.415067560,0.135639968,-0.866183283,-0.003630978,-0.001156262,-0.007563028,0.999963208,0.000000000,0.000000000,0.000000000,0.000000000,0.000000000,0.000000000,1.370361328,0.000000000,4.164809227
1772725297.940028906,0.016126000,0.009073000,0.071197000,0.006618820,-0.010993320,0.010242000,-0.999865210,-0.013465000,0.021850000,-0.020633000,0.000768027,-0.000244853,-0.000052467,-0.006914274,-0.000017173,0.002245086,0.010720559,-0.007473109,1.002573503,-0.001489755,0.001623666,0.002460257,0.000000000,0.000000000,0.000000000,0.000000000,0.016620528,0.009052081,0.071255678,0.025657146,-0.001019904,0.000959988,0.009100943,-0.000028946,0.002603427,-0.414016586,0.134023435,-0.864809563,-0.003621686,-0.001142269,-0.007550979,0.999963356,0.000000000,0.000000000,0.000000000,0.000000000,0.000000000,0.000000000,1.370361328,0.000000000,4.164809227
1772725297.950029135,0.016121000,0.009055000,0.071219000,0.006831760,-0.010903820,0.010296430,-0.999864200,-0.013890000,0.021666000,-0.020745000,0.001465541,-0.001671835,0.000442211,-0.005138703,0.000877491,0.010969743,0.010484809,-0.007673370,1.002036289,0.002068790,-0.002279024,0.001137111,0.000000000,0.000000000,0.000000000,0.000000000,0.016631702,0.009022854,0.071262325,0.025836354,-0.001092056,0.001180729,0.007985723,-0.001438753,0.002048195,-0.414988764,0.132751247,-0.862233183,-0.003630061,-0.001131185,-0.007528467,0.999963507,0.000000000,0.000000000,0.000000000,0.000000000,0.000000000,0.000000000,1.370361328,0.000000000,4.164809227
1772725297.960028648,0.016157000,0.009061000,0.071201000,0.006571400,-0.010763450,0.010353950,-0.999866870,-0.013367000,0.021390000,-0.020853000,0.001326788,-0.000652856,-0.000352856,0.010245164,-0.016108601,0.008482460,0.008811139,-0.007891784,1.001007385,-0.000458142,-0.000167923,0.001568650,0.000000000,0.000000000,0.000000000,0.000000000,0.016637557,0.009021201,0.071252403,0.025938120,-0.001087022,0.001254691,0.007001916,-0.000653493,0.000469612,-0.415437506,0.132917896,-0.860002811,-0.003633965,-0.001132680,-0.007509013,0.999963633,0.000000000,0.000000000,0.000000000,0.000000000,0.000000000,0.000000000,1.370361328,0.000000000,4.164809227
1772725297.970028877,0.016153000,0.009050000,0.071218000,0.006539140,-0.010550570,0.010419510,-0.999868670,-0.013300000,0.020964000,-0.020980000,-0.000243299,0.002185084,-0.001446893,0.034690726,-0.047609547,-0.009755566,0.008394165,-0.007866020,0.999963712,-0.000484059,-0.000625765,-0.001664972,0.000000000,0.000000000,0.000000000,0.000000000,0.016641223,0.009027343,0.071240472,0.025907272,-0.001064366,0.001217976,0.005718765,-0.001493540,0.000549824,-0.414307806,0.132760135,-0.858632987,-0.003624083,-0.001131421,-0.007497044,0.999963776,0.000000000,0.000000000,0.000000000,0.000000000,0.000000000,0.000000000,1.370361328,0.000000000,4.164809227
1772725297.980028868,0.016157000,0.009058000,0.071200000,0.006367490,-0.010360140,0.010358630,-0.999872400,-0.012951000,0.020587000,-0.020852000,-0.001478925,0.005371237,-0.003073896,0.075168654,-0.101904719,-0.035558615,0.008625192,-0.008974234,0.999083911,0.000728946,-0.003894643,-0.004001254,0.000000000,0.000000000,0.000000000,0.000000000,0.016633610,0.009034007,0.071237103,0.025791560,-0.001073300,0.001160315,0.006904496,-0.001714417,-0.000817085,-0.413497182,0.133238396,-0.857415539,-0.003617029,-0.001135686,-0.007486427,0.999963832,0.000000000,0.000000000,0.000000000,0.000000000,0.000000000,0.000000000,1.370361328,0.000000000,4.164809227
1772725297.990028858,0.016142000,0.009071000,0.071181000,0.006213950,-0.010255240,0.010143610,-0.999876650,-0.012637000,0.020383000,-0.020418000,-0.002534385,0.009461276,-0.005363078,0.144014439,-0.201258314,-0.089811619,0.008333003,-0.009783258,0.999049308,-0.000558594,-0.003440104,-0.006053232,0.000000000,0.000000000,0.000000000,0.000000000,0.016627181,0.009037415,0.071236041,0.025736364,-0.001132241,0.000994975,0.006369077,-0.001896489,-0.002000948,-0.413539600,0.134565664,-0.856233238,-0.003617474,-0.001147303,-0.007476152,0.999963859,0.000000000,0.000000000,0.000000000,0.000000000,0.000000000,0.000000000,1.370361328,0.000000000,4.164809227
1772725298.000028610,0.016090000,0.009284000,0.071075000,0.005293770,-0.008939070,0.011027040,-0.999885230,-0.010785000,0.017760000,-0.022151000,-0.002245379,0.006247325,-0.002588270,0.123465188,-0.176166377,-0.109732758,0.008374106,-0.009560531,0.999289107,0.000341337,-0.001728465,-0.007024113,0.000000000,0.000000000,0.000000000,0.000000000,0.016626077,0.009043736,0.071228219,0.025654178,-0.001231061,0.000800004,0.005802848,-0.002659011,-0.001533355,-0.413328032,0.135652508,-0.856630602,-0.003615702,-0.001156788,-0.007479652,0.999963759,0.000000000,0.000000000,0.000000000,0.000000000,0.000000000,0.000000000,1.370361328,0.000000000,4.164809227
1772725298.010028362,0.016057000,0.009336000,0.071071000,0.004593240,-0.007801370,0.011795350,-0.999889450,-0.009371000,0.015493000,-0.023665000,-0.000646543,0.000668493,0.000931372,0.053744922,-0.070544585,-0.089420767,0.009347849,-0.009563796,0.999027338,0.001752559,-0.000958618,0.001768806,0.000000000,0.000000000,0.000000000,0.000000000,0.016617372,0.009044605,0.071228318,0.025516429,-0.001387650,0.000701928,0.006543499,-0.002462834,-0.000472403,-0.412641962,0.136142374,-0.858122623,-0.003609762,-0.001161061,-0.007492680,0.999963707,0.000000000,0.000000000,0.000000000,0.000000000,0.000000000,0.000000000,1.370361328,0.000000000,4.164809227
1772725298.020027876,0.016081000,0.009334000,0.071060000,0.003951220,-0.006858930,0.012317730,-0.999892800,-0.008071000,0.013619000,-0.024692000,0.000698039,-0.004974810,0.004147595,-0.048097713,0.069402941,-0.038920195,0.009539736,-0.008890596,0.999610980,0.004723382,-0.003449529,-0.002894533,0.000000000,0.000000000,0.000000000,0.000000000,0.016619736,0.009038998,0.071229630,0.025570941,-0.001500372,0.000661688,0.007515367,-0.001509671,-0.000354742,-0.411505545,0.136034751,-0.858673833,-0.003599844,-0.001160178,-0.007497475,0.999963850,0.000000000,0.000000000,0.000000000,0.000000000,0.000000000,0.000000000,1.370361328,0.000000000,4.164809227
1772725298.030027866,0.016074000,0.009309000,0.071092000,0.003907460,-0.006742210,0.012763840,-0.999888170,-0.007987000,0.013384000,-0.025583000,0.002028207,-0.008671687,0.005393284,-0.131592062,0.192260132,0.029935776,0.009538533,-0.008174851,0.998688342,-0.002709141,0.002165008,-0.000175029,0.000000000,0.000000000,0.000000000,0.000000000,0.016630012,0.008961887,0.071291600,0.025672066,-0.001770596,0.000841631,0.007295756,-0.001401339,-0.001317043,-0.409855890,0.136253300,-0.856759181,-0.003585443,-0.001162254,-0.007480757,0.999963912,0.000000000,0.000000000,0.000000000,0.000000000,0.000000000,0.000000000,1.370361328,0.000000000,4.164809227
1772725298.040027618,0.016153000,0.008885000,0.071373000,0.006885490,-0.011418760,0.011384930,-0.999846280,-0.014033000,0.022679000,-0.022932000,0.002302586,-0.008919064,0.004567098,-0.171088819,0.258678411,0.091969604,0.009227206,-0.008939308,0.998188163,-0.002243231,0.002434964,0.001111597,0.000000000,0.000000000,0.000000000,0.000000000,0.016638893,0.008931568,0.071311298,0.025732865,-0.001888703,0.000821083,0.006762612,-0.002067569,-0.002055039,-0.409624110,0.136216899,-0.856476192,-0.003583416,-0.001161960,-0.007478284,0.999963939,0.000000000,0.000000000,0.000000000,0.000000000,0.000000000,0.000000000,1.370361328,0.000000000,4.164809227
1772725298.050027609,0.016151000,0.008994000,0.071265000,0.007163630,-0.011781060,0.010949960,-0.999844980,-0.014588000,0.023404000,-0.022073000,0.001267115,-0.004899538,0.001917659,-0.150619551,0.237114249,0.106004265,0.008897804,-0.010019824,0.998037816,0.000234967,0.001370465,0.001877089,0.000000000,0.000000000,0.000000000,0.000000000,0.016646259,0.008942800,0.071293648,0.025758612,-0.001875331,0.000626650,0.006636402,-0.002843162,-0.001180521,-0.409322617,0.136140077,-0.856342146,-0.003580778,-0.001161313,-0.007477108,0.999963939,0.000000000,0.000000000,0.000000000,0.000000000,0.000000000,0.000000000,1.370361328,0.000000000,4.164809227
1772725298.060027122,0.016136000,0.009033000,0.071230000,0.007389660,-0.012045690,0.010680840,-0.999843090,-0.015039000,0.023932000,-0.021544000,0.000174379,-0.000540793,-0.000672262,-0.078835060,0.132372861,0.088303100,0.009276282,-0.010351102,1.000644500,0.002444142,0.000798839,0.000905053,0.000000000,0.000000000,0.000000000,0.000000000,0.016646803,0.008964613,0.071266565,0.025752308,-0.001914227,0.000447597,0.006727182,-0.003677022,0.000553762,-0.408751991,0.135931311,-0.856678827,-0.003575789,-0.001159518,-0.007480034,0.999963939,0.000000000,0.000000000,0.000000000,0.000000000,0.000000000,0.000000000,1.370361328,0.000000000,4.164809227
1772725298.070027113,0.016151000,0.009047000,0.071205000,0.007141350,-0.012029230,0.010387030,-0.999848190,-0.014535000,0.023909000,-0.020950000,-0.000657732,0.002921429,-0.002573410,0.003966403,0.010095358,0.051209005,0.009298876,-0.009154897,1.001301152,0.002229430,0.000260716,-0.000876992,0.000000000,0.000000000,0.000000000,0.000000000,0.016645179,0.008989833,0.071238663,0.025739299,-0.001958670,0.000338308,0.006909986,-0.001707192,0.000618758,-0.407816456,0.135578088,-0.857257121,-0.003567608,-0.001156479,-0.007485060,0.999963976,0.000000000,0.000000000,0.000000000,0.000000000,0.000000000,0.000000000,1.370361328,0.000000000,4.164809227
1772725298.080026627,0.016128000,0.009061000,0.071207000,0.007136730,-0.012131680,0.010226300,-0.999848640,-0.014524000,0.024116000,-0.020630000,-0.001246796,0.004858998,-0.003334288,0.070436133,-0.094109387,0.000748022,0.009687362,-0.007448595,0.999913351,0.002046862,0.000291458,-0.002502257,0.000000000,0.000000000,0.000000000,0.000000000,0.016647141,0.009009109,0.071219594,0.025766150,-0.001925185,0.000318984,0.008139436,-0.000221886,0.000072814,-0.406732263,0.135272936,-0.856795336,-0.003558122,-0.001153901,-0.007481011,0.999964118,0.000000000,0.000000000,0.000000000,0.000000000,0.000000000,0.000000000,1.370361328,0.000000000,4.164809227
1772725298.090026855,0.016119000,0.009055000,0.071220000,0.007181810,-0.012136240,0.010231160,-0.999848220,-0.014615000,0.024124000,-0.020641000,-0.000526477,-0.000940055,0.001395281,0.007099747,-0.010794746,0.000824465,0.010762280,-0.007851804,0.998939014,0.004895790,0.000761951,-0.001157386,0.000000000,0.000000000,0.000000000,0.000000000,0.016647846,0.009018653,0.071208055,0.025864496,-0.001800575,0.000252443,0.008169749,-0.001089389,-0.000639887,-0.405681848,0.135184356,-0.856019139,-0.003548943,-0.001153221,-0.007474224,0.999964118,0.000000000,0.000000000,0.000000000,0.000000000,0.000000000,0.000000000,1.370361328,0.000000000,4.164809227
1772725298.100026369,0.016129000,0.009072000,0.071201000,0.006807420,-0.011472010,0.010205000,-0.999858950,-0.013851000,0.022804000,-0.020570000,0.000146407,-0.002463289,0.002411444,-0.039192913,0.045525612,0.001731571,0.009814069,-0.008431280,1.000188712,0.002189611,0.000027903,0.002267347,0.000000000,0.000000000,0.000000000,0.000000000,0.016641429,0.008928525,0.071293180,0.025972637,-0.002116932,0.000504132,0.007907021,-0.001385254,0.000471141,-0.404187920,0.135356716,-0.856057390,-0.003535918,-0.001154821,-0.007474549,0.999964221,0.000000000,0.000000000,0.000000000,0.000000000,0.000000000,0.000000000,1.370361328,0.000000000,4.164809227
1772725298.110027075,0.016112000,0.009069000,0.071214000,0.007047340,-0.011843200,0.010307790,-0.999851900,-0.014341000,0.023540000,-0.020787000,0.000504060,-0.002835958,0.002264687,-0.067049282,0.083132598,0.004907432,0.010254196,-0.006697533,1.001831313,0.000577345,0.001091882,-0.002308698,0.000000000,0.000000000,0.000000000,0.000000000,0.016638552,0.008957985,0.071276539,0.026054130,-0.001967685,0.000518611,0.008159330,0.000047532,0.001116224,-0.402030854,0.135689216,-0.855038517,-0.003517106,-0.001157895,-0.007465646,0.999964346,0.000000000,0.000000000,0.000000000,0.000000000,0.000000000,0.000000000,1.370361328,0.000000000,4.164809227
1772725298.120026350,0.016127000,0.009059000,0.071218000,0.007072880,-0.011738770,0.010547480,-0.999850450,-0.014396000,0.023327000,-0.021265000,0.000899748,-0.002168164,0.001306276,-0.059915030,0.084120525,0.004851608,0.010792314,-0.005588551,0.999155755,0.001393507,-0.003618243,0.000570909,0.000000000,0.000000000,0.000000000,0.000000000,0.016644466,0.008985661,0.071245157,0.026165970,-0.001713357,0.000443916,0.008476107,0.001096182,-0.001172730,-0.400119991,0.136036217,-0.854164512,-0.003500444,-0.001161074,-0.007458010,0.999964399,0.000000000,0.000000000,0.000000000,0.000000000,0.000000000,0.000000000,1.370361328,0.000000000,4.164809227
1772725298.130026340,0.016150000,0.008852000,0.071388000,0.008909410,-0.014444640,0.009901400,-0.999806950,-0.018110000,0.028711000,-0.020066000,0.000855343,0.000620494,-0.001235471,-0.000266094,0.007487202,-0.000134154,0.011186420,-0.006124562,0.996673808,0.002422379,-0.000777804,-0.001012452,0.000000000,0.000000000,0.000000000,0.000000000,0.016654606,0.009008334,0.071218886,0.026331864,-0.001433220,0.000120346,0.008640657,0.000867097,-0.003643687,-0.398523845,0.136083298,-0.853956637,-0.003486517,-0.001161595,-0.007456181,0.999964416,0.000000000,0.000000000,0.000000000,0.000000000,0.000000000,0.000000000,1.370361328,0.000000000,4.164809227
1772725298.140026331,0.016162000,0.009001000,0.071242000,0.008152530,-0.013453830,0.010037000,-0.999825880,-0.016579000,0.026743000,-0.020299000,0.000512879,0.000336714,-0.000911714,0.016254863,-0.017078721,0.000751849,0.009504213,-0.007809273,1.000825526,0.002585704,-0.003173701,-0.000108607,0.000000000,0.000000000,0.000000000,0.000000000,0.016661291,0.009024834,0.071200769,0.026467372,-0.001270347,-0.000185727,0.007561717,-0.001217748,-0.000954406,-0.396647636,0.138740690,-0.854813670,-0.003470326,-0.001184881,-0.007463720,0.999964416,0.000000000,0.000000000,0.000000000,0.000000000,0.000000000,0.000000000,1.370361328,0.000000000,4.164809227
1772725298.150026083,0.016141000,0.009050000,0.071200000,0.007486250,-0.012555730,0.010232600,-0.999840790,-0.015232000,0.024957000,-0.020658000,-0.000007887,0.000471310,-0.000506178,0.018800560,-0.027672047,-0.000313140,0.009052252,-0.008000005,0.998524999,-0.000691697,0.002143157,-0.003874382,0.000000000,0.000000000,0.000000000,0.000000000,0.016666198,0.009026118,0.071198864,0.026455414,-0.001320413,-0.000217912,0.006942811,-0.001649829,-0.000204132,-0.395375044,0.139116088,-0.855270084,-0.003459250,-0.001188225,-0.007467702,0.999964500,0.000000000,0.000000000,0.000000000,0.000000000,0.000000000,0.000000000,1.370361328,0.000000000,4.164809227
1772725298.160026073,0.016150000,0.009063000,0.071197000,0.007014170,-0.011846060,0.010417810,-0.999850960,-0.014278000,0.023545000,-0.021006000,-0.000608936,0.000702254,-0.000254449,0.010046855,-0.021312323,-0.006430379,0.010369660,-0.008155146,1.000460044,0.004425950,-0.000729327,0.004019795,0.000000000,0.000000000,0.000000000,0.000000000,0.016660563,0.009025756,0.071208001,0.026421011,-0.001326072,-0.000192519,0.007548401,-0.000825603,0.000115778,-0.394335963,0.138537472,-0.854030561,-0.003450132,-0.001183281,-0.007456857,0.999964629,0.000000000,0.000000000,0.000000000,0.000000000,0.000000000,0.000000000,1.370361328,0.000000000,4.164809227
1772725298.170025826,0.016150000,0.009079000,0.071176000,0.006594800,-0.011109310,0.010320210,-0.999863280,-0.013421000,0.022081000,-0.020791000,-0.000466784,0.000388656,0.000020571,0.001338551,-0.020403767,-0.010296404,0.011052292,-0.007554476,0.999970105,0.003164415,-0.000379506,-0.001329240,0.000000000,0.000000000,0.000000000,0.000000000,0.016640491,0.009082653,0.071182229,0.026382274,-0.001143849,-0.000293109,0.008227047,-0.001026412,-0.000112535,-0.393980054,0.137711354,-0.852716929,-0.003446960,-0.001176135,-0.007445366,0.999964752,0.000000000,0.000000000,0.000000000,0.000000000,0.000000000,0.000000000,1.370361328,0.000000000,4.164809227
1772725298.180025101,0.016132000,0.008873000,0.071369000,0.008712600,-0.014033030,0.010044280,-0.999813120,-0.017712000,0.027889000,-0.020339000,-0.000050117,-0.001050467,0.001011947,-0.021164260,0.012190104,0.004638286,0.010564523,-0.008329083,0.999437811,0.002637317,-0.001323648,-0.001029766,0.000000000,0.000000000,0.000000000,0.000000000,0.016613572,0.009176988,0.071131795,0.026347911,-0.000857198,-0.000504316,0.008069790,-0.000997225,-0.000726081,-0.393015261,0.137692745,-0.851408573,-0.003438526,-0.001176074,-0.007433938,0.999964848,0.000000000,0.000000000,0.000000000,0.000000000,0.000000000,0.000000000,1.370361328,0.000000000,4.164809227
1772725298.190025091,0.016131000,0.009022000,0.071253000,0.008124360,-0.013139370,0.010262750,-0.999828000,-0.016522000,0.026110000,-0.020744000,0.000468027,0.000600719,-0.000916629,0.018527734,-0.034897807,0.006343887,0.009845548,-0.009995326,0.999015497,0.002355643,-0.002821154,-0.000664128,0.000000000,0.000000000,0.000000000,0.000000000,0.016590569,0.009243994,0.071097013,0.026275395,-0.000790041,-0.000695988,0.006642525,-0.004928045,-0.000791135,-0.392024813,0.138251608,-0.850459546,-0.003429909,-0.001181044,-0.007425663,0.999964958,0.000000000,0.000000000,0.000000000,0.000000000,0.000000000,0.000000000,1.370361328,0.000000000,4.164809227
1772725298.200025082,0.016146000,0.009057000,0.071194000,0.007354860,-0.012022770,0.010317120,-0.999847450,-0.014960000,0.023892000,-0.020815000,0.000767600,0.000357460,-0.001098622,0.044577477,-0.058785978,0.007146607,0.010511005,-0.009793304,0.999734566,0.001100522,-0.002047008,-0.002386866,0.000000000,0.000000000,0.000000000,0.000000000,0.016573745,0.009271083,0.071084328,0.026177146,-0.000967935,-0.000779763,0.008234161,-0.002196928,-0.000214169,-0.391178560,0.138476097,-0.848824369,-0.003422522,-0.001183106,-0.007411392,0.999965131,0.000000000,0.000000000,0.000000000,0.000000000,0.000000000,0.000000000,1.370361328,0.000000000,4.164809227
1772725298.210024357,0.016160000,0.009062000,0.071184000,0.006827290,-0.011191960,0.010272410,-0.999861290,-0.013887000,0.022242000,-0.020701000,0.000420436,0.001734500,-0.001693106,0.073787355,-0.094599446,-0.002006343,0.011507197,-0.007555538,1.001643048,-0.000206312,-0.000112923,0.001665370,0.000000000,0.000000000,0.000000000,0.000000000,0.016573474,0.009279095,0.071074781,0.026234189,-0.001075125,-0.000807377,0.009233570,-0.000377219,0.001746320,-0.390167008,0.138335682,-0.847433289,-0.003413672,-0.001181988,-0.007399239,0.999965131,0.000000000,0.000000000,0.000000000,0.000000000,0.000000000,0.000000000,1.370361328,0.000000000,4.164809227
1772725298.220024347,0.016154000,0.009063000,0.071188000,0.006450470,-0.010907140,0.010216730,-0.999867510,-0.013126000,0.021681000,-0.020578000,-0.000366220,0.003646662,-0.002336599,0.098351782,-0.130566389,-0.021178140,0.010349790,-0.007209521,1.000775246,-0.000422144,-0.001079535,0.003187707,0.000000000,0.000000000,0.000000000,0.000000000,0.016580222,0.009279232,0.071068348,0.026401155,-0.001056541,-0.000577704,0.008403294,-0.000914222,0.001240254,-0.389034131,0.138320475,-0.846735054,-0.003403777,-0.001181949,-0.007393133,0.999965281,0.000000000,0.000000000,0.000000000,0.000000000,0.000000000,0.000000000,1.370361328,0.000000000,4.164809227
1772725298.230024338,0.016159000,0.009048000,0.071204000,0.006353750,-0.010762300,0.010336860,-0.999868470,-0.012932000,0.021392000,-0.020814000,-0.001797787,0.003941262,-0.001150409,0.073626295,-0.099115421,-0.050783560,0.009681349,-0.009539370,0.998731643,0.002033273,0.003249957,0.000151423,0.000000000,0.000000000,0.000000000,0.000000000,0.016579643,0.009274434,0.071087398,0.026358007,-0.001167293,-0.000478127,0.007246606,-0.002365575,-0.001005094,-0.388332348,0.138954218,-0.844460780,-0.003397671,-0.001187592,-0.007373298,0.999965356,0.000000000,0.000000000,0.000000000,0.000000000,0.000000000,0.000000000,1.370361328,0.000000000,4.164809227
1772725298.240024328,0.016137000,0.009049000,0.071228000,0.006659090,-0.011192040,0.010519350,-0.999859860,-0.013556000,0.022243000,-0.021192000,-0.002639766,0.006326987,-0.002375138,0.085530999,-0.123664168,-0.093091347,0.009942998,-0.008841764,0.999737605,-0.001396638,-0.004096885,-0.003850098,0.000000000,0.000000000,0.000000000,0.000000000,0.016581482,0.009271384,0.071094404,0.026322144,-0.001352311,-0.000550805,0.007492545,-0.002204904,-0.001198382,-0.388377767,0.139046017,-0.843758760,-0.003398066,-0.001188411,-0.007367175,0.999965450,0.000000000,0.000000000,0.000000000,0.000000000,0.000000000,0.000000000,1.370361328,0.000000000,4.164809227
1772725298.250024319,0.016078000,0.009278000,0.071097000,0.005417630,-0.009214820,0.011264420,-0.999879420,-0.011044000,0.018306000,-0.022632000,-0.002425954,0.006750278,-0.003351441,0.106512986,-0.161996993,-0.114344666,0.010299966,-0.007215350,0.998440307,-0.001335409,-0.002511616,-0.003457986,0.000000000,0.000000000,0.000000000,0.000000000,0.016583785,0.009271794,0.071087589,0.026303947,-0.001432138,-0.000573733,0.007585962,-0.000826885,-0.000201605,-0.387991890,0.138771670,-0.842497299,-0.003394668,-0.001186079,-0.007356155,0.999965521,0.000000000,0.000000000,0.000000000,0.000000000,0.000000000,0.000000000,1.370361328,0.000000000,4.164809227
1772725298.260024309,0.016071000,0.009322000,0.071072000,0.004602560,-0.008046610,0.012023030,-0.999884750,-0.009399000,0.015981000,-0.024123000,-0.001691804,0.005322616,-0.002811075,0.107990599,-0.169092011,-0.115588808,0.009888048,-0.008049739,0.998691141,-0.000512492,-0.000056952,-0.001760440,0.000000000,0.000000000,0.000000000,0.000000000,0.016584837,0.009275329,0.071073520,0.026297105,-0.001438385,-0.000741448,0.007700072,-0.000910991,-0.002703536,-0.388756724,0.140500873,-0.840812770,-0.003401435,-0.001201170,-0.007341514,0.999965549,0.000000000,0.000000000,0.000000000,0.000000000,0.000000000,0.000000000,1.370361328,0.000000000,4.164809227
1772725298.270024300,0.016043000,0.009320000,0.071086000,0.004436320,-0.007765180,0.012601580,-0.999880600,-0.009068000,0.015417000,-0.025275000,-0.000738618,0.002625760,-0.001214609,0.081944187,-0.133123547,-0.100435214,0.009644476,-0.008900632,1.001109556,-0.000921505,0.000871251,0.001700713,0.000000000,0.000000000,0.000000000,0.000000000,0.016583909,0.009277857,0.071066664,0.026259148,-0.001507995,-0.000811639,0.007252236,-0.002206533,0.001479049,-0.388735633,0.140833924,-0.840748887,-0.003401272,-0.001204079,-0.007340967,0.999965597,0.000000000,0.000000000,0.000000000,0.000000000,0.000000000,0.000000000,1.370361328,0.000000000,4.164809227
1772725298.280024052,0.016067000,0.009307000,0.071080000,0.004241470,-0.007277470,0.012952870,-0.999880630,-0.008671000,0.014444000,-0.025970000,0.000328808,-0.000364802,0.000522592,0.035456912,-0.070996571,-0.069107229,0.009013881,-0.009408259,1.002119020,-0.000619624,-0.000796979,0.001637825,0.000000000,0.000000000,0.000000000,0.000000000,0.016584804,0.009277287,0.071065610,0.026185026,-0.001661337,-0.000658393,0.006551292,-0.002815223,0.002211836,-0.388681589,0.139286395,-0.839730392,-0.003400690,-0.001190609,-0.007332033,0.999965723,0.000000000,0.000000000,0.000000000,0.000000000,0.000000000,0.000000000,1.370361328,0.000000000,4.164809227
1772725298.290024281,0.016080000,0.009300000,0.071075000,0.003948030,-0.006828810,0.012922710,-0.999885390,-0.008072000,0.013554000,-0.025902000,0.000793998,-0.001914804,0.001244426,-0.006898943,-0.002273098,-0.027008213,0.009393825,-0.008856915,1.000950371,-0.000181599,0.000743857,0.000361319,0.000000000,0.000000000,0.000000000,0.000000000,0.016585008,0.009276889,0.071063911,0.026088377,-0.001810819,-0.000473551,0.007020574,-0.001815290,0.001293965,-0.388977532,0.138528149,-0.837416300,-0.003403200,-0.001184042,-0.007311820,0.999965858,0.000000000,0.000000000,0.000000000,0.000000000,0.000000000,0.000000000,1.370361328,0.000000000,4.164809227
1772725298.300024271,0.016070000,0.009290000,0.071119000,0.004262650,-0.007235400,0.013228880,-0.999877230,-0.008717000,0.014357000,-0.026522000,0.000447767,-0.000467133,0.000216142,-0.011518030,0.013479770,-0.000587414,0.009362964,-0.007989049,1.000310644,-0.000973602,0.002848113,0.002237967,0.000000000,0.000000000,0.000000000,0.000000000,0.016577828,0.009276105,0.071068197,0.025963201,-0.001910074,-0.000333924,0.006465775,-0.001374728,0.000832776,-0.388289826,0.138264834,-0.836079373,-0.003397169,-0.001181828,-0.007300139,0.999965906,0.000000000,0.000000000,0.000000000,0.000000000,0.000000000,0.000000000,1.370361328,0.000000000,4.164809227
1772725298.310024261,0.016076000,0.009292000,0.071111000,0.004405500,-0.007287810,0.013285020,-0.999875490,-0.009005000,0.014457000,-0.026637000,0.000348835,0.000112024,-0.000336403,-0.004553552,0.018819365,0.014273692,0.008251065,-0.007708019,1.001076411,-0.001865880,0.000861667,0.003990691,0.000000000,0.000000000,0.000000000,0.000000000,0.016567642,0.009269013,0.071082889,0.025838790,-0.001967593,-0.000228772,0.006314307,-0.001682628,0.000964343,-0.387412628,0.137735391,-0.835899730,-0.003389479,-0.001177269,-0.007298546,0.999965906,0.000000000,0.000000000,0.000000000,0.000000000,0.000000000,0.000000000,1.370361328,0.000000000,4.164809227
1772725298.320024014,0.016080000,0.009301000,0.071083000,0.004290220,-0.007273570,0.012988190,-0.999879990,-0.008769000,0.014434000,-0.026041000,0.000082187,0.000505575,-0.000794523,0.006940117,0.007302799,0.025927656,0.009939045,-0.006340262,1.000453675,-0.000767716,0.000229971,-0.002005721,0.000000000,0.000000000,0.000000000,0.000000000,0.016573715,0.009266078,0.071081287,0.025698079,-0.002025407,-0.000119715,0.006787199,0.000573734,0.001099919,-0.387610600,0.137362735,-0.834734838,-0.003391171,-0.001174039,-0.007288372,0.999966081,0.000000000,0.000000000,0.000000000,0.000000000,0.000000000,0.000000000,1.370361328,0.000000000,4.164809227
1772725298.330024004,0.016078000,0.009309000,0.071065000,0.004105460,-0.007376210,0.012753060,-0.999883040,-0.008399000,0.014647000,-0.025569000,-0.000122397,0.000441648,-0.000692172,0.013215223,-0.001637545,0.028334051,0.010868451,-0.005762876,1.000674674,0.001240956,0.002448111,-0.000022341,0.000000000,0.000000000,0.000000000,0.000000000,0.016595407,0.009264890,0.071081982,0.025755153,-0.001752358,-0.000029388,0.009219984,0.001873593,0.000507873,-0.387166637,0.136918204,-0.833217467,-0.003387253,-0.001170233,-0.007275114,0.999966186,0.000000000,0.000000000,0.000000000,0.000000000,0.000000000,0.000000000,1.370361328,0.000000000,4.164809227
1772725298.340023518,0.016075000,0.009307000,0.071083000,0.004178330,-0.007374010,0.012795880,-0.999882210,-0.008545000,0.014640000,-0.025656000,-0.000169017,0.000228089,-0.000415890,0.013227953,-0.009350591,0.028887795,0.011236512,-0.007695041,1.000432048,0.001677195,-0.000978802,-0.001730380,0.000000000,0.000000000,0.000000000,0.000000000,0.016610862,0.009173241,0.071140598,0.025920689,-0.001921919,0.000287501,0.008622298,-0.001046856,0.000771996,-0.385700617,0.135275438,-0.832192434,-0.003374345,-0.001156020,-0.007266106,0.999966344,0.000000000,0.000000000,0.000000000,0.000000000,0.000000000,0.000000000,1.370361328,0.000000000,4.164809227
