t,px,py,pz,qx,qy,qz,qw,roll,pitch,yaw,vx,vy,vz,wx_vicon,wy_vicon,wz_vicon,imu_acc_x,imu_acc_y,imu_acc_z,imu_gyro_x,imu_gyro_y,imu_gyro_z,motor_motor_m1,motor_motor_m2,motor_motor_m3,motor_motor_m4,est_stateEstimate_x,est_stateEstimate_y,est_stateEstimate_z,est_stateEstimate_vx,est_stateEstimate_vy,est_stateEstimate_vz,est_stateEstimate_ax,est_stateEstimate_ay,est_stateEstimate_az,att_stateEstimate_roll,att_stateEstimate_pitch,att_stateEstimate_yaw,att_stateEstimate_qx,att_stateEstimate_qy,att_stateEstimate_qz,att_stateEstimate_qw,sp_ctrltarget_x,sp_ctrltarget_y,sp_ctrltarget_z,sp_ctrltarget_yaw,pid_controller_roll,pid_controller_pitch,pid_controller_yaw,pid_controller_cmd_thrust,pwr_pm_vbat
1772719150.718796492,0.018318000,0.008770000,0.071314000,-0.003410300,0.007980790,0.032379160,0.999437980,-0.006301000,0.016174000,0.064721000,-0.000662507,-0.002008111,-0.000469573,0.003687514,-0.007445637,0.012855144,0.014200547,-0.005039572,0.997441630,0.002238064,-0.000086056,-0.002132097,0.000000000,0.000000000,0.000000000,0.000000000,0.018549576,0.008761010,0.071251260,0.022222092,0.000010851,-0.005286814,0.008657231,-0.000491579,-0.002305651,-0.226715138,0.330426444,3.030543697,-0.001901510,-0.002934816,0.026437512,0.999644021,0.000000000,0.000000000,0.000000000,0.000000000,0.000000000,0.000000000,3.026199876,0.000000000,4.212316990
1772719150.728796244,0.018313000,0.008765000,0.071312000,-0.003394180,0.008084830,0.032379950,0.999437170,-0.006262000,0.016381000,0.064722000,-0.000479518,-0.000713673,-0.000386937,0.001768789,0.014085190,0.000526489,0.012977136,-0.005316100,0.996045635,0.003362173,0.001101400,-0.000444716,0.000000000,0.000000000,0.000000000,0.000000000,0.018769017,0.008760744,0.071198992,0.023020034,-0.000068955,-0.005488773,0.006717234,-0.001480942,-0.003713438,-0.226606578,0.331367990,3.029109876,-0.001900382,-0.002942982,0.026424987,0.999644188,0.000000000,0.000000000,0.000000000,0.000000000,0.000000000,0.000000000,3.027846850,0.000000000,4.212316990
1772719150.738795996,0.018311000,0.008750000,0.071308000,-0.003440710,0.008117480,0.032463010,0.999434050,-0.006351000,0.016450000,0.064888000,-0.000283826,0.000022825,-0.000261059,-0.001026800,0.018102160,-0.004779116,0.012168640,-0.004658584,0.997181949,0.001449889,0.001241519,-0.001703235,0.000000000,0.000000000,0.000000000,0.000000000,0.018985068,0.008759719,0.071146684,0.023707853,-0.000157066,-0.005830465,0.006199107,-0.000305749,-0.002005315,-0.225247402,0.330895180,3.026589769,-0.001888699,-0.002938502,0.026403048,0.999644932,0.000000000,0.000000000,0.000000000,0.000000000,0.000000000,0.000000000,3.025228595,0.000000000,4.212316990
1772719150.748795509,0.018304000,0.008761000,0.071305000,-0.003358050,0.008123200,0.032360300,0.999437620,-0.006187000,0.016455000,0.064683000,-0.000091514,0.000327961,-0.000116417,-0.004107563,0.010009896,-0.004998995,0.010434221,-0.005058095,0.998233074,0.002198682,-0.002084282,0.001471369,0.000000000,0.000000000,0.000000000,0.000000000,0.019205132,0.008758006,0.071091994,0.024277890,-0.000213368,-0.006085453,0.005231559,-0.000561088,-0.002088720,-0.224686047,0.329396411,3.023755829,-0.001884220,-0.002925251,0.026378365,0.999642074,0.000000000,0.000000000,0.000000000,0.000000000,0.000000000,0.000000000,3.026353556,0.000000000,4.212316990
1772719150.758795500,0.018306000,0.008761000,0.071301000,-0.003478200,0.008181950,0.032318020,0.999438090,-0.006425000,0.016580000,0.064597000,0.000081335,0.000328310,0.000022514,-0.006869973,-0.004784592,-0.002065158,0.011442678,-0.005517855,0.995538190,-0.000051086,0.001470643,0.002452501,0.000000000,0.000000000,0.000000000,0.000000000,0.018539142,0.008765089,0.071256618,0.020284914,-0.000095112,-0.004764297,0.005261746,-0.001032694,-0.003817904,-0.226834657,0.341040899,3.034479541,-0.001899989,-0.003027507,0.026471647,0.999639812,0.000000000,0.000000000,0.000000000,0.000000000,0.000000000,0.000000000,3.044421067,0.000000000,4.212316990
1772719150.768795252,0.018309000,0.008760000,0.071309000,-0.003459090,0.008231810,0.032297100,0.999438430,-0.006383000,0.016679000,0.064555000,0.000218634,0.000150451,0.000131258,-0.008717785,-0.020876911,0.002085756,0.011856149,-0.004223300,0.996044647,0.000239649,0.000118770,0.000570723,0.000000000,0.000000000,0.000000000,0.000000000,0.018422766,0.008766163,0.071287927,0.019595530,-0.000105726,-0.004627252,0.005908312,-0.000363705,-0.003888985,-0.228595575,0.350000136,3.045980190,-0.001912978,-0.003106260,0.026571767,0.999640009,0.000000000,0.000000000,0.000000000,0.000000000,0.000000000,0.000000000,3.042048433,0.000000000,4.212316990
1772719150.778795242,0.018316000,0.008765000,0.071307000,-0.003536420,0.007956170,0.032404710,0.999436910,-0.006554000,0.016133000,0.064770000,0.000296297,0.000121351,0.000120827,-0.007434359,-0.024901271,0.002302605,0.013951671,-0.004638551,0.997858396,0.001535336,0.000179446,-0.000078509,0.000000000,0.000000000,0.000000000,0.000000000,0.018467718,0.008763078,0.071279849,0.019891027,-0.000120863,-0.004841703,0.007268824,0.000049660,-0.002330136,-0.228436893,0.346990178,3.048781684,-0.001912216,-0.003080013,0.026596264,0.999639357,0.000000000,0.000000000,0.000000000,0.000000000,0.000000000,0.000000000,3.044715098,0.000000000,4.212316990
1772719150.788794756,0.018311000,0.008770000,0.071308000,-0.003557870,0.007852740,0.032462300,0.999435780,-0.006603000,0.015928000,0.064886000,0.000313586,-0.000102062,0.000134211,-0.004908329,-0.027283101,0.003538213,0.014875178,-0.005031927,0.999315472,0.001843935,-0.001337849,0.000103434,0.000000000,0.000000000,0.000000000,0.000000000,0.018561802,0.008759919,0.071258255,0.020339477,-0.000126385,-0.005014619,0.008918923,-0.000732096,-0.000458056,-0.228684174,0.345167006,3.051484588,-0.001914724,-0.003064211,0.026619870,0.999638840,0.000000000,0.000000000,0.000000000,0.000000000,0.000000000,0.000000000,3.047310380,0.000000000,4.212316990
1772719150.798794270,0.018315000,0.008756000,0.071315000,-0.003591650,0.007618730,0.032445330,0.999438020,-0.006686000,0.015463000,0.064853000,0.000128364,-0.000121371,-0.000019814,-0.001815804,-0.014998631,0.001647201,0.014864986,-0.005625514,0.999305090,0.002784645,-0.001788761,0.000984284,0.000000000,0.000000000,0.000000000,0.000000000,0.018693987,0.008760468,0.071225581,0.020956782,-0.000154788,-0.005080662,0.008613816,-0.001495416,0.000019441,-0.227876126,0.344913634,3.054398883,-0.001907657,-0.003061862,0.026645321,0.999638284,0.000000000,0.000000000,0.000000000,0.000000000,0.000000000,0.000000000,3.049775726,0.000000000,4.212316990
1772719150.808793545,0.018322000,0.008758000,0.071304000,-0.003551700,0.007651870,0.032335690,0.999441460,-0.006605000,0.015526000,0.064634000,0.000053478,-0.000107481,-0.000148508,-0.000554432,0.007486260,-0.001657303,0.014399494,-0.006036976,0.997476045,0.003609755,-0.000040193,0.000788688,0.000000000,0.000000000,0.000000000,0.000000000,0.018680580,0.008765669,0.071226282,0.021288455,-0.000196830,-0.004911322,0.007392892,-0.001577997,-0.002587608,-0.227959901,0.345172595,3.056813767,-0.001908263,-0.003064180,0.026666376,0.999637671,0.000000000,0.000000000,0.000000000,0.000000000,0.000000000,0.000000000,3.052304955,0.000000000,4.212316990
1772719150.818792820,0.018318000,0.008767000,0.071307000,-0.003536590,0.007809530,0.032369800,0.999439190,-0.006565000,0.015840000,0.064701000,0.000028478,0.000065037,-0.000033023,0.002872340,0.021694009,-0.005719635,0.012856104,-0.004763107,0.995534061,-0.000008396,-0.001719209,-0.001190536,0.000000000,0.000000000,0.000000000,0.000000000,0.018512487,0.008767324,0.071253511,0.021180432,-0.000305175,-0.004740622,0.006934455,0.000067885,-0.004634665,-0.227585613,0.344582988,3.059301989,-0.001905068,-0.003058991,0.026688106,0.999637138,0.000000000,0.000000000,0.000000000,0.000000000,0.000000000,0.000000000,3.054794409,0.000000000,4.212316990
1772719150.828792334,0.018318000,0.008757000,0.071311000,-0.003552540,0.007784110,0.032411340,0.999437990,-0.006597000,0.015790000,0.064784000,-0.000106005,0.000233242,-0.000002525,0.001998272,0.019129937,-0.004048114,0.012772748,-0.005534591,0.994071829,0.000961537,-0.001217956,0.003737323,0.000000000,0.000000000,0.000000000,0.000000000,0.018519552,0.008768387,0.071254296,0.021309249,-0.000321154,-0.004878130,0.007031144,-0.001023756,-0.005826858,-0.228822955,0.344622708,3.061630547,-0.001915791,-0.003059665,0.026708386,0.999636437,0.000000000,0.000000000,0.000000000,0.000000000,0.000000000,0.000000000,3.057365021,0.000000000,4.212316990
1772719150.838792324,0.018313000,0.008762000,0.071301000,-0.003602110,0.008171540,0.032394590,0.999435260,-0.006672000,0.016568000,0.064748000,-0.000146235,0.000273958,-0.000087473,-0.000119160,0.015112741,-0.001058124,0.011369642,-0.007304429,0.996394651,0.001646330,-0.000274250,0.002746442,0.000000000,0.000000000,0.000000000,0.000000000,0.018731399,0.008764903,0.071203802,0.021976291,-0.000399454,-0.005445253,0.005316883,-0.003068323,-0.003649267,-0.229239488,0.345495672,3.065083406,-0.001919128,-0.003067435,0.026738481,0.999635628,0.000000000,0.000000000,0.000000000,0.000000000,0.000000000,0.000000000,3.060795577,0.000000000,4.212316990
1772719150.848791599,0.018319000,0.008769000,0.071308000,-0.003526520,0.008165690,0.032307400,0.999438400,-0.006522000,0.016551000,0.064575000,-0.000009616,0.000078984,-0.000050351,-0.001153229,0.010991976,0.002630180,0.010861678,-0.006154701,0.996827401,0.003392179,0.001606776,0.002790702,0.000000000,0.000000000,0.000000000,0.000000000,0.018569631,0.008768301,0.071249149,0.021548657,-0.000541211,-0.005358261,0.005127931,-0.002142860,-0.002636175,-0.228846016,0.345811832,3.067750825,-0.001915551,-0.003070145,0.026761754,0.999634955,0.000000000,0.000000000,0.000000000,0.000000000,0.000000000,0.000000000,3.063204965,0.000000000,4.212316990
1772719150.858790874,0.018316000,0.008772000,0.071312000,-0.003528110,0.007932360,0.032294240,0.999440700,-0.006541000,0.016084000,0.064550000,0.000234136,-0.000178715,-0.000092174,-0.000923663,0.005854792,0.000410122,0.012566605,-0.005460415,0.997458692,0.003331978,0.002162662,-0.002234082,0.000000000,0.000000000,0.000000000,0.000000000,0.018676436,0.008764337,0.071223369,0.021776768,-0.000741181,-0.005563093,0.006384787,-0.000865705,-0.002252216,-0.228069742,0.345663378,3.067888878,-0.001908810,-0.003068671,0.026762981,0.999634839,0.000000000,0.000000000,0.000000000,0.000000000,0.000000000,0.000000000,3.066648543,0.000000000,4.212316990
1772719150.868790388,0.018311000,0.008763000,0.071303000,-0.003595940,0.007954300,0.032402690,0.999436770,-0.006673000,0.016133000,0.064765000,0.000234660,-0.000317626,0.000077236,-0.000420652,-0.003779064,-0.000053299,0.011928427,-0.004692523,0.997767135,0.001442779,-0.000220064,0.000768568,0.000000000,0.000000000,0.000000000,0.000000000,0.018539033,0.008767557,0.071246096,0.021469482,-0.000788709,-0.005441125,0.005829177,-0.000789027,-0.002726422,-0.227072029,0.344721252,3.064748103,-0.001900410,-0.003060168,0.026735627,0.999635560,0.000000000,0.000000000,0.000000000,0.000000000,0.000000000,0.000000000,3.063313029,0.000000000,4.212316990
1772719150.878789425,0.018326000,0.008760000,0.071298000,-0.003598930,0.008185850,0.032409680,0.999434670,-0.006664000,0.016596000,0.064778000,0.000202511,-0.000471690,0.000129976,0.000008697,-0.004458919,-0.000632975,0.010433746,-0.005443722,0.996577258,0.001445308,-0.000399114,0.004113305,0.000000000,0.000000000,0.000000000,0.000000000,0.018738661,0.008759824,0.071194226,0.022066102,-0.000822693,-0.005634575,0.004886907,-0.000598020,-0.003460895,-0.226552977,0.343351420,3.062029988,-0.001896274,-0.003048052,0.026711954,0.999636228,0.000000000,0.000000000,0.000000000,0.000000000,0.000000000,0.000000000,3.060702976,0.000000000,4.212316990
1772719150.888788700,0.018325000,0.008756000,0.071310000,-0.003550600,0.008232010,0.032412240,0.999434380,-0.006565000,0.016686000,0.064784000,-0.000041143,-0.000192895,-0.000073992,-0.001316149,0.007557502,-0.002473659,0.012349461,-0.003522604,0.996305178,0.000776374,0.001774090,-0.000473931,0.000000000,0.000000000,0.000000000,0.000000000,0.018740920,0.008752253,0.071193215,0.021954777,-0.000902257,-0.005734461,0.006188597,0.001204555,-0.003579467,-0.225495248,0.343451292,3.059134872,-0.001887101,-0.003048629,0.026686724,0.999636977,0.000000000,0.000000000,0.000000000,0.000000000,0.000000000,0.000000000,3.057792309,0.000000000,4.212316990
1772719150.898788691,0.018325000,0.008748000,0.071311000,-0.003573360,0.007963810,0.032254530,0.999441570,-0.006630000,0.016150000,0.064469000,-0.000174441,0.000206396,0.000091999,-0.000290593,0.003644406,-0.004877760,0.013866392,-0.004838954,0.996382080,0.003213543,-0.001809522,-0.003759989,0.000000000,0.000000000,0.000000000,0.000000000,0.018743208,0.008750120,0.071195176,0.022012412,-0.000764075,-0.005850855,0.007756652,-0.000162500,-0.003503714,-0.224335401,0.342337181,3.055675272,-0.001877335,-0.003038583,0.026656594,0.999638157,0.000000000,0.000000000,0.000000000,0.000000000,0.000000000,0.000000000,3.053419772,0.000000000,4.212316990
1772719150.908788681,0.018315000,0.008759000,0.071312000,-0.003552310,0.007913150,0.032309620,0.999440270,-0.006590000,0.016048000,0.064580000,-0.000302980,0.000470486,0.000082364,0.001017375,-0.004675473,-0.002843643,0.012830129,-0.005676832,0.994299313,0.001876245,-0.002670643,0.000143896,0.000000000,0.000000000,0.000000000,0.000000000,0.018740352,0.008759959,0.071196634,0.022206425,-0.000682367,-0.005946839,0.007301679,-0.001540428,-0.005060951,-0.221729132,0.343401535,3.050746718,-0.001854482,-0.003047182,0.026613652,0.999639111,0.000000000,0.000000000,0.000000000,0.000000000,0.000000000,0.000000000,3.048754846,0.000000000,4.212316990
1772719150.918788433,0.018316000,0.008765000,0.071302000,-0.003570030,0.008254160,0.032314540,0.999437290,-0.006604000,0.016731000,0.064588000,-0.000387150,0.000447233,-0.000019212,0.000961641,-0.015097157,0.001043875,0.011597578,-0.005274622,0.996732878,0.003086295,0.004367130,-0.002236107,0.000000000,0.000000000,0.000000000,0.000000000,0.018734849,0.008769260,0.071196455,0.022325526,-0.000717170,-0.006218630,0.005813247,-0.000760198,-0.003302395,-0.220286985,0.344178034,3.050786295,-0.001841720,-0.003053622,0.026614023,0.999639218,0.000000000,0.000000000,0.000000000,0.000000000,0.000000000,0.000000000,3.046689328,0.000000000,4.212316990
1772719150.928787947,0.018308000,0.008776000,0.071302000,-0.003610670,0.008126500,0.032332580,0.999437610,-0.006693000,0.016478000,0.064624000,-0.000071855,0.000368774,-0.000049438,0.003487428,-0.015801312,0.005549757,0.012356795,-0.005202947,0.999902647,0.000689985,0.001087603,-0.001715172,0.000000000,0.000000000,0.000000000,0.000000000,0.018534056,0.008767708,0.071248403,0.021757862,-0.000759271,-0.006041189,0.006641433,-0.001551316,-0.000315219,-0.219085377,0.343187238,3.049491692,-0.001831502,-0.003044679,0.026602780,0.999639468,0.000000000,0.000000000,0.000000000,0.000000000,0.000000000,0.000000000,3.047770852,0.000000000,4.212316990
1772719150.938787699,0.018315000,0.008771000,0.071318000,-0.003524910,0.007772080,0.032359620,0.999439860,-0.006544000,0.015764000,0.064681000,0.000273472,-0.000038618,0.000162067,0.006061608,-0.017174606,0.005530223,0.011672836,-0.003571304,0.997746398,0.004536582,-0.004126280,0.000169767,0.000000000,0.000000000,0.000000000,0.000000000,0.018743191,0.008759985,0.071191019,0.022334815,-0.000863729,-0.006054735,0.006239028,0.000417210,-0.001146527,-0.218716131,0.343115056,3.045992975,-0.001828391,-0.003043908,0.026572267,0.999640379,0.000000000,0.000000000,0.000000000,0.000000000,0.000000000,0.000000000,3.044048262,0.000000000,4.212316990
1772719150.948786736,0.018316000,0.008767000,0.071305000,-0.003464400,0.007803700,0.032405560,0.999438330,-0.006420000,0.015824000,0.064774000,0.000380856,-0.000261933,0.000352689,0.008664540,-0.022324618,0.004572118,0.011960856,-0.005108371,0.996823624,0.001006775,-0.003463927,-0.000305136,0.000000000,0.000000000,0.000000000,0.000000000,0.018745686,0.008750438,0.071196436,0.022318725,-0.000809068,-0.005917427,0.005857443,-0.001525686,-0.003037266,-0.217054570,0.344263976,3.042093340,-0.001813734,-0.003053483,0.026538273,0.999641203,0.000000000,0.000000000,0.000000000,0.000000000,0.000000000,0.000000000,3.040222095,0.000000000,4.212316990
1772719150.958786249,0.018316000,0.008765000,0.071313000,-0.003463640,0.007559560,0.032377030,0.999441140,-0.006435000,0.015336000,0.064718000,0.000145750,-0.000208416,0.000258048,0.006457997,-0.019568222,0.005259274,0.011847820,-0.006044396,0.995074829,-0.000969489,-0.002080171,-0.000175111,0.000000000,0.000000000,0.000000000,0.000000000,0.018544795,0.008758728,0.071252838,0.021750169,-0.000786325,-0.005652998,0.006000536,-0.001909267,-0.004962489,-0.216073069,0.346086548,3.038347881,-0.001804850,-0.003069096,0.026505597,0.999641927,0.000000000,0.000000000,0.000000000,0.000000000,0.000000000,0.000000000,3.036799537,0.000000000,4.212316990
1772719150.968786478,0.018328000,0.008766000,0.071314000,-0.003411900,0.007761630,0.032464260,0.999436940,-0.006317000,0.015737000,0.064893000,-0.000061307,-0.000084792,-0.000161950,0.000209963,0.002265232,0.005151310,0.011618303,-0.005785554,0.997148387,0.003059015,-0.001042824,-0.000209257,0.000000000,0.000000000,0.000000000,0.000000000,0.018730983,0.008752067,0.071201811,0.022241862,-0.000976485,-0.006073399,0.005257077,-0.001472920,-0.002798662,-0.216634739,0.345544258,3.035397851,-0.001809954,-0.003064449,0.026479855,0.999642757,0.000000000,0.000000000,0.000000000,0.000000000,0.000000000,0.000000000,3.033631672,0.000000000,4.212316990
1772719150.978786469,0.018326000,0.008756000,0.071318000,-0.003423270,0.007692410,0.032404890,0.999439360,-0.006345000,0.015599000,0.064774000,-0.000161445,0.000134774,-0.000420853,-0.004996855,0.014736473,0.004834218,0.012542648,-0.005820465,0.997087677,0.001540314,-0.000842485,-0.000810636,0.000000000,0.000000000,0.000000000,0.000000000,0.018514536,0.008767799,0.071243963,0.021575204,-0.000997720,-0.005889092,0.007286363,-0.001461148,-0.003058051,-0.215484710,0.344675232,3.031871088,-0.001800217,-0.003056546,0.026449133,0.999643501,0.000000000,0.000000000,0.000000000,0.000000000,0.000000000,0.000000000,3.030188016,0.000000000,4.212316990
1772719150.988786697,0.018310000,0.008774000,0.071314000,-0.003402970,0.007668450,0.032535230,0.999435380,-0.006304000,0.015550000,0.065035000,-0.000256436,0.000187476,-0.000471418,-0.007136912,0.021095482,0.003630387,0.013351571,-0.005949640,0.998096878,0.002658687,0.000983713,-0.001226705,0.000000000,0.000000000,0.000000000,0.000000000,0.018521886,0.008760263,0.071249748,0.021676768,-0.001120340,-0.005851526,0.007635048,-0.001918743,-0.001719973,-0.214862254,0.345828944,3.033824252,-0.001794468,-0.003066498,0.026466167,0.999643141,0.000000000,0.000000000,0.000000000,0.000000000,0.000000000,0.000000000,3.030208234,0.000000000,4.212316990
1772719150.998786211,0.018307000,0.008769000,0.071296000,-0.003581140,0.007795260,0.032480910,0.999435540,-0.006653000,0.015815000,0.064923000,-0.000282816,0.000252648,-0.000346959,-0.006475506,0.018804510,0.003501940,0.012262715,-0.005813698,0.997258883,0.000013639,0.000874890,0.001497491,0.000000000,0.000000000,0.000000000,0.000000000,0.018531268,0.008754589,0.071252934,0.021863619,-0.001239420,-0.005726764,0.006750337,-0.002131594,-0.002750471,-0.213480400,0.345062233,3.029958984,-0.001782694,-0.003059430,0.026432499,0.999643941,0.000000000,0.000000000,0.000000000,0.000000000,0.000000000,0.000000000,3.028320572,0.000000000,4.212316990
1772719151.008785963,0.018315000,0.008769000,0.071292000,-0.003584200,0.008134530,0.032513220,0.999431780,-0.006636000,0.016494000,0.064986000,-0.000170847,0.000096428,0.000053653,-0.002926224,0.004672122,0.001997585,0.010262762,-0.004816832,0.996835639,-0.000291688,0.002113638,-0.000722047,0.000000000,0.000000000,0.000000000,0.000000000,0.018534101,0.008750191,0.071255711,0.021925658,-0.001371636,-0.005674097,0.004215094,-0.001106340,-0.003112224,-0.211956173,0.343828142,3.026896320,-0.001769763,-0.003048266,0.026405844,0.999644649,0.000000000,0.000000000,0.000000000,0.000000000,0.000000000,0.000000000,3.025665925,0.000000000,4.212316990
1772719151.018785238,0.018319000,0.008772000,0.071301000,-0.003516100,0.008011110,0.032510640,0.999433100,-0.006508000,0.016242000,0.064982000,0.000038268,0.000110279,0.000181590,0.002928868,-0.002073979,0.001182918,0.008273910,-0.005436687,0.998054877,0.004840618,-0.001552633,-0.000275480,0.000000000,0.000000000,0.000000000,0.000000000,0.018720598,0.008736069,0.071207523,0.022244568,-0.001484674,-0.005934364,0.003052214,-0.002103785,-0.001541863,-0.211421544,0.343384860,3.023433330,-0.001765294,-0.003044222,0.026375658,0.999645561,0.000000000,0.000000000,0.000000000,0.000000000,0.000000000,0.000000000,3.021698470,0.000000000,4.212316990
1772719151.028784752,0.018305000,0.008772000,0.071306000,-0.003536420,0.007999500,0.032502200,0.999433390,-0.006550000,0.016221000,0.064965000,0.000076750,0.000024360,0.000216225,0.007116385,-0.008236632,-0.001776316,0.012545879,-0.006956504,0.996659025,-0.000398277,0.002677795,-0.002083723,0.000000000,0.000000000,0.000000000,0.000000000,0.018521037,0.008753319,0.071244475,0.021296764,-0.001493396,-0.005681384,0.007170627,-0.002729771,-0.003535255,-0.209152809,0.343121497,3.019859607,-0.001745658,-0.003041348,0.026344547,0.999646464,0.000000000,0.000000000,0.000000000,0.000000000,0.000000000,0.000000000,3.018357732,0.000000000,4.212316990
1772719151.038784266,0.018313000,0.008774000,0.071320000,-0.003464690,0.007701360,0.032538530,0.999434800,-0.006425000,0.015620000,0.065041000,0.000005264,-0.000093262,0.000047612,0.006432607,-0.007274119,-0.002993268,0.012598093,-0.005399787,0.996453511,0.000393998,0.003085512,0.000985789,0.000000000,0.000000000,0.000000000,0.000000000,0.018523047,0.008752581,0.071251616,0.021334783,-0.001717930,-0.005656329,0.006945594,-0.001598633,-0.003759196,-0.207178200,0.342130536,3.015880833,-0.001728765,-0.003032189,0.026309906,0.999647389,0.000000000,0.000000000,0.000000000,0.000000000,0.000000000,0.000000000,3.014386479,0.000000000,4.212316990
1772719151.048783541,0.018314000,0.008765000,0.071307000,-0.003415370,0.007763200,0.032487860,0.999436140,-0.006323000,0.015740000,0.064940000,0.000126577,-0.000252318,-0.000170148,0.001709946,0.005892518,-0.007784031,0.011734591,-0.006413060,0.997579069,0.000382067,0.000424412,0.002046626,0.000000000,0.000000000,0.000000000,0.000000000,0.018522741,0.008753479,0.071256072,0.021422858,-0.001727633,-0.005724097,0.006653647,-0.002377218,-0.002807015,-0.204613338,0.339613563,3.010289870,-0.001707116,-0.003009560,0.026261241,0.999648119,0.000000000,0.000000000,0.000000000,0.000000000,0.000000000,0.000000000,3.010671005,0.000000000,4.212316990
1772719151.058782816,0.018312000,0.008779000,0.071292000,-0.003437510,0.007951920,0.032439200,0.999436170,-0.006356000,0.016119000,0.064841000,0.000212126,-0.000198606,-0.000237011,0.000491733,0.015532493,-0.008989557,0.011888248,-0.006122269,0.997601254,0.001319694,-0.000008105,0.001038752,0.000000000,0.000000000,0.000000000,0.000000000,0.018522781,0.008753415,0.071256271,0.021422594,-0.001748528,-0.005721532,0.006742225,-0.002139396,-0.002625127,-0.204306662,0.339651305,3.009761846,-0.001704445,-0.003009811,0.026256643,0.999648245,0.000000000,0.000000000,0.000000000,0.000000000,0.000000000,0.000000000,3.009954187,0.000000000,4.212316990
1772719151.068782330,0.018315000,0.008765000,0.071299000,-0.003463200,0.008062620,0.032399570,0.999436480,-0.006401000,0.016341000,0.064761000,0.000027934,0.000103111,0.000012588,-0.000202627,0.012913284,-0.009264899,0.012041909,-0.005831472,0.997623440,0.002257343,-0.000440631,0.000030854,0.000000000,0.000000000,0.000000000,0.000000000,0.018522821,0.008753351,0.071256469,0.021422331,-0.001769423,-0.005718967,0.006830806,-0.001901567,-0.002443234,-0.203999979,0.339689049,3.009233810,-0.001701775,-0.003010063,0.026252044,0.999648371,0.000000000,0.000000000,0.000000000,0.000000000,0.000000000,0.000000000,3.009436568,0.000000000,4.212316990
1772719151.078782797,0.018319000,0.008756000,0.071303000,-0.003525770,0.008115270,0.032337680,0.999437830,-0.006524000,0.016450000,0.064636000,-0.000347716,0.000413724,0.000151014,-0.002661673,0.003100439,-0.002876195,0.012195584,-0.005540647,0.997645627,0.003195082,-0.000873199,-0.000977140,0.000000000,0.000000000,0.000000000,0.000000000,0.018522861,0.008753287,0.071256667,0.021422067,-0.001790321,-0.005716402,0.006919396,-0.001663716,-0.002261324,-0.203693267,0.339726796,3.008705724,-0.001699105,-0.003010314,0.026247445,0.999648498,0.000000000,0.000000000,0.000000000,0.000000000,0.000000000,0.000000000,3.008918899,0.000000000,4.212316990
1772719151.088782310,0.018318000,0.008775000,0.071311000,-0.003452850,0.008128830,0.032318150,0.999438610,-0.006377000,0.016472000,0.064598000,-0.000319336,0.000526742,0.000295170,-0.002973937,-0.012503936,0.004921176,0.012349245,-0.005249849,0.997667813,0.004132731,-0.001305726,-0.001985037,0.000000000,0.000000000,0.000000000,0.000000000,0.018522901,0.008753223,0.071256865,0.021421803,-0.001811216,-0.005713837,0.007007977,-0.001425888,-0.002079432,-0.203386584,0.339764539,3.008177688,-0.001696435,-0.003010565,0.026242846,0.999648624,0.000000000,0.000000000,0.000000000,0.000000000,0.000000000,0.000000000,3.008401280,0.000000000,4.212316990
1772719151.098782063,0.018304000,0.008783000,0.071308000,-0.003445000,0.007819670,0.032383290,0.999439000,-0.006381000,0.015854000,0.064730000,-0.000238739,0.000237399,0.000209368,-0.003230760,-0.020245542,0.007043377,0.012502909,-0.004959045,0.997689999,0.005070403,-0.001738263,-0.002992959,0.000000000,0.000000000,0.000000000,0.000000000,0.018522941,0.008753159,0.071257063,0.021421539,-0.001832112,-0.005711272,0.007096560,-0.001188054,-0.001897535,-0.203079893,0.339802284,3.007649640,-0.001693764,-0.003010816,0.026238248,0.999648751,0.000000000,0.000000000,0.000000000,0.000000000,0.000000000,0.000000000,3.007883649,0.000000000,4.212316990
1772719151.108782053,0.018298000,0.008789000,0.071312000,-0.003508730,0.007835060,0.032413930,0.999437660,-0.006506000,0.015889000,0.064790000,-0.000031780,-0.000054236,-0.000017094,-0.005733413,-0.021087410,0.006180640,0.012809278,-0.004750832,0.998121874,0.005648166,-0.000998291,-0.002201193,0.000000000,0.000000000,0.000000000,0.000000000,0.018522981,0.008753095,0.071257262,0.021421275,-0.001853008,-0.005708707,0.007185145,-0.000950214,-0.001715634,-0.202773195,0.339840029,3.007121579,-0.001691094,-0.003011067,0.026233649,0.999648877,0.000000000,0.000000000,0.000000000,0.000000000,0.000000000,0.000000000,3.007366005,0.000000000,4.212316990
1772719151.118782043,0.018305000,0.008781000,0.071301000,-0.003544290,0.007729980,0.032562280,0.999433530,-0.006582000,0.015683000,0.065087000,0.000356497,-0.000600617,0.000067484,-0.004445776,-0.010242551,0.003479904,0.013288043,-0.004635871,0.999016280,0.005819574,0.001065428,0.000622408,0.000000000,0.000000000,0.000000000,0.000000000,0.018523061,0.008752885,0.071257413,0.021421852,-0.001874345,-0.005706405,0.007273730,-0.000712374,-0.001533733,-0.202466497,0.339877774,3.006593517,-0.001688424,-0.003011319,0.026229050,0.999649004,0.000000000,0.000000000,0.000000000,0.000000000,0.000000000,0.000000000,3.006848361,0.000000000,4.212316990
1772719151.128781557,0.018318000,0.008767000,0.071309000,-0.003543490,0.007740960,0.032466010,0.999436580,-0.006581000,0.015704000,0.064894000,0.000468524,-0.000598616,0.000088736,0.000503348,-0.000225134,-0.002923825,0.013435777,-0.004603855,0.999638496,0.005216798,0.002812806,0.003084262,0.000000000,0.000000000,0.000000000,0.000000000,0.018525917,0.008742431,0.071254264,0.021481546,-0.001926670,-0.005722547,0.006865319,-0.000730459,-0.000449913,-0.202159284,0.339334809,3.009375183,-0.001685795,-0.003006553,0.026253331,0.999648565,0.000000000,0.000000000,0.000000000,0.000000000,0.000000000,0.000000000,3.007347828,0.000000000,4.212316990
1772719151.138781548,0.018316000,0.008756000,0.071314000,-0.003559340,0.007691790,0.032376700,0.999439800,-0.006617000,0.015606000,0.064715000,0.000153656,-0.000145108,-0.000114105,0.006164254,0.010306051,-0.006804710,0.011160974,-0.005178843,0.998268986,-0.001051943,0.002245790,0.002899712,0.000000000,0.000000000,0.000000000,0.000000000,0.018520421,0.008747055,0.071248170,0.021616116,-0.001863034,-0.005549939,0.005347165,-0.001403084,-0.001508671,-0.202240186,0.338945718,3.011769995,-0.001686527,-0.003003212,0.026274226,0.999647943,0.000000000,0.000000000,0.000000000,0.000000000,0.000000000,0.000000000,3.010493303,0.000000000,4.212316990
1772719151.148781061,0.018321000,0.008761000,0.071308000,-0.003547270,0.007744950,0.032403390,0.999438570,-0.006589000,0.015712000,0.064769000,-0.000292179,0.000252260,-0.000235709,0.007211695,0.005837924,-0.004039975,0.011474885,-0.005146744,0.997655780,0.000522701,0.003219854,0.001334415,0.000000000,0.000000000,0.000000000,0.000000000,0.018511645,0.008754161,0.071237496,0.021542524,-0.001833349,-0.005426970,0.006016690,-0.000218390,-0.002197964,-0.203261752,0.337601868,3.014871867,-0.001695666,-0.002991769,0.026301281,0.999647258,0.000000000,0.000000000,0.000000000,0.000000000,0.000000000,0.000000000,3.013096323,0.000000000,4.212316990
1772719151.158781290,0.018319000,0.008769000,0.071313000,-0.003400530,0.007973130,0.032396460,0.999437510,-0.006281000,0.016158000,0.064756000,-0.000461783,0.000388122,-0.000197383,0.003597150,0.004636659,-0.000887733,0.011422954,-0.004236285,0.999957256,0.001868487,0.004712933,-0.000222691,0.000000000,0.000000000,0.000000000,0.000000000,0.018520480,0.008750560,0.071245670,0.021491547,-0.001860926,-0.005319417,0.005491175,-0.000621663,-0.000093334,-0.203074045,0.335398864,3.013987347,-0.001694558,-0.002972495,0.026293605,0.999647318,0.000000000,0.000000000,0.000000000,0.000000000,0.000000000,0.000000000,3.015325164,0.000000000,4.212316990
1772719151.168780804,0.018299000,0.008789000,0.071299000,-0.003383610,0.007824970,0.032344200,0.999440430,-0.006258000,0.015861000,0.064652000,-0.000160785,0.000247015,-0.000208008,-0.000807049,0.004767143,0.004430282,0.011222541,-0.005249940,0.997157715,-0.000334795,-0.000445783,-0.001278249,0.000000000,0.000000000,0.000000000,0.000000000,0.018527515,0.008750521,0.071259318,0.021469752,-0.001721232,-0.005010456,0.005874324,-0.001114263,-0.003240087,-0.202079619,0.333121953,3.009511938,-0.001686521,-0.002952338,0.026254630,0.999648454,0.000000000,0.000000000,0.000000000,0.000000000,0.000000000,0.000000000,3.011248026,0.000000000,4.212316990
1772719151.178780079,0.018296000,0.008776000,0.071291000,-0.003500370,0.007919650,0.032436770,0.999436280,-0.006484000,0.016058000,0.064835000,0.000347794,-0.000208047,0.000110997,-0.005651852,0.008490760,0.003857055,0.011938860,-0.005105500,0.995992798,0.002162499,-0.002440758,0.000779182,0.000000000,0.000000000,0.000000000,0.000000000,0.018620521,0.008741740,0.071243050,0.021652737,-0.001793890,-0.005063196,0.006003940,-0.001465011,-0.004315089,-0.200169984,0.333519534,3.006858455,-0.001669839,-0.002955330,0.026231519,0.999649074,0.000000000,0.000000000,0.000000000,0.000000000,0.000000000,0.000000000,3.007977517,0.000000000,4.212316990
1772719151.188780069,0.018312000,0.008767000,0.071310000,-0.003543390,0.007721750,0.032497820,0.999435700,-0.006582000,0.015666000,0.064958000,0.000307156,-0.000543118,0.000326873,-0.009232080,0.002150660,0.002329928,0.011429216,-0.004131426,0.996855811,0.000444991,0.000539516,-0.000160873,0.000000000,0.000000000,0.000000000,0.000000000,0.018842479,0.008722935,0.071189865,0.022265024,-0.001927731,-0.005459178,0.005348302,-0.000647039,-0.002425556,-0.199069114,0.333025964,3.004543233,-0.001660408,-0.002950739,0.026211360,0.999649644,0.000000000,0.000000000,0.000000000,0.000000000,0.000000000,0.000000000,3.005686460,0.000000000,4.212316990
1772719151.198779583,0.018323000,0.008759000,0.071311000,-0.003575810,0.007944000,0.032411190,0.999436650,-0.006634000,0.016112000,0.064783000,0.000244373,-0.000490999,0.000113931,-0.008070481,0.004670797,0.000333655,0.011181594,-0.003462916,0.997671572,-0.000104276,0.000094719,-0.002476860,0.000000000,0.000000000,0.000000000,0.000000000,0.019061698,0.008703821,0.071135294,0.022814938,-0.002004779,-0.005763578,0.005357394,0.000211443,-0.002693652,-0.198765376,0.332057751,3.001471489,-0.001658059,-0.002942179,0.026184586,0.999650310,0.000000000,0.000000000,0.000000000,0.000000000,0.000000000,0.000000000,3.003035431,0.000000000,4.212316990
1772719151.208779812,0.018329000,0.008762000,0.071310000,-0.003574050,0.008064400,0.032444520,0.999434610,-0.006622000,0.016352000,0.064849000,0.000092660,-0.000242372,-0.000031061,-0.003465570,0.004182345,-0.001669501,0.012411863,-0.004391840,0.998013451,0.000843367,-0.002426627,-0.000699956,0.000000000,0.000000000,0.000000000,0.000000000,0.019266781,0.008685917,0.071083080,0.023286419,-0.002023941,-0.005982152,0.006440872,-0.001022826,-0.001826830,-0.197570763,0.332684757,2.998115662,-0.001647581,-0.002947327,0.026155332,0.999651128,0.000000000,0.000000000,0.000000000,0.000000000,0.000000000,0.000000000,2.999952809,0.000000000,4.212316990
1772719151.218779564,0.018318000,0.008756000,0.071314000,-0.003615990,0.007994710,0.032421430,0.999435770,-0.006710000,0.016216000,0.064802000,-0.000241673,0.000198373,-0.000196314,-0.000748503,-0.005271097,-0.003016892,0.013604711,-0.005138553,0.996829723,-0.000556208,-0.002890011,-0.000552887,0.000000000,0.000000000,0.000000000,0.000000000,0.019467291,0.008668596,0.071031427,0.023773171,-0.002030623,-0.006146221,0.008713620,-0.001091254,-0.002106044,-0.196159360,0.333674062,2.995348109,-0.001635113,-0.002955596,0.026131209,0.999651722,0.000000000,0.000000000,0.000000000,0.000000000,0.000000000,0.000000000,2.996795401,0.000000000,4.212316990
1772719151.228778601,0.018294000,0.008766000,0.071301000,-0.003592380,0.007740120,0.032427020,0.999437680,-0.006680000,0.015705000,0.064815000,-0.000367375,0.000400787,-0.000160629,-0.000614836,-0.012854021,-0.001876095,0.013789059,-0.003875574,0.995492062,-0.002175107,-0.000036595,-0.002942188,0.000000000,0.000000000,0.000000000,0.000000000,0.019743585,0.008644431,0.070959584,0.024614672,-0.002188256,-0.006440538,0.007404272,-0.000101966,-0.005215279,-0.196346641,0.336750308,2.991100904,-0.001636156,-0.002982414,0.026094106,0.999652671,0.000000000,0.000000000,0.000000000,0.000000000,0.000000000,0.000000000,2.992885470,0.000000000,4.212316990
1772719151.238778353,0.018312000,0.008769000,0.071291000,-0.003583270,0.007991410,0.032381850,0.999437200,-0.006646000,0.016207000,0.064724000,-0.000032246,0.000144195,0.000161232,0.000435414,-0.016522468,-0.001482563,0.014936842,-0.004892177,0.997258934,0.000326842,0.002049013,0.001852852,0.000000000,0.000000000,0.000000000,0.000000000,0.019416392,0.008669729,0.071049570,0.020915289,-0.001812074,-0.005502373,0.008220927,-0.000966799,-0.003317558,-0.202375467,0.380901074,2.993907740,-0.001678609,-0.003368983,0.026117722,0.999650408,0.000000000,0.000000000,0.000000000,0.000000000,0.000000000,0.000000000,2.993997426,0.000000000,4.212316990
1772719151.248777628,0.018317000,0.008766000,0.071309000,-0.003615880,0.007698150,0.032424950,0.999437990,-0.006729000,0.015623000,0.064811000,0.000255251,-0.000086346,0.000279261,0.000597904,-0.001915099,-0.001133948,0.014029638,-0.004920385,0.998429073,-0.002753747,-0.000362019,-0.000630519,0.000000000,0.000000000,0.000000000,0.000000000,0.018505678,0.008749021,0.071263859,0.015613685,-0.001143044,-0.003854879,0.007160962,-0.001165973,-0.002007551,-0.203755073,0.378612462,3.001952176,-0.001690934,-0.003349456,0.026187895,0.999646506,0.000000000,0.000000000,0.000000000,0.000000000,0.000000000,0.000000000,3.032479275,0.000000000,4.212316990
1772719151.258777142,0.018314000,0.008771000,0.071316000,-0.003586980,0.007708460,0.032411640,0.999438440,-0.006671000,0.015641000,0.064785000,0.000042406,0.000002972,-0.000085064,0.001027340,0.014821299,0.002132953,0.013948987,-0.005383253,0.999321637,-0.002850978,0.000025804,-0.000222702,0.000000000,0.000000000,0.000000000,0.000000000,0.018461923,0.008755512,0.071268205,0.015528928,-0.001170306,-0.003808751,0.007480264,-0.001955585,-0.000693289,-0.208565826,0.375485966,3.023061507,-0.001733003,-0.003323600,0.026371956,0.999642493,0.000000000,0.000000000,0.000000000,0.000000000,0.000000000,0.000000000,3.031780076,0.000000000,4.212316990
1772719151.268776894,0.018314000,0.008769000,0.071313000,-0.003576040,0.007790700,0.032380440,0.999438850,-0.006644000,0.015805000,0.064722000,-0.000205716,-0.000049904,-0.000333167,0.000593677,0.022998077,0.003017934,0.012007217,-0.007419306,0.998645746,0.003170581,-0.002109003,-0.002749328,0.000000000,0.000000000,0.000000000,0.000000000,0.018559705,0.008755093,0.071235598,0.016438669,-0.001332438,-0.003882891,0.005883946,-0.003341197,-0.001255444,-0.210920686,0.373950813,3.029690324,-0.001753705,-0.003310847,0.026429740,0.999643236,0.000000000,0.000000000,0.000000000,0.000000000,0.000000000,0.000000000,3.028208773,0.000000000,4.212316990
1772719151.278776407,0.018319000,0.008750000,0.071306000,-0.003571820,0.008056710,0.032407170,0.999435890,-0.006618000,0.016337000,0.064774000,-0.000357332,0.000074944,-0.000462249,0.002801319,0.022102279,0.003334589,0.011028255,-0.005883764,0.997878618,0.003018747,-0.005539053,-0.000603815,0.000000000,0.000000000,0.000000000,0.000000000,0.018457864,0.008758205,0.071263142,0.016731304,-0.001573692,-0.003759612,0.005322117,-0.001938075,-0.002001626,-0.209607475,0.375234729,3.026246581,-0.001742053,-0.003321692,0.026399716,0.999643961,0.000000000,0.000000000,0.000000000,0.000000000,0.000000000,0.000000000,3.024907358,0.000000000,4.212316990
1772719151.288775682,0.018303000,0.008771000,0.071294000,-0.003599780,0.008241530,0.032484140,0.999431790,-0.006661000,0.016708000,0.064927000,0.000001709,0.000139572,-0.000308963,0.004889978,0.015710865,0.000549912,0.010395720,-0.004026554,0.996498241,0.001716146,-0.001117277,-0.000357311,0.000000000,0.000000000,0.000000000,0.000000000,0.018465059,0.008754805,0.071259685,0.016929221,-0.001726132,-0.003797616,0.003610472,-0.000337866,-0.004013744,-0.207983762,0.377396402,3.023267620,-0.001727477,-0.003340130,0.026373740,0.999644663,0.000000000,0.000000000,0.000000000,0.000000000,0.000000000,0.000000000,3.021753816,0.000000000,4.212316990
1772719151.298775196,0.018291000,0.008779000,0.071278000,-0.003554810,0.008196070,0.032473060,0.999432680,-0.006574000,0.016614000,0.064906000,0.000231047,-0.000001943,0.000271335,0.007355877,-0.002652966,-0.000178524,0.012548123,-0.004180263,0.995960077,0.000890128,0.001052938,0.003696179,0.000000000,0.000000000,0.000000000,0.000000000,0.018477797,0.008749031,0.071264122,0.017051351,-0.001695134,-0.003941848,0.006180471,0.000239654,-0.002916480,-0.208187022,0.376944947,3.019954077,-0.001729450,-0.003336189,0.026344835,0.999645136,0.000000000,0.000000000,0.000000000,0.000000000,0.000000000,0.000000000,3.019275561,0.000000000,4.212316990
1772719151.308774471,0.018320000,0.008764000,0.071306000,-0.003517000,0.008077270,0.032417300,0.999435590,-0.006507000,0.016374000,0.064795000,0.000374698,-0.000066338,0.000744677,0.008687308,-0.020909962,-0.001648166,0.013014688,-0.004961174,0.996233386,0.001823765,-0.001055091,0.001545306,0.000000000,0.000000000,0.000000000,0.000000000,0.018567430,0.008737488,0.071245953,0.017466625,-0.001661363,-0.004211815,0.006300025,-0.001164437,-0.003546544,-0.206358528,0.377340561,3.018626509,-0.001713447,-0.003339200,0.026333300,0.999645469,0.000000000,0.000000000,0.000000000,0.000000000,0.000000000,0.000000000,3.018006190,0.000000000,4.212316990
1772719151.318774700,0.018323000,0.008768000,0.071318000,-0.003438730,0.007968070,0.032417160,0.999436750,-0.006358000,0.016151000,0.064797000,0.000410772,-0.000133978,0.000649006,0.006278719,-0.031463074,-0.004764264,0.012032309,-0.005978863,0.997637857,0.000522840,0.002044912,-0.000814794,0.000000000,0.000000000,0.000000000,0.000000000,0.018655353,0.008727678,0.071222449,0.017933150,-0.001720616,-0.004491219,0.006029997,-0.002270393,-0.002755446,-0.205930445,0.376792266,3.016979835,-0.001709887,-0.003334294,0.026318959,0.999646074,0.000000000,0.000000000,0.000000000,0.000000000,0.000000000,0.000000000,3.015966232,0.000000000,4.212316990
1772719151.328774214,0.018322000,0.008764000,0.071319000,-0.003425930,0.007747860,0.032376120,0.999439850,-0.006347000,0.015710000,0.064716000,0.000085356,-0.000208980,0.000048311,-0.001498872,-0.025081121,-0.002714620,0.012847752,-0.005888879,0.997417243,0.002404225,0.000427112,0.000149910,0.000000000,0.000000000,0.000000000,0.000000000,0.018657479,0.008723183,0.071223424,0.018159389,-0.001893217,-0.004549119,0.006310648,-0.001665420,-0.002246299,-0.205037696,0.375626413,3.014123254,-0.001702450,-0.003323876,0.026294084,0.999646870,0.000000000,0.000000000,0.000000000,0.000000000,0.000000000,0.000000000,3.012574879,0.000000000,4.212316990
1772719151.338773489,0.018315000,0.008758000,0.071318000,-0.003394360,0.007757490,0.032431740,0.999438080,-0.006283000,0.015727000,0.064828000,-0.000370425,0.000198975,-0.000557492,-0.008114283,-0.014279381,0.002408946,0.010901718,-0.004505356,0.998631113,0.000813561,0.000107431,-0.000399339,0.000000000,0.000000000,0.000000000,0.000000000,0.018665015,0.008720431,0.071226755,0.018409044,-0.002007065,-0.004576346,0.004386204,-0.000505320,-0.001045669,-0.204397985,0.374595096,3.011095925,-0.001697193,-0.003314687,0.026267709,0.999647505,0.000000000,0.000000000,0.000000000,0.000000000,0.000000000,0.000000000,3.009816291,0.000000000,4.212316990
1772719151.348772287,0.018316000,0.008768000,0.071307000,-0.003494120,0.007566590,0.032407460,0.999439990,-0.006495000,0.015352000,0.064779000,-0.000561397,0.000437074,-0.000877858,-0.009901443,-0.000559954,0.004466719,0.010824456,-0.002696047,0.998082313,0.002511978,-0.003091497,-0.000339359,0.000000000,0.000000000,0.000000000,0.000000000,0.018503357,0.008741958,0.071256018,0.018143411,-0.001890805,-0.004388081,0.005286703,0.000539795,-0.002791868,-0.203148361,0.375494963,3.008137214,-0.001686172,-0.003322207,0.026241921,0.999648381,0.000000000,0.000000000,0.000000000,0.000000000,0.000000000,0.000000000,3.006508614,0.000000000,4.212316990
1772719151.358772039,0.018308000,0.008773000,0.071285000,-0.003587930,0.007674890,0.032386470,0.999439510,-0.006676000,0.015574000,0.064735000,-0.000136173,0.000012063,-0.000411665,-0.006898456,0.010812066,0.004804614,0.012733294,-0.003269853,0.997122570,0.000952562,0.000470623,0.001856672,0.000000000,0.000000000,0.000000000,0.000000000,0.018488636,0.008746435,0.071257382,0.018161092,-0.001692751,-0.004394293,0.006472252,0.000906983,-0.002827702,-0.201521393,0.376417724,3.003734856,-0.001671895,-0.003329820,0.026203550,0.999649336,0.000000000,0.000000000,0.000000000,0.000000000,0.000000000,0.000000000,3.002177479,0.000000000,4.212316990
1772719151.368771553,0.018298000,0.008774000,0.071284000,-0.003668230,0.007841140,0.032517810,0.999433670,-0.006823000,0.015913000,0.064995000,0.000309215,-0.000169682,0.000075798,-0.002994375,0.018442282,0.004752155,0.010789925,-0.004351916,0.997743723,0.002970633,-0.000065770,0.000466878,0.000000000,0.000000000,0.000000000,0.000000000,0.018491918,0.008744646,0.071257792,0.018406733,-0.001546405,-0.004523918,0.004317062,-0.001168728,-0.002463926,-0.200049152,0.374905810,3.000243985,-0.001659499,-0.003316244,0.026173162,0.999650297,0.000000000,0.000000000,0.000000000,0.000000000,0.000000000,0.000000000,2.998447206,0.000000000,4.212316990
1772719151.378771544,0.018315000,0.008775000,0.071302000,-0.003554830,0.007831750,0.032508900,0.999434440,-0.006597000,0.015886000,0.064979000,0.000425574,-0.000135590,0.000275473,0.000823289,0.018220806,0.001587821,0.010267567,-0.005460445,0.998444720,0.003123323,0.000692059,-0.000263203,0.000000000,0.000000000,0.000000000,0.000000000,0.018493788,0.008747269,0.071262853,0.018435180,-0.001521278,-0.004539765,0.003847998,-0.002021923,-0.001349559,-0.199355839,0.374454603,2.996118449,-0.001653673,-0.003312090,0.026137198,0.999651281,0.000000000,0.000000000,0.000000000,0.000000000,0.000000000,0.000000000,2.994269968,0.000000000,4.212316990
1772719151.388771534,0.018320000,0.008763000,0.071307000,-0.003530960,0.008041670,0.032460840,0.999434420,-0.006537000,0.016304000,0.064882000,0.000254882,-0.000159678,0.000205444,0.003903927,0.027186876,-0.000415067,0.010969979,-0.005991292,0.997361697,0.000955962,0.000566477,0.001070156,0.000000000,0.000000000,0.000000000,0.000000000,0.018553890,0.008739497,0.071252962,0.018523389,-0.001653375,-0.004542512,0.004622292,-0.001910630,-0.002746902,-0.197929039,0.374375289,2.993233386,-0.001641328,-0.003311031,0.026112072,0.999651900,0.000000000,0.000000000,0.000000000,0.000000000,0.000000000,0.000000000,2.991131852,0.000000000,4.212316990
1772719151.398772001,0.018326000,0.008747000,0.071310000,-0.003527030,0.008068550,0.032481700,0.999433540,-0.006527000,0.016358000,0.064924000,0.000165602,0.000022067,0.000054139,0.000913316,0.030247836,-0.005506194,0.012006529,-0.005735286,0.996676240,0.000157583,0.000207980,-0.001146413,0.000000000,0.000000000,0.000000000,0.000000000,0.018646979,0.008730349,0.071229907,0.018741919,-0.001781768,-0.004660438,0.006194337,-0.002499411,-0.003202427,-0.197898303,0.372574536,2.995724831,-0.001641398,-0.003295350,0.026133840,0.999651370,0.000000000,0.000000000,0.000000000,0.000000000,0.000000000,0.000000000,2.991829196,0.000000000,4.212316990
1772719151.408771515,0.018325000,0.008774000,0.071298000,-0.003612210,0.008182720,0.032455830,0.999433150,-0.006690000,0.016591000,0.064870000,-0.000245810,0.000191322,-0.000379322,-0.001180416,0.028693900,-0.006533323,0.013022833,-0.003956024,0.996692445,0.000405530,-0.001366367,-0.003682519,0.000000000,0.000000000,0.000000000,0.000000000,0.018509466,0.008739201,0.071263019,0.018509351,-0.001870940,-0.004599301,0.006108503,0.000078098,-0.002317904,-0.196830435,0.371888190,2.993811874,-0.001632294,-0.003289092,0.026117193,0.999651991,0.000000000,0.000000000,0.000000000,0.000000000,0.000000000,0.000000000,2.991782320,0.000000000,4.212316990
1772719151.418771029,0.018306000,0.008781000,0.071287000,-0.003580640,0.008322610,0.032390460,0.999434230,-0.006619000,0.016869000,0.064739000,-0.000528723,0.000278309,-0.000437948,-0.003130181,0.014780375,-0.004640767,0.012027066,-0.003738157,0.997518725,0.001806385,-0.004559626,0.002790296,0.000000000,0.000000000,0.000000000,0.000000000,0.018677529,0.008722291,0.071220747,0.019086986,-0.001911872,-0.004865073,0.005501877,0.000057772,-0.002425823,-0.195978985,0.372054807,2.989803435,-0.001624944,-0.003290295,0.026082243,0.999652471,0.000000000,0.000000000,0.000000000,0.000000000,0.000000000,0.000000000,2.988305773,0.000000000,4.212316990
1772719151.428771257,0.018308000,0.008766000,0.071290000,-0.003601190,0.008686970,0.032394850,0.999430910,-0.006637000,0.017598000,0.064746000,-0.000105597,0.000113018,-0.000081665,0.000565540,-0.000323741,-0.003628477,0.013074721,-0.003630168,0.997613727,0.000422459,0.001021047,0.002141204,0.000000000,0.000000000,0.000000000,0.000000000,0.018685569,0.008720882,0.071215301,0.019209714,-0.001819106,-0.004904950,0.006834653,0.000191048,-0.002447631,-0.195327445,0.373323809,2.987863061,-0.001619027,-0.003301190,0.026065317,0.999652890,0.000000000,0.000000000,0.000000000,0.000000000,0.000000000,0.000000000,2.987002552,0.000000000,4.212316990
1772719151.438771009,0.018316000,0.008770000,0.071301000,-0.003623760,0.008468440,0.032342220,0.999434410,-0.006697000,0.017163000,0.064641000,-0.000013773,-0.000229745,0.000185941,0.003976113,-0.006237487,-0.000971605,0.014047977,-0.005995037,0.997106890,0.004085670,-0.003647190,0.001652848,0.000000000,0.000000000,0.000000000,0.000000000,0.018687683,0.008722195,0.071213056,0.019365579,-0.001726078,-0.004926858,0.007385411,-0.002012009,-0.002780486,-0.195442952,0.372886556,2.988859803,-0.001620106,-0.003297416,0.026074017,0.999653082,0.000000000,0.000000000,0.000000000,0.000000000,0.000000000,0.000000000,2.984595156,0.000000000,4.212316990
1772719151.448770285,0.018303000,0.008768000,0.071290000,-0.003524000,0.008211780,0.032424470,0.999434240,-0.006512000,0.016644000,0.064809000,0.000076711,-0.000562271,0.000392453,0.004218885,-0.016569817,0.003472093,0.012374949,-0.006976415,0.997783370,0.002473138,0.000416150,0.000802487,0.000000000,0.000000000,0.000000000,0.000000000,0.018586169,0.008736340,0.071237901,0.019362014,-0.001704617,-0.004860540,0.006402569,-0.003178954,-0.002513738,-0.195089093,0.372286434,2.989419930,-0.001617139,-0.003292108,0.026078923,0.999652689,0.000000000,0.000000000,0.000000000,0.000000000,0.000000000,0.000000000,2.987197769,0.000000000,4.212316990
1772719151.458770514,0.018317000,0.008764000,0.071303000,-0.003553760,0.008044640,0.032367050,0.999437360,-0.006584000,0.016311000,0.064694000,0.000092912,-0.000442493,0.000502441,0.003692342,-0.019285048,0.003454897,0.011670099,-0.007040386,0.998161392,0.001458881,0.002544794,0.000717839,0.000000000,0.000000000,0.000000000,0.000000000,0.018503192,0.008747451,0.071258593,0.019319394,-0.001735125,-0.004798694,0.005023518,-0.002668783,-0.001869789,-0.193554926,0.373178107,2.987618070,-0.001603604,-0.003299512,0.026063233,0.999653229,0.000000000,0.000000000,0.000000000,0.000000000,0.000000000,0.000000000,2.987338216,0.000000000,4.212316990
1772719151.468770266,0.018327000,0.008755000,0.071307000,-0.003493350,0.008262160,0.032420520,0.999434060,-0.006448000,0.016742000,0.064801000,-0.000061074,-0.000246587,0.000425457,0.003308766,-0.018606871,0.004088576,0.011940928,-0.006782318,0.998181721,0.001611221,0.002190545,0.001136805,0.000000000,0.000000000,0.000000000,0.000000000,0.018504635,0.008747431,0.071258046,0.019337143,-0.001776441,-0.004796145,0.005324006,-0.002524165,-0.001916968,-0.193228901,0.373120406,2.987142637,-0.001600787,-0.003298928,0.026059096,0.999653311,0.000000000,0.000000000,0.000000000,0.000000000,0.000000000,0.000000000,2.986855683,0.000000000,4.212316990
1772719151.478770256,0.018297000,0.008757000,0.071304000,-0.003506710,0.008225350,0.032477360,0.999432470,-0.006476000,0.016670000,0.064915000,0.000049826,-0.000187709,0.000185708,0.000792553,-0.014354703,0.004869079,0.012211763,-0.006524243,0.998202051,0.001763565,0.001836287,0.001555782,0.000000000,0.000000000,0.000000000,0.000000000,0.018506079,0.008747410,0.071257499,0.019354892,-0.001817759,-0.004793595,0.005624502,-0.002379543,-0.001964148,-0.192902869,0.373062703,2.986667192,-0.001597970,-0.003298344,0.026054959,0.999653392,0.000000000,0.000000000,0.000000000,0.000000000,0.000000000,0.000000000,2.986373139,0.000000000,4.212316990
1772719151.488770008,0.018311000,0.008752000,0.071312000,-0.003536590,0.007925420,0.032468210,0.999435090,-0.006555000,0.016072000,0.064898000,0.000046602,0.000153073,-0.000024729,-0.003663847,-0.019726600,0.002449326,0.012482592,-0.006266174,0.998222381,0.001915906,0.001482038,0.001974749,0.000000000,0.000000000,0.000000000,0.000000000,0.018507522,0.008747390,0.071256952,0.019372640,-0.001859076,-0.004791046,0.005924990,-0.002234925,-0.002011327,-0.192576844,0.373005001,2.986191759,-0.001595152,-0.003297759,0.026050822,0.999653474,0.000000000,0.000000000,0.000000000,0.000000000,0.000000000,0.000000000,2.985890606,0.000000000,4.212316990
1772719151.498769522,0.018316000,0.008755000,0.071317000,-0.003482250,0.007921570,0.032415700,0.999437010,-0.006448000,0.016061000,0.064793000,-0.000065639,0.000184678,-0.000367686,-0.006539100,-0.020775628,0.001669257,0.012753415,-0.006008112,0.998242710,0.002068242,0.001127798,0.002393705,0.000000000,0.000000000,0.000000000,0.000000000,0.018508966,0.008747370,0.071256405,0.019390389,-0.001900392,-0.004788497,0.006225471,-0.002090310,-0.002058505,-0.192250827,0.372947301,2.985716337,-0.001592335,-0.003297175,0.026046685,0.999653555,0.000000000,0.000000000,0.000000000,0.000000000,0.000000000,0.000000000,2.985408085,0.000000000,4.212316990
1772719151.508769512,0.018316000,0.008765000,0.071302000,-0.003547290,0.007723720,0.032533740,0.999434500,-0.006589000,0.015670000,0.065030000,0.000114416,0.000282389,-0.000427108,-0.006924803,-0.014594245,-0.000663016,0.013024250,-0.005750037,0.998263039,0.002220586,0.000773540,0.002812682,0.000000000,0.000000000,0.000000000,0.000000000,0.018510409,0.008747349,0.071255858,0.019408138,-0.001941709,-0.004785947,0.006525967,-0.001945688,-0.002105685,-0.191924795,0.372889598,2.985240893,-0.001589518,-0.003296591,0.026042548,0.999653637,0.000000000,0.000000000,0.000000000,0.000000000,0.000000000,0.000000000,2.984853708,0.000000000,4.212316990
1772719151.518768787,0.018318000,0.008762000,0.071292000,-0.003589940,0.007692110,0.032485230,0.999436170,-0.006677000,0.015609000,0.064932000,0.000153461,0.000177530,-0.000203113,-0.002566589,-0.003761019,-0.000721947,0.012121588,-0.004827013,0.996194561,0.004224909,-0.003040230,-0.001443226,0.000000000,0.000000000,0.000000000,0.000000000,0.018510501,0.008744952,0.071257766,0.019503412,-0.002023525,-0.004750325,0.005812886,-0.001223959,-0.003053857,-0.191141273,0.372763641,2.984160746,-0.001582742,-0.003295299,0.026033150,0.999653924,0.000000000,0.000000000,0.000000000,0.000000000,0.000000000,0.000000000,2.983083195,0.000000000,4.212316990
1772719151.528768063,0.018307000,0.008767000,0.071299000,-0.003643510,0.007749310,0.032436130,0.999437130,-0.006781000,0.015727000,0.064833000,-0.000163524,0.000020669,0.000055382,0.002281773,0.006371827,0.001075574,0.011537458,-0.005482583,0.995468911,0.002631318,-0.002037199,0.002071821,0.000000000,0.000000000,0.000000000,0.000000000,0.018616875,0.008732353,0.071232388,0.019834596,-0.002109497,-0.004939186,0.005006566,-0.001688600,-0.004384018,-0.189765374,0.373194675,2.981741137,-0.001570711,-0.003298714,0.026012075,0.999654674,0.000000000,0.000000000,0.000000000,0.000000000,0.000000000,0.000000000,2.979602166,0.000000000,4.212316990
1772719151.538768053,0.018314000,0.008754000,0.071299000,-0.003613790,0.007888560,0.032473710,0.999434920,-0.006712000,0.016004000,0.064908000,-0.000083063,-0.000172576,0.000398087,0.003501643,0.008441865,0.002053384,0.011723350,-0.007232984,0.995995324,0.001259511,0.002169596,0.002669628,0.000000000,0.000000000,0.000000000,0.000000000,0.018638916,0.008731720,0.071227935,0.019914510,-0.002151956,-0.005111525,0.005368951,-0.003708278,-0.004335336,-0.188549791,0.374698343,2.978710649,-0.001559853,-0.003311514,0.025985649,0.999655032,0.000000000,0.000000000,0.000000000,0.000000000,0.000000000,0.000000000,2.977690302,0.000000000,4.212316990
1772719151.548767805,0.018316000,0.008769000,0.071305000,-0.003497410,0.007855480,0.032480740,0.999435370,-0.006481000,0.015930000,0.064924000,0.000012180,-0.000246296,0.000495234,0.005622352,0.014314147,-0.002115154,0.012560185,-0.008138250,0.997097053,0.000673163,0.005538448,0.001215037,0.000000000,0.000000000,0.000000000,0.000000000,0.018533199,0.008745807,0.071255755,0.019680423,-0.002211463,-0.005136918,0.006329748,-0.004716116,-0.002008671,-0.186825733,0.374785993,2.977092799,-0.001544840,-0.003311866,0.025971585,0.999655663,0.000000000,0.000000000,0.000000000,0.000000000,0.000000000,0.000000000,2.975582493,0.000000000,4.212316990
1772719151.558767557,0.018312000,0.008756000,0.071319000,-0.003479650,0.007798150,0.032482220,0.999435830,-0.006450000,0.015814000,0.064927000,0.000068475,-0.000230930,0.000271335,0.005193368,0.006821403,-0.003287317,0.013266481,-0.006512589,0.997637457,0.000740792,0.003918121,0.002490176,0.000000000,0.000000000,0.000000000,0.000000000,0.018706157,0.008725009,0.071210126,0.020189936,-0.002630542,-0.005397124,0.007045721,-0.003076016,-0.002937560,-0.185615804,0.373645004,2.974253264,-0.001534625,-0.003301600,0.025946866,0.999656262,0.000000000,0.000000000,0.000000000,0.000000000,0.000000000,0.000000000,2.972696311,0.000000000,4.212316990
1772719151.568767548,0.018312000,0.008754000,0.071311000,-0.003502760,0.008019260,0.032507510,0.999433180,-0.006481000,0.016258000,0.064976000,0.000073273,-0.000123274,-0.000140252,0.000240863,0.000629569,-0.002824656,0.011267331,-0.005480539,0.995708120,0.002474919,0.000466691,0.000942600,0.000000000,0.000000000,0.000000000,0.000000000,0.018704828,0.008720642,0.071209556,0.020400751,-0.002848848,-0.005415878,0.004280360,-0.001422777,-0.004341945,-0.185127765,0.372457212,2.971225037,-0.001530724,-0.003291087,0.025920477,0.999657003,0.000000000,0.000000000,0.000000000,0.000000000,0.000000000,0.000000000,2.969856268,0.000000000,4.212316990
1772719151.578767061,0.018315000,0.008756000,0.071309000,-0.003587490,0.007960130,0.032444890,0.999435390,-0.006655000,0.016145000,0.064850000,-0.000063385,0.000075157,-0.000243829,-0.003969987,0.004750475,-0.000973698,0.010197504,-0.004409669,0.995671334,-0.000179560,-0.000714392,0.000662464,0.000000000,0.000000000,0.000000000,0.000000000,0.018712003,0.008715397,0.071206138,0.020420285,-0.002919837,-0.005624283,0.003915118,-0.001388693,-0.004561096,-0.183834701,0.372148081,2.968182920,-0.001519601,-0.003288058,0.025893984,0.999657767,0.000000000,0.000000000,0.000000000,0.000000000,0.000000000,0.000000000,2.966598101,0.000000000,4.212316990
1772719151.588766813,0.018316000,0.008755000,0.071303000,-0.003509820,0.008035570,0.032318180,0.999439170,-0.006497000,0.016290000,0.064597000,0.000136425,0.000168089,-0.000391676,-0.003377045,0.009026979,0.001340729,0.010863059,-0.004600726,0.997655239,0.000260262,0.000389314,-0.000761866,0.000000000,0.000000000,0.000000000,0.000000000,0.018712226,0.008706791,0.071203832,0.020303022,-0.002924987,-0.005816760,0.004743627,-0.001180073,-0.001762938,-0.183342115,0.371302890,2.964800038,-0.001515592,-0.003280529,0.025864496,0.999658340,0.000000000,0.000000000,0.000000000,0.000000000,0.000000000,0.000000000,2.963711250,0.000000000,4.212316990
1772719151.598766088,0.018315000,0.008757000,0.071303000,-0.003513640,0.007823420,0.032450450,0.999436550,-0.006516000,0.015867000,0.064863000,0.000227570,0.000300726,-0.000285982,-0.000633473,0.012778473,0.002361343,0.010303742,-0.004926060,0.998688287,0.002322538,0.002543980,-0.002152579,0.000000000,0.000000000,0.000000000,0.000000000,0.018715077,0.008707543,0.071198801,0.020269933,-0.002916495,-0.005822858,0.004434501,-0.001570119,-0.001303450,-0.183444079,0.370626685,2.962327264,-0.001516704,-0.003274620,0.025842936,0.999659206,0.000000000,0.000000000,0.000000000,0.000000000,0.000000000,0.000000000,2.960723778,0.000000000,4.212316990
1772719151.608765841,0.018315000,0.008767000,0.071296000,-0.003620740,0.008043210,0.032555980,0.999430990,-0.006715000,0.016314000,0.065071000,0.000196567,0.000134522,-0.000011325,0.002836842,0.009385525,0.002393368,0.011995374,-0.005020270,0.996446112,0.001724425,0.001368412,-0.002292449,0.000000000,0.000000000,0.000000000,0.000000000,0.018714958,0.008708813,0.071194912,0.020185722,-0.002938770,-0.005711827,0.004821413,-0.001635516,-0.003185390,-0.181713411,0.368073467,2.958932585,-0.001502279,-0.003251912,0.025813407,0.999659935,0.000000000,0.000000000,0.000000000,0.000000000,0.000000000,0.000000000,2.957696345,0.000000000,4.212316990
1772719151.618765116,0.018318000,0.008765000,0.071307000,-0.003534190,0.008272580,0.032494610,0.999431430,-0.006528000,0.016766000,0.064949000,0.000186757,0.000109599,0.000112357,0.005094005,0.003306831,0.000597046,0.012003870,-0.004786812,0.997081590,-0.000348449,-0.002190944,0.003248971,0.000000000,0.000000000,0.000000000,0.000000000,0.018712701,0.008708409,0.071195613,0.020204077,-0.002965182,-0.005789681,0.005902691,-0.001330900,-0.003525780,-0.180299106,0.367354403,2.955621369,-0.001490197,-0.003245277,0.025784571,0.999660825,0.000000000,0.000000000,0.000000000,0.000000000,0.000000000,0.000000000,2.953424827,0.000000000,4.212316990
