t,px,py,pz,qx,qy,qz,qw,roll,pitch,yaw,vx,vy,vz,wx_vicon,wy_vicon,wz_vicon,imu_acc_x,imu_acc_y,imu_acc_z,imu_gyro_x,imu_gyro_y,imu_gyro_z,motor_motor_m1,motor_motor_m2,motor_motor_m3,motor_motor_m4,est_stateEstimate_x,est_stateEstimate_y,est_stateEstimate_z,est_stateEstimate_vx,est_stateEstimate_vy,est_stateEstimate_vz,est_stateEstimate_ax,est_stateEstimate_ay,est_stateEstimate_az,att_stateEstimate_roll,att_stateEstimate_pitch,att_stateEstimate_yaw,att_stateEstimate_qx,att_stateEstimate_qy,att_stateEstimate_qz,att_stateEstimate_qw,sp_ctrltarget_x,sp_ctrltarget_y,sp_ctrltarget_z,sp_ctrltarget_yaw,pid_controller_roll,pid_controller_pitch,pid_controller_yaw,pid_controller_cmd_thrust,pwr_pm_vbat
1772692073.959247112,0.015208000,0.007635000,0.070908000,-0.003206210,0.005960990,0.034176130,0.999392910,-0.006002000,0.012134000,0.068331000,-0.002446292,0.002464765,0.000808431,-0.018335832,0.064981494,-0.011745046,0.012056682,-0.003504365,0.995712227,0.000355826,0.000864848,-0.000229049,0.000000000,0.000000000,0.000000000,0.000000000,0.015554284,0.007667184,0.070802558,0.018630324,0.000523685,-0.005279250,0.005578907,0.000726011,-0.004416927,-0.236799488,0.370052062,3.039502354,-0.001980078,-0.003282974,0.026514661,0.999639057,0.000000000,0.000000000,0.000000000,0.000000000,0.000000000,0.000000000,3.039013412,0.000000000,4.228152752
1772692073.969247580,0.015204000,0.007634000,0.070911000,-0.003219700,0.006108930,0.034172220,0.999392100,-0.006018000,0.012431000,0.068322000,-0.001133354,0.001114881,0.000123815,-0.007413382,0.012158714,0.005917496,0.012815830,-0.004683063,0.995294274,-0.000740148,-0.002008009,0.002471170,0.000000000,0.000000000,0.000000000,0.000000000,0.015555403,0.007663289,0.070803445,0.018731230,0.000597348,-0.005483260,0.005793346,-0.000103181,-0.004136383,-0.236456768,0.369775745,3.045328383,-0.001976986,-0.003280585,0.026565498,0.999637870,0.000000000,0.000000000,0.000000000,0.000000000,0.000000000,0.000000000,3.044447943,0.000000000,4.228152752
1772692073.979247570,0.015188000,0.007659000,0.070913000,-0.003321140,0.006137150,0.034128560,0.999393090,-0.006220000,0.012494000,0.068233000,-0.000286733,0.000239355,-0.000221173,-0.001663633,-0.013941283,0.013702422,0.012397575,-0.006074706,0.996374844,0.000223993,0.000644490,-0.000059701,0.000000000,0.000000000,0.000000000,0.000000000,0.015558278,0.007661214,0.070801249,0.018834272,0.000560316,-0.005648694,0.006805521,-0.001222746,-0.003894839,-0.236551493,0.369794640,3.051228716,-0.001977638,-0.003280873,0.026616967,0.999636716,0.000000000,0.000000000,0.000000000,0.000000000,0.000000000,0.000000000,3.050233976,0.000000000,4.228152752
1772692073.989247561,0.015176000,0.007658000,0.070911000,-0.003268480,0.006021350,0.034339930,0.999386730,-0.006120000,0.012260000,0.068657000,0.000175389,-0.000244328,-0.000311850,0.000283471,-0.019999479,0.014031860,0.010888936,-0.003950330,0.998874612,-0.000853911,0.001557987,0.000132433,0.000000000,0.000000000,0.000000000,0.000000000,0.015561437,0.007659855,0.070790874,0.019029784,0.000426978,-0.005776120,0.003714786,0.000517458,-0.000325098,-0.236520902,0.370624890,3.058072396,-0.001976982,-0.003288227,0.026676654,0.999634826,0.000000000,0.000000000,0.000000000,0.000000000,0.000000000,0.000000000,3.057097890,0.000000000,4.228152752
1772692073.999247313,0.015199000,0.007649000,0.070904000,-0.003257970,0.005921880,0.034356600,0.999386780,-0.006106000,0.012061000,0.068691000,0.000334829,-0.000418687,-0.000233528,-0.000194517,-0.012702802,0.009325186,0.009129094,-0.003243372,0.998872519,0.000661370,0.000397826,-0.000083184,0.000000000,0.000000000,0.000000000,0.000000000,0.015561820,0.007657493,0.070791440,0.018949975,0.000464813,-0.005613708,0.002565066,0.001505634,-0.001674792,-0.235813713,0.370915161,3.063222498,-0.001970598,-0.003290683,0.026721595,0.999633878,0.000000000,0.000000000,0.000000000,0.000000000,0.000000000,0.000000000,3.062608648,0.000000000,4.228152752
1772692074.009247065,0.015188000,0.007650000,0.070901000,-0.003314110,0.005933750,0.034424530,0.999384190,-0.006216000,0.012089000,0.068827000,0.000273407,-0.000366240,-0.000071523,-0.001730512,0.001264667,0.002003708,0.009878090,-0.003510679,0.998170588,0.005828381,-0.002155393,-0.000631226,0.000000000,0.000000000,0.000000000,0.000000000,0.015557555,0.007658625,0.070794162,0.018759964,0.000566813,-0.005534141,0.003279322,0.001051269,-0.001407664,-0.235567370,0.371203351,3.067094435,-0.001968270,-0.003293206,0.026755372,0.999633051,0.000000000,0.000000000,0.000000000,0.000000000,0.000000000,0.000000000,3.066925916,0.000000000,4.228152752
1772692074.019247055,0.015193000,0.007639000,0.070902000,-0.003293790,0.005970170,0.034318880,0.999387670,-0.006174000,0.012159000,0.068615000,0.000076612,-0.000243085,-0.000053904,-0.000522021,0.009990690,-0.004147689,0.012226004,-0.003847639,0.997908940,0.004607629,-0.003258692,0.002011631,0.000000000,0.000000000,0.000000000,0.000000000,0.015553070,0.007661667,0.070797712,0.018619706,0.000658258,-0.005442944,0.005196687,0.000556402,-0.002251921,-0.235616362,0.371879691,3.070906825,-0.001968430,-0.003299183,0.026788615,0.999631804,0.000000000,0.000000000,0.000000000,0.000000000,0.000000000,0.000000000,3.071327163,0.000000000,4.228152752
1772692074.029246807,0.015207000,0.007634000,0.070915000,-0.003262020,0.006003810,0.034254460,0.999389790,-0.006109000,0.012224000,0.068487000,-0.000139103,0.000121737,0.000018240,-0.000159617,0.011305278,-0.008930641,0.012890426,-0.004446433,0.996693242,0.002729796,0.001043068,-0.001007373,0.000000000,0.000000000,0.000000000,0.000000000,0.015551579,0.007667090,0.070798759,0.018678851,0.000729221,-0.005449104,0.006334849,0.000311559,-0.002951982,-0.233566603,0.373244716,3.076261022,-0.001950075,-0.003310703,0.026835356,0.999630703,0.000000000,0.000000000,0.000000000,0.000000000,0.000000000,0.000000000,3.075728304,0.000000000,4.228152752
1772692074.039246798,0.015191000,0.007647000,0.070905000,-0.003336680,0.006151010,0.034281640,0.999387710,-0.006248000,0.012524000,0.068539000,-0.000337588,0.000295299,0.000001515,0.002502149,0.003300634,-0.006577137,0.013275925,-0.003615080,0.997449502,-0.003091925,-0.003512464,-0.001012410,0.000000000,0.000000000,0.000000000,0.000000000,0.015552738,0.007666806,0.070802904,0.018809632,0.000760423,-0.005475666,0.006196859,0.000126130,-0.002758528,-0.232638254,0.373790114,3.080978670,-0.001941712,-0.003315323,0.026876529,0.999629536,0.000000000,0.000000000,0.000000000,0.000000000,0.000000000,0.000000000,3.080129551,0.000000000,4.228152752
1772692074.049246788,0.015177000,0.007657000,0.070902000,-0.003319050,0.006211210,0.034277990,0.999387520,-0.006209000,0.012643000,0.068532000,-0.000217968,0.000147883,0.000017910,0.005733455,-0.007069948,-0.006468491,0.011617441,-0.005021868,0.997884525,-0.000960798,-0.003302493,-0.000312332,0.000000000,0.000000000,0.000000000,0.000000000,0.015555443,0.007664547,0.070804885,0.018938738,0.000767691,-0.005503156,0.005776007,-0.000293679,-0.002343145,-0.232996737,0.375151873,3.085795500,-0.001944380,-0.003327368,0.026918513,0.999628522,0.000000000,0.000000000,0.000000000,0.000000000,0.000000000,0.000000000,3.084284083,0.000000000,4.228152752
1772692074.059246302,0.015186000,0.007649000,0.070902000,-0.003204540,0.006000140,0.034198390,0.999391910,-0.005995000,0.012212000,0.068375000,0.000004837,-0.000082712,0.000156644,0.008931896,-0.016337864,-0.002965703,0.013025813,-0.004878614,0.998565677,0.002868513,-0.001744999,0.001813547,0.000000000,0.000000000,0.000000000,0.000000000,0.015559449,0.007662130,0.070803954,0.019006529,0.000720928,-0.005477776,0.005673706,-0.000426572,-0.001673482,-0.233652670,0.376831266,3.088829965,-0.001949619,-0.003342224,0.026944931,0.999627596,0.000000000,0.000000000,0.000000000,0.000000000,0.000000000,0.000000000,3.088423277,0.000000000,4.228152752
1772692074.069246769,0.015196000,0.007645000,0.070909000,-0.003199380,0.005910680,0.034195540,0.999392560,-0.005991000,0.012033000,0.068370000,0.000420805,-0.000343804,0.000348272,0.010921907,-0.015344925,-0.001563732,0.013668599,-0.005011039,0.997376725,0.002650303,-0.000721634,-0.000621316,0.000000000,0.000000000,0.000000000,0.000000000,0.015566159,0.007657089,0.070804435,0.019121301,0.000658650,-0.005417038,0.007402305,0.000014651,-0.001601990,-0.232926563,0.378463313,3.093216920,-0.001942772,-0.003356365,0.026983195,0.999626566,0.000000000,0.000000000,0.000000000,0.000000000,0.000000000,0.000000000,3.092562867,0.000000000,4.228152752
1772692074.079246759,0.015188000,0.007645000,0.070909000,-0.003157760,0.005844680,0.034192920,0.999393170,-0.005912000,0.011898000,0.068365000,0.000544872,-0.000262160,0.000157964,0.008658990,-0.001887993,-0.001483557,0.015058623,-0.004074327,0.998556897,0.001118069,-0.001010673,-0.000861567,0.000000000,0.000000000,0.000000000,0.000000000,0.015572991,0.007651963,0.070806133,0.019378284,0.000628440,-0.005350217,0.008153126,0.000493293,-0.001469259,-0.231188762,0.380200715,3.097717399,-0.001927071,-0.003371187,0.027022473,0.999625719,0.000000000,0.000000000,0.000000000,0.000000000,0.000000000,0.000000000,3.096702259,0.000000000,4.228152752
1772692074.089247704,0.015196000,0.007634000,0.070917000,-0.003074820,0.005871170,0.034160880,0.999394370,-0.005745000,0.011946000,0.068302000,0.000246581,0.000043240,-0.000179254,0.002550738,0.017580722,0.000878997,0.014044986,-0.004379235,0.997135185,0.002162001,0.000560216,0.001637406,0.000000000,0.000000000,0.000000000,0.000000000,0.015573053,0.007657537,0.070809062,0.019676492,0.000691531,-0.005281718,0.006790239,0.000334245,-0.003139504,-0.231287965,0.379784741,3.101463443,-0.001927925,-0.003367645,0.027055157,0.999624782,0.000000000,0.000000000,0.000000000,0.000000000,0.000000000,0.000000000,3.100842046,0.000000000,4.228152752
1772692074.099247217,0.015212000,0.007639000,0.070916000,-0.003055810,0.005924220,0.034249630,0.999391080,-0.005703000,0.012051000,0.068480000,-0.000147417,0.000286461,-0.000446990,-0.002973145,0.021298604,0.000989219,0.011608381,-0.003836032,0.996175769,-0.000108118,0.002752368,-0.003780361,0.000000000,0.000000000,0.000000000,0.000000000,0.015567957,0.007665564,0.070809984,0.019782646,0.000752140,-0.005362561,0.005141509,0.000237228,-0.003501140,-0.231724435,0.380220155,3.106121475,-0.001931492,-0.003371625,0.027095765,0.999623764,0.000000000,0.000000000,0.000000000,0.000000000,0.000000000,0.000000000,3.105405581,0.000000000,4.228152752
1772692074.109247208,0.015200000,0.007649000,0.070905000,-0.003143160,0.006218910,0.034215020,0.999390200,-0.005857000,0.012646000,0.068408000,-0.000217560,0.000173388,-0.000343299,-0.003661907,0.011940906,-0.001019804,0.013284890,-0.002975769,0.997494954,0.000624628,0.001083016,-0.001926376,0.000000000,0.000000000,0.000000000,0.000000000,0.015570637,0.007667314,0.070806824,0.019787881,0.000815063,-0.005485813,0.006127777,0.001135679,-0.002061482,-0.232174640,0.381411184,3.109832671,-0.001935028,-0.003382184,0.027128104,0.999622588,0.000000000,0.000000000,0.000000000,0.000000000,0.000000000,0.000000000,3.109334239,0.000000000,4.228152752
1772692074.119247437,0.015185000,0.007656000,0.070884000,-0.003204340,0.006339450,0.034157120,0.999391230,-0.005972000,0.012890000,0.068291000,-0.000172455,0.000015598,-0.000020474,-0.003567368,-0.006202255,-0.002453302,0.012659498,-0.004022186,1.000205597,0.000579386,-0.000334044,0.003874026,0.000000000,0.000000000,0.000000000,0.000000000,0.015573549,0.007667646,0.070801259,0.019931192,0.000961639,-0.005450891,0.005983898,-0.000042147,0.000079715,-0.232403106,0.383113175,3.114548534,-0.001936478,-0.003397164,0.027169205,0.999621332,0.000000000,0.000000000,0.000000000,0.000000000,0.000000000,0.000000000,3.114004793,0.000000000,4.227758279
1772692074.129247189,0.015192000,0.007646000,0.070904000,-0.003195430,0.006172750,0.034203520,0.999390720,-0.005965000,0.012557000,0.068385000,0.000007226,-0.000201107,0.000214433,-0.004690771,-0.015679633,-0.002863659,0.011187968,-0.003716903,0.998955165,0.001436640,-0.001296991,0.001999852,0.000000000,0.000000000,0.000000000,0.000000000,0.015579423,0.007660868,0.070804290,0.019943658,0.000944370,-0.005115290,0.004615219,0.000767274,-0.001027766,-0.230872803,0.384589127,3.120620876,-0.001922598,-0.003409779,0.027222194,0.999619912,0.000000000,0.000000000,0.000000000,0.000000000,0.000000000,0.000000000,3.120560073,0.000000000,4.227077274
1772692074.139247179,0.015192000,0.007642000,0.070906000,-0.003187960,0.005795090,0.034154650,0.999394670,-0.005977000,0.011801000,0.068289000,0.000083994,-0.000238073,0.000454177,-0.003417491,-0.022323722,-0.001149216,0.011918855,-0.005715063,0.997140463,0.001929661,-0.004275579,0.004156495,0.000000000,0.000000000,0.000000000,0.000000000,0.015582113,0.007660414,0.070810485,0.019841263,0.000970961,-0.004954342,0.005273799,-0.000807430,-0.002734548,-0.231432038,0.384979213,3.127444416,-0.001927180,-0.003413429,0.027281696,0.999618567,0.000000000,0.000000000,0.000000000,0.000000000,0.000000000,0.000000000,3.126979738,0.000000000,4.226396254
1772692074.149246693,0.015200000,0.007636000,0.070920000,-0.003124300,0.005829840,0.034161930,0.999394420,-0.005847000,0.011866000,0.068304000,0.000231935,-0.000015754,0.000212199,-0.001296186,-0.016019012,0.001678704,0.012748829,-0.005382497,0.996390607,-0.001100377,0.001501472,0.001581871,0.000000000,0.000000000,0.000000000,0.000000000,0.015571761,0.007667724,0.070809104,0.019828264,0.000877172,-0.005070172,0.004962441,-0.000778030,-0.003238729,-0.230823011,0.386319950,3.132376358,-0.001921401,-0.003425063,0.027324713,0.999617245,0.000000000,0.000000000,0.000000000,0.000000000,0.000000000,0.000000000,3.131735746,0.000000000,4.225715266
1772692074.159246683,0.015201000,0.007642000,0.070913000,-0.003183690,0.005735440,0.034166510,0.999394630,-0.005972000,0.011682000,0.068313000,0.000015307,0.000297669,-0.000213384,0.000573290,-0.001381515,0.002715826,0.010044484,-0.004753396,0.997586914,-0.000067347,0.001424362,0.002951990,0.000000000,0.000000000,0.000000000,0.000000000,0.015570475,0.007666500,0.070807078,0.019719319,0.000767254,-0.005176023,0.002791271,-0.000459690,-0.003286250,-0.231062272,0.386959201,3.137643978,-0.001923178,-0.003430785,0.027370646,0.999615961,0.000000000,0.000000000,0.000000000,0.000000000,0.000000000,0.000000000,3.136912722,0.000000000,4.225034245
1772692074.169245958,0.015204000,0.007645000,0.070904000,-0.003296630,0.006011240,0.034207650,0.999391230,-0.006178000,0.012241000,0.068392000,-0.000276069,0.000495591,-0.000620882,0.000140718,0.006623504,0.004258042,0.010971448,-0.004371660,0.995885327,0.001300002,0.000562274,-0.000772935,0.000000000,0.000000000,0.000000000,0.000000000,0.015572285,0.007662950,0.070809050,0.019500708,0.000715440,-0.005234230,0.004451990,0.000062900,-0.002972348,-0.230007166,0.386102436,3.142750115,-0.001914026,-0.003423144,0.027415233,0.999614836,0.000000000,0.000000000,0.000000000,0.000000000,0.000000000,0.000000000,3.142149393,0.000000000,4.224353273
1772692074.179246664,0.015182000,0.007660000,0.070901000,-0.003196400,0.005816780,0.034238680,0.999391650,-0.005991000,0.011846000,0.068457000,-0.000244192,0.000350214,-0.000397592,-0.000597650,-0.000510435,0.004526201,0.012218439,-0.003894725,0.995526296,0.001732141,0.003321599,0.000513242,0.000000000,0.000000000,0.000000000,0.000000000,0.015511814,0.007656876,0.070823536,0.017406544,0.000535631,-0.004951446,0.004053773,-0.000031422,-0.003087715,-0.228788853,0.430646269,3.153587380,-0.001892347,-0.003811599,0.027508992,0.999612290,0.000000000,0.000000000,0.000000000,0.000000000,0.000000000,0.000000000,3.159010328,0.000000000,4.223672204
1772692074.189245939,0.015194000,0.007655000,0.070887000,-0.003151750,0.005971090,0.034202510,0.999392120,-0.005892000,0.012151000,0.068384000,-0.000073368,0.000028691,-0.000122844,-0.001034347,-0.010345146,0.000213408,0.012320287,-0.005461069,0.998059279,0.002806480,0.001923233,0.000079240,0.000000000,0.000000000,0.000000000,0.000000000,0.015315767,0.007641108,0.070871911,0.010533939,-0.000069958,-0.003789087,0.003831442,-0.000580389,-0.003200043,-0.228265037,0.459339500,3.176351080,-0.001880121,-0.004062148,0.027707057,0.999606756,0.000000000,0.000000000,0.000000000,0.000000000,0.000000000,0.000000000,3.182101330,0.000000000,4.222991232
1772692074.199246407,0.015190000,0.007653000,0.070899000,-0.003152260,0.005801780,0.034251730,0.999391430,-0.005904000,0.011813000,0.068483000,0.000171465,-0.000291104,0.000190793,-0.001219415,-0.009606448,-0.002896882,0.011236041,-0.005360898,0.997002325,0.003086097,0.000605173,0.001009552,0.000000000,0.000000000,0.000000000,0.000000000,0.015313105,0.007650033,0.070858570,0.011022786,-0.000144813,-0.003874281,0.003635314,-0.001350214,-0.003285891,-0.228506446,0.446430892,3.193624258,-0.001884741,-0.003949885,0.027857963,0.999601172,0.000000000,0.000000000,0.000000000,0.000000000,0.000000000,0.000000000,3.193624258,0.000000000,4.222553313
1772692074.209246874,0.015193000,0.007650000,0.070902000,-0.003253390,0.005665770,0.034258970,0.999391630,-0.006115000,0.011548000,0.068498000,0.000304857,-0.000370319,0.000241686,-0.003243826,-0.008085497,-0.004124722,0.010260731,-0.005044174,0.997051852,-0.000118566,0.002298656,-0.001448093,0.000000000,0.000000000,0.000000000,0.000000000,0.015365402,0.007645541,0.070845495,0.011375617,-0.000239380,-0.004108907,0.002439185,-0.001912326,-0.002951690,-0.228369918,0.445839993,3.193950934,-0.001883682,-0.003944703,0.027860828,0.999600774,0.000000000,0.000000000,0.000000000,0.000000000,0.000000000,0.000000000,3.193902210,0.000000000,4.222165861
1772692074.219246626,0.015201000,0.007644000,0.070909000,-0.003251220,0.005601990,0.034159690,0.999395400,-0.006116000,0.011420000,0.068299000,0.000274282,-0.000181818,0.000131993,-0.004345914,-0.003135460,-0.002962913,0.010230540,-0.004900201,0.997025656,-0.000437049,0.002471196,-0.000859569,0.000000000,0.000000000,0.000000000,0.000000000,0.015371254,0.007644678,0.070843269,0.011414240,-0.000261037,-0.004147103,0.002607393,-0.001454848,-0.002931957,-0.228174975,0.444996272,3.194417383,-0.001882171,-0.003937303,0.027864919,0.999600603,0.000000000,0.000000000,0.000000000,0.000000000,0.000000000,0.000000000,3.194364383,0.000000000,4.221778437
1772692074.229246616,0.015202000,0.007641000,0.070903000,-0.003243210,0.005808460,0.034129810,0.999395270,-0.006086000,0.011832000,0.068238000,-0.000227001,0.000148757,-0.000133431,0.000164027,0.000511197,-0.000382181,0.010200348,-0.004756223,0.996999459,-0.000755539,0.002643740,-0.000271032,0.000000000,0.000000000,0.000000000,0.000000000,0.015377105,0.007643816,0.070841043,0.011452865,-0.000282696,-0.004185301,0.002775605,-0.000997359,-0.002912222,-0.227980027,0.444152530,3.194883842,-0.001880660,-0.003929903,0.027869010,0.999600432,0.000000000,0.000000000,0.000000000,0.000000000,0.000000000,0.000000000,3.194826567,0.000000000,4.221391004
1772692074.239246368,0.015196000,0.007647000,0.070898000,-0.003249970,0.005833500,0.034188380,0.999393100,-0.006098000,0.011882000,0.068355000,-0.000322261,0.000128769,-0.000152040,0.003491777,0.007716210,0.000316724,0.010170157,-0.004612250,0.996973263,-0.001074022,0.002816279,0.000317492,0.000000000,0.000000000,0.000000000,0.000000000,0.015382956,0.007642954,0.070838817,0.011491489,-0.000304354,-0.004223497,0.002943814,-0.000539881,-0.002892489,-0.227785084,0.443308809,3.195350291,-0.001879149,-0.003922504,0.027873101,0.999600261,0.000000000,0.000000000,0.000000000,0.000000000,0.000000000,0.000000000,3.195288739,0.000000000,4.221003580
1772692074.249245882,0.015193000,0.007652000,0.070899000,-0.003208950,0.005733060,0.034213790,0.999392940,-0.006022000,0.011679000,0.068407000,-0.000375350,0.000178749,0.000053691,0.003746732,0.013726178,0.002566337,0.010139966,-0.004468279,0.996947068,-0.001392497,0.002988815,0.000906002,0.000000000,0.000000000,0.000000000,0.000000000,0.015388808,0.007642091,0.070836592,0.011530112,-0.000326011,-0.004261693,0.003112018,-0.000082414,-0.002872755,-0.227590145,0.442465107,3.195816728,-0.001877638,-0.003915104,0.027877192,0.999600090,0.000000000,0.000000000,0.000000000,0.000000000,0.000000000,0.000000000,3.195750901,0.000000000,4.220616166
1772692074.259246111,0.015187000,0.007657000,0.070898000,-0.003187360,0.005726670,0.034220470,0.999392820,-0.005979000,0.011665000,0.068421000,-0.000122067,0.000098582,0.000130925,0.001869103,0.016739678,0.003923650,0.010109774,-0.004324299,0.996920871,-0.001710995,0.003161363,0.001494554,0.000000000,0.000000000,0.000000000,0.000000000,0.015394659,0.007641229,0.070834366,0.011568737,-0.000347670,-0.004299891,0.003280234,0.000375086,-0.002853021,-0.227383806,0.441577663,3.196333783,-0.001876036,-0.003907321,0.027881725,0.999599919,0.000000000,0.000000000,0.000000000,0.000000000,0.000000000,0.000000000,3.196213096,0.000000000,4.220228724
1772692074.269245863,0.015179000,0.007649000,0.070899000,-0.003178100,0.005977220,0.034227250,0.999391150,-0.005944000,0.012165000,0.068433000,0.000144619,-0.000103322,0.000241006,0.001011890,0.009178850,0.003162358,0.011954107,-0.002853721,0.997145423,0.001666080,-0.003535936,0.001804989,0.000000000,0.000000000,0.000000000,0.000000000,0.015405894,0.007640839,0.070827479,0.011715311,-0.000312515,-0.004413792,0.004198427,0.001253083,-0.003057536,-0.226687226,0.438809416,3.199028809,-0.001870542,-0.003883047,0.027905308,0.999599747,0.000000000,0.000000000,0.000000000,0.000000000,0.000000000,0.000000000,3.198847295,0.000000000,4.219841300
1772692074.279246330,0.015196000,0.007642000,0.070918000,-0.003221100,0.005986630,0.034193040,0.999392130,-0.006029000,0.012187000,0.068364000,0.000338345,-0.000229487,0.000169056,0.000677049,0.006645434,0.002202219,0.012962762,-0.002330513,0.995218305,0.004971428,-0.002392801,0.000068087,0.000000000,0.000000000,0.000000000,0.000000000,0.015418401,0.007643795,0.070818759,0.012072537,-0.000128212,-0.004620260,0.005341619,0.001268196,-0.003985397,-0.225602140,0.434202520,3.202398051,-0.001862086,-0.003842651,0.027934819,0.999599246,0.000000000,0.000000000,0.000000000,0.000000000,0.000000000,0.000000000,3.201802745,0.000000000,4.219453848
1772692074.289247036,0.015198000,0.007653000,0.070904000,-0.003221760,0.006167220,0.034250250,0.999389070,-0.006018000,0.012548000,0.068478000,0.000395999,-0.000147805,0.000057887,0.001389034,-0.001507432,0.003152600,0.012208508,-0.004000345,0.996774245,0.002544456,-0.002988023,-0.002549028,0.000000000,0.000000000,0.000000000,0.000000000,0.015425374,0.007650220,0.070812043,0.012487696,0.000038779,-0.004920594,0.004488692,0.000610551,-0.003266375,-0.223657667,0.433213484,3.205796096,-0.001845252,-0.003833604,0.027964544,0.999598599,0.000000000,0.000000000,0.000000000,0.000000000,0.000000000,0.000000000,3.203689848,0.000000000,4.219066387
1772692074.299247503,0.015203000,0.007645000,0.070901000,-0.003179150,0.005964150,0.034282930,0.999389310,-0.005946000,0.012139000,0.068545000,0.000176205,-0.000053225,-0.000013384,0.000475447,-0.009633367,0.001642238,0.010725581,-0.004759127,0.999598973,0.003811405,-0.000800977,-0.002019285,0.000000000,0.000000000,0.000000000,0.000000000,0.015427542,0.007651396,0.070807008,0.012774634,0.000112141,-0.005047359,0.003239714,-0.000899603,-0.000632016,-0.222808506,0.432071379,3.207921543,-0.001838053,-0.003823468,0.027983134,0.999598094,0.000000000,0.000000000,0.000000000,0.000000000,0.000000000,0.000000000,3.205492269,0.000000000,4.218678936
1772692074.309247494,0.015195000,0.007644000,0.070907000,-0.003178930,0.005712590,0.034283480,0.999390770,-0.005963000,0.011636000,0.068547000,-0.000095183,0.000195766,-0.000180400,-0.002370601,-0.004955780,-0.001345468,0.012930441,-0.004755239,0.998008082,-0.000256682,-0.000143791,0.000109377,0.000000000,0.000000000,0.000000000,0.000000000,0.015438170,0.007647744,0.070814888,0.012939503,0.000028233,-0.004870966,0.004697039,-0.000368326,-0.002005352,-0.222434589,0.430576104,3.210283430,-0.001835078,-0.003810372,0.028003775,0.999597609,0.000000000,0.000000000,0.000000000,0.000000000,0.000000000,0.000000000,3.207294605,0.000000000,4.218291503
1772692074.319248438,0.015199000,0.007648000,0.070905000,-0.003178840,0.005933260,0.034243880,0.999390840,-0.005948000,0.012077000,0.068467000,-0.000358683,0.000214627,-0.000175058,-0.004679434,0.001027265,-0.003942621,0.012312912,-0.003031860,0.996805174,0.001735805,-0.003192135,-0.001126012,0.000000000,0.000000000,0.000000000,0.000000000,0.015388908,0.007650159,0.070835733,0.013014357,0.000033239,-0.004711984,0.005674619,0.000196173,-0.003306784,-0.221748836,0.429610553,3.213101634,-0.001829238,-0.003801826,0.028028400,0.999597116,0.000000000,0.000000000,0.000000000,0.000000000,0.000000000,0.000000000,3.209097112,0.000000000,4.217904033
1772692074.329247952,0.015196000,0.007651000,0.070905000,-0.003189270,0.005883140,0.034248550,0.999390940,-0.005972000,0.011978000,0.068476000,-0.000176787,0.000098310,0.000014433,-0.003871641,0.006552041,-0.004822980,0.012176215,-0.003796469,0.997602407,0.002015261,-0.003718466,-0.000818246,0.000000000,0.000000000,0.000000000,0.000000000,0.015429098,0.007648272,0.070821453,0.013484241,0.000133714,-0.004925924,0.004804426,0.002380455,-0.003056078,-0.221366525,0.427064674,3.216184723,-0.001826425,-0.003779574,0.028055352,0.999595991,0.000000000,0.000000000,0.000000000,0.000000000,0.000000000,0.000000000,3.210899362,0.000000000,4.217845592
1772692074.339248657,0.015186000,0.007650000,0.070903000,-0.003300780,0.006005360,0.034176920,0.999392300,-0.006188000,0.012229000,0.068331000,0.000018842,0.000054915,0.000010101,0.000444904,0.006369564,-0.002697873,0.012659918,-0.003589683,0.997938133,-0.000972354,-0.002179740,-0.000694851,0.000000000,0.000000000,0.000000000,0.000000000,0.015448805,0.007649106,0.070815857,0.013852101,0.000259540,-0.004999313,0.005265537,-0.000232701,-0.001329287,-0.219714816,0.424658963,3.220028723,-0.001812480,-0.003758245,0.028088982,0.999595195,0.000000000,0.000000000,0.000000000,0.000000000,0.000000000,0.000000000,3.212701826,0.000000000,4.219072441
1772692074.349249125,0.015194000,0.007659000,0.070898000,-0.003296740,0.006125480,0.034183710,0.999391360,-0.006171000,0.012469000,0.068344000,0.000132187,-0.000087529,0.000183295,0.005361273,-0.002859443,0.002071337,0.012220216,-0.004496297,0.996735304,0.002079717,0.001395154,-0.001282650,0.000000000,0.000000000,0.000000000,0.000000000,0.015461959,0.007652511,0.070812571,0.014198555,0.000301176,-0.005002188,0.004798622,0.000480205,-0.002959679,-0.219301610,0.423700972,3.223392131,-0.001809000,-0.003749840,0.028118351,0.999594484,0.000000000,0.000000000,0.000000000,0.000000000,0.000000000,0.000000000,3.214504248,0.000000000,4.220299261
1772692074.359249830,0.015193000,0.007647000,0.070907000,-0.003200790,0.005830680,0.034220690,0.999392170,-0.005999000,0.011874000,0.068421000,0.000113034,-0.000203846,0.000309149,0.005731906,-0.011593995,0.004357128,0.011816282,-0.004998451,0.996764276,-0.000647627,0.000530121,0.000750463,0.000000000,0.000000000,0.000000000,0.000000000,0.015467145,0.007655106,0.070809931,0.014476794,0.000313886,-0.005118228,0.004709219,-0.000961638,-0.003181600,-0.219805366,0.422596956,3.226170923,-0.001813575,-0.003740377,0.028142592,0.999595021,0.000000000,0.000000000,0.000000000,0.000000000,0.000000000,0.000000000,3.216306712,0.000000000,4.221526110
1772692074.369249821,0.015203000,0.007643000,0.070909000,-0.003099020,0.005914480,0.034260110,0.999390640,-0.005789000,0.012034000,0.068500000,0.000202156,-0.000230769,0.000170649,0.003827354,-0.011722362,0.006292489,0.013667522,-0.003992794,0.996418853,0.001593387,-0.001753730,-0.000518453,0.000000000,0.000000000,0.000000000,0.000000000,0.015473353,0.007659353,0.070804436,0.014753140,0.000254788,-0.005267758,0.005677751,0.000030806,-0.003210253,-0.218648208,0.421993660,3.221594278,-0.001803778,-0.003734758,0.028102720,0.999595920,0.000000000,0.000000000,0.000000000,0.000000000,0.000000000,0.000000000,3.218109048,0.000000000,4.222752872
1772692074.379250765,0.015199000,0.007646000,0.070914000,-0.003103360,0.005716550,0.034272380,0.999391360,-0.005812000,0.011639000,0.068526000,0.000102603,-0.000032595,0.000077720,0.001179926,-0.014633877,0.006015514,0.012068986,-0.005663821,0.996209901,0.001899697,-0.002176997,0.000036757,0.000000000,0.000000000,0.000000000,0.000000000,0.015481384,0.007655745,0.070804709,0.015151373,0.000254442,-0.005409327,0.004506425,-0.001683216,-0.003306662,-0.219150560,0.420883009,3.220168936,-0.001808479,-0.003725171,0.028090287,0.999595471,0.000000000,0.000000000,0.000000000,0.000000000,0.000000000,0.000000000,3.219911555,0.000000000,4.223979750
1772692074.389250278,0.015193000,0.007649000,0.070915000,-0.003166700,0.005802990,0.034328980,0.999388720,-0.005932000,0.011817000,0.068638000,-0.000152253,0.000197689,-0.000147106,-0.004181216,-0.009936168,0.001355914,0.011216203,-0.006401211,0.995492574,0.002144287,0.001490192,0.000000883,0.000000000,0.000000000,0.000000000,0.000000000,0.015493257,0.007650348,0.070805965,0.015412894,0.000026270,-0.005572752,0.004552209,-0.002013919,-0.003947076,-0.219066157,0.420820985,3.223681065,-0.001807644,-0.003724665,0.028120928,0.999595297,0.000000000,0.000000000,0.000000000,0.000000000,0.000000000,0.000000000,3.220777505,0.000000000,4.225206453
1772692074.399250746,0.015197000,0.007645000,0.070904000,-0.003252530,0.005777520,0.034265030,0.999390790,-0.006106000,0.011771000,0.068509000,-0.000176923,0.000485160,-0.000454934,-0.001358470,-0.004521148,-0.006250462,0.009638538,-0.005761971,0.996553885,0.001601090,0.002023090,-0.000207337,0.000000000,0.000000000,0.000000000,0.000000000,0.015496028,0.007648040,0.070806634,0.015502266,-0.000192945,-0.005758217,0.002133862,-0.001761839,-0.003612256,-0.217660832,0.421457316,3.221299659,-0.001795307,-0.003729833,0.028100193,0.999595094,0.000000000,0.000000000,0.000000000,0.000000000,0.000000000,0.000000000,3.220969052,0.000000000,4.226433273
1772692074.409250259,0.015199000,0.007650000,0.070900000,-0.003212750,0.005701540,0.034308340,0.999389870,-0.006031000,0.011617000,0.068597000,-0.000212937,0.000003030,-0.000097591,-0.001276091,0.009166475,-0.009283151,0.010940753,-0.005472701,0.998050469,0.000851135,-0.003020106,-0.000692558,0.000000000,0.000000000,0.000000000,0.000000000,0.015496886,0.007644537,0.070801491,0.015422840,-0.000360600,-0.005866515,0.003850090,-0.001352782,-0.002831960,-0.216380988,0.421631839,3.223307060,-0.001784034,-0.003731073,0.028117740,0.999595594,0.000000000,0.000000000,0.000000000,0.000000000,0.000000000,0.000000000,3.223576914,0.000000000,4.227659977
1772692074.419249535,0.015191000,0.007660000,0.070908000,-0.003167960,0.005690180,0.034212550,0.999393360,-0.005943000,0.011590000,0.068405000,0.000043784,-0.000418590,0.000304895,-0.004886731,0.027772056,-0.009816080,0.012733235,-0.005280077,0.996925354,-0.000285674,-0.000614015,0.001020075,0.000000000,0.000000000,0.000000000,0.000000000,0.015498572,0.007642997,0.070796300,0.015502622,-0.000442860,-0.005892054,0.005394778,-0.000817334,-0.002762321,-0.215090496,0.421372743,3.221017543,-0.001772915,-0.003728461,0.028097814,0.999596392,0.000000000,0.000000000,0.000000000,0.000000000,0.000000000,0.000000000,3.221314644,0.000000000,4.228152752
1772692074.429250002,0.015189000,0.007653000,0.070901000,-0.003210850,0.005873090,0.034127630,0.999395070,-0.006017000,0.011959000,0.068234000,0.000027953,-0.000504760,0.000563365,-0.011419803,0.029456926,-0.004959659,0.013170478,-0.005080396,0.996410548,-0.000397106,-0.001402220,0.001956662,0.000000000,0.000000000,0.000000000,0.000000000,0.015499272,0.007644354,0.070793998,0.015667710,-0.000487091,-0.005920475,0.005227394,-0.000776102,-0.003291635,-0.214907281,0.419953244,3.217331278,-0.001771785,-0.003715976,0.028065689,0.999597040,0.000000000,0.000000000,0.000000000,0.000000000,0.000000000,0.000000000,3.217740949,0.000000000,4.228152752
1772692074.439249992,0.015195000,0.007644000,0.070908000,-0.003167670,0.006075940,0.034060090,0.999396300,-0.005918000,0.012361000,0.068098000,-0.000042036,-0.000462219,0.000587957,-0.016445995,0.031439852,0.001230428,0.012442220,-0.004527377,0.996028519,0.000201532,0.000977100,0.003754371,0.000000000,0.000000000,0.000000000,0.000000000,0.015498734,0.007646341,0.070793009,0.015879542,-0.000516799,-0.006005772,0.005990290,-0.000327840,-0.003625823,-0.215295589,0.420509266,3.214601501,-0.001775124,-0.003720879,0.028041856,0.999597496,0.000000000,0.000000000,0.000000000,0.000000000,0.000000000,0.000000000,3.214941590,0.000000000,4.228152752
1772692074.449249506,0.015194000,0.007615000,0.070938000,-0.003510050,0.006541540,0.034204730,0.999387270,-0.006569000,0.013316000,0.068381000,-0.000010159,-0.000365773,0.000274903,-0.016062029,0.023904976,0.004066721,0.013173090,-0.003627381,0.996408941,0.001078199,-0.002663871,-0.000508215,0.000000000,0.000000000,0.000000000,0.000000000,0.015501538,0.007642658,0.070790745,0.016123902,-0.000520988,-0.006132078,0.006213648,0.000293949,-0.003963128,-0.214796939,0.422004748,3.212777003,-0.001770468,-0.003733774,0.028025929,0.999597982,0.000000000,0.000000000,0.000000000,0.000000000,0.000000000,0.000000000,3.213003803,0.000000000,4.228152752
1772692074.459249496,0.015201000,0.007637000,0.070922000,-0.003567280,0.006334190,0.034198500,0.999388620,-0.006698000,0.012905000,0.068369000,-0.000069678,0.000037296,-0.000146601,-0.008029759,0.008255493,0.006382768,0.013227430,-0.002523946,0.997134011,0.002555439,-0.004887976,0.000845916,0.000000000,0.000000000,0.000000000,0.000000000,0.015506860,0.007631010,0.070799267,0.016395756,-0.000459839,-0.006187970,0.005972143,0.001171191,-0.003229820,-0.213634542,0.421180362,3.210509088,-0.001760603,-0.003726264,0.028006198,0.999598860,0.000000000,0.000000000,0.000000000,0.000000000,0.000000000,0.000000000,3.210827489,0.000000000,4.228152752
1772692074.469249487,0.015186000,0.007647000,0.070913000,-0.003513040,0.006134700,0.034292360,0.999386840,-0.006602000,0.012503000,0.068559000,-0.000055478,0.000411403,-0.000431741,0.003380481,-0.008143873,0.005933626,0.012060933,-0.005155853,0.997226561,0.002146563,0.000926132,-0.002218396,0.000000000,0.000000000,0.000000000,0.000000000,0.015513843,0.007625305,0.070806217,0.016641088,-0.000329992,-0.006201436,0.004714328,-0.000180176,-0.002583031,-0.212333496,0.424207227,3.206073877,-0.001748660,-0.003752282,0.027967499,0.999599681,0.000000000,0.000000000,0.000000000,0.000000000,0.000000000,0.000000000,3.206565014,0.000000000,4.228152752
1772692074.479249477,0.015190000,0.007642000,0.070911000,-0.003431140,0.006326740,0.034222030,0.999388340,-0.006426000,0.012881000,0.068418000,-0.000076379,0.000559091,-0.000732596,0.009186424,-0.017460204,0.001930585,0.011550301,-0.004606342,0.999337520,0.000827320,-0.004386123,-0.001157726,0.000000000,0.000000000,0.000000000,0.000000000,0.015515745,0.007631893,0.070802435,0.016738895,-0.000327538,-0.006167008,0.004167182,-0.001126568,-0.001414379,-0.210649169,0.426241862,3.203738881,-0.001733547,-0.003769584,0.027947153,0.999599423,0.000000000,0.000000000,0.000000000,0.000000000,0.000000000,0.000000000,3.203439083,0.000000000,4.228152752
1772692074.489249468,0.015192000,0.007644000,0.070904000,-0.003337540,0.006200510,0.034205490,0.999390010,-0.006247000,0.012622000,0.068387000,0.000045998,0.000468454,-0.000510412,0.013075577,-0.017584753,-0.001070825,0.012482919,-0.004739541,0.997681878,-0.002115622,0.002615795,0.000160299,0.000000000,0.000000000,0.000000000,0.000000000,0.015515374,0.007635050,0.070799045,0.016793542,-0.000377462,-0.006047836,0.004855465,-0.000693456,-0.002605401,-0.211205586,0.425868396,3.205476427,-0.001738435,-0.003766488,0.027962298,0.999599927,0.000000000,0.000000000,0.000000000,0.000000000,0.000000000,0.000000000,3.205835301,0.000000000,4.228152752
1772692074.499249697,0.015191000,0.007653000,0.070900000,-0.003297330,0.006084900,0.034243240,0.999389560,-0.006174000,0.012389000,0.068463000,0.000137063,0.000060703,0.000018667,0.006673762,-0.012773520,-0.001122467,0.011930273,-0.004727743,0.996426609,-0.001210993,0.002083026,-0.000578998,0.000000000,0.000000000,0.000000000,0.000000000,0.015517165,0.007635763,0.070795920,0.016890980,-0.000402777,-0.006039105,0.004727642,-0.000787790,-0.003526427,-0.210684502,0.426195775,3.202389018,-0.001733911,-0.003769170,0.027935377,0.999600560,0.000000000,0.000000000,0.000000000,0.000000000,0.000000000,0.000000000,3.202779768,0.000000000,4.228152752
1772692074.509249687,0.015200000,0.007649000,0.070903000,-0.003299610,0.006001800,0.034285310,0.999388620,-0.006184000,0.012223000,0.068548000,0.000134868,0.000130769,0.000075194,0.002674959,-0.014730076,-0.000292517,0.011572530,-0.004001054,0.996638544,0.000273506,-0.000226430,-0.002561262,0.000000000,0.000000000,0.000000000,0.000000000,0.015493104,0.007637408,0.070802901,0.016535452,-0.000460292,-0.005877551,0.004013177,-0.000972109,-0.001777870,-0.210329830,0.425546421,3.199951468,-0.001731055,-0.003763383,0.027914134,0.999600310,0.000000000,0.000000000,0.000000000,0.000000000,0.000000000,0.000000000,3.200241615,0.000000000,4.228152752
1772692074.519249439,0.015190000,0.007655000,0.070902000,-0.003378260,0.005939640,0.034206880,0.999391410,-0.006347000,0.012103000,0.068390000,-0.000002642,0.000012529,0.000215696,0.001113645,-0.020356297,0.000942746,0.011350934,-0.006037613,0.997039212,0.000565148,-0.000367453,-0.000993522,0.000000000,0.000000000,0.000000000,0.000000000,0.015424979,0.007640210,0.070827883,0.015393606,-0.000569749,-0.005306762,0.004237584,-0.001976686,-0.001804627,-0.213871494,0.449680477,3.203160524,-0.001755957,-0.003974820,0.027941596,0.999599297,0.000000000,0.000000000,0.000000000,0.000000000,0.000000000,0.000000000,3.203160524,0.000000000,4.228152752
1772692074.529249907,0.015197000,0.007652000,0.070913000,-0.003258300,0.005898960,0.034237990,0.999390990,-0.006109000,0.012014000,0.068454000,0.000124243,-0.000301088,0.000200156,0.002260609,-0.016389331,-0.002044042,0.013526167,-0.005862915,0.995794690,-0.000132244,-0.000370659,0.001841661,0.000000000,0.000000000,0.000000000,0.000000000,0.015356849,0.007643012,0.070852866,0.014251678,-0.000679213,-0.004735933,0.005322920,-0.001291351,-0.004250264,-0.213715099,0.450041365,3.201263155,-0.001754570,-0.003977901,0.027925045,0.999600174,0.000000000,0.000000000,0.000000000,0.000000000,0.000000000,0.000000000,3.201777551,0.000000000,4.228152752
1772692074.539249659,0.015195000,0.007646000,0.070908000,-0.003268120,0.005754880,0.034210390,0.999392740,-0.006139000,0.011727000,0.068400000,0.000093085,-0.000316434,0.000136305,0.002374630,-0.012539704,-0.002494691,0.011876106,-0.004823631,0.995865642,0.003883722,-0.000665745,0.001456118,0.000000000,0.000000000,0.000000000,0.000000000,0.015420065,0.007634089,0.070835659,0.014760984,-0.000783524,-0.005062796,0.004235188,-0.001085663,-0.004202565,-0.214114034,0.449815801,3.197891740,-0.001758222,-0.003975979,0.027895627,0.999600931,0.000000000,0.000000000,0.000000000,0.000000000,0.000000000,0.000000000,3.197953016,0.000000000,4.228152752
1772692074.549249887,0.015192000,0.007649000,0.070905000,-0.003248250,0.005786680,0.034269440,0.999390600,-0.006096000,0.011789000,0.068518000,-0.000124107,-0.000073388,-0.000058936,0.003685802,-0.006800176,-0.000158217,0.010439624,-0.005195245,0.996142108,0.002216111,-0.002927993,-0.000531118,0.000000000,0.000000000,0.000000000,0.000000000,0.015457517,0.007630471,0.070818795,0.015034138,-0.000848597,-0.005358814,0.003354665,-0.001132378,-0.003740001,-0.214465697,0.449056529,3.194899239,-0.001761578,-0.003969396,0.027869523,0.999601742,0.000000000,0.000000000,0.000000000,0.000000000,0.000000000,0.000000000,3.194795867,0.000000000,4.228152752
1772692074.559249878,0.015200000,0.007639000,0.070913000,-0.003238240,0.005585390,0.034196300,0.999394280,-0.006091000,0.011386000,0.068373000,-0.000163073,0.000187024,-0.000086597,0.002637838,0.000321970,0.003040192,0.011748383,-0.005597400,0.997463730,0.001338224,0.001222474,0.000682418,0.000000000,0.000000000,0.000000000,0.000000000,0.015469445,0.007635780,0.070810594,0.015119957,-0.000908378,-0.005559065,0.004216573,-0.001099821,-0.000946824,-0.213348270,0.450142220,3.190969619,-0.001751703,-0.003978534,0.027835264,0.999602507,0.000000000,0.000000000,0.000000000,0.000000000,0.000000000,0.000000000,3.191430270,0.000000000,4.228152752
1772692074.569249868,0.015200000,0.007642000,0.070903000,-0.003231640,0.005761480,0.034192610,0.999393430,-0.006066000,0.011737000,0.068364000,-0.000312801,0.000361073,-0.000226884,0.000610483,0.013903306,0.002657503,0.011680269,-0.005522320,0.996392351,0.000112771,-0.000396919,-0.000674713,0.000000000,0.000000000,0.000000000,0.000000000,0.015475623,0.007640095,0.070801406,0.015283659,-0.000974476,-0.005464555,0.003633670,-0.001234389,-0.001201025,-0.212600681,0.449383704,3.190641437,-0.001745378,-0.003971731,0.027832440,0.999602608,0.000000000,0.000000000,0.000000000,0.000000000,0.000000000,0.000000000,3.188992429,0.000000000,4.228152752
1772692074.579249620,0.015184000,0.007658000,0.070908000,-0.003268740,0.005866990,0.034274860,0.999389880,-0.006132000,0.011951000,0.068528000,-0.000160859,0.000389938,-0.000214142,0.000676438,0.023910086,0.003884948,0.011877489,-0.005325969,0.995645201,-0.001483892,0.000614404,-0.001746349,0.000000000,0.000000000,0.000000000,0.000000000,0.015484779,0.007639217,0.070800017,0.015387810,-0.001061402,-0.005455209,0.004360165,-0.002454455,-0.004663723,-0.212434172,0.447214101,3.189878182,-0.001744478,-0.003952753,0.027825824,0.999603059,0.000000000,0.000000000,0.000000000,0.000000000,0.000000000,0.000000000,3.188888463,0.000000000,4.228116570
1772692074.589249134,0.015181000,0.007661000,0.070899000,-0.003183500,0.005925030,0.034296950,0.999389050,-0.005957000,0.012061000,0.068573000,0.000035431,0.000205633,-0.000195785,-0.000610826,0.024769074,0.002753784,0.012263209,-0.004279162,0.996261979,-0.002029710,0.003534732,-0.001203824,0.000000000,0.000000000,0.000000000,0.000000000,0.015492533,0.007634213,0.070793960,0.015511787,-0.001188375,-0.005683010,0.004431341,0.000032906,-0.003590198,-0.212147430,0.446392663,3.186404091,-0.001742296,-0.003945465,0.027795543,0.999603643,0.000000000,0.000000000,0.000000000,0.000000000,0.000000000,0.000000000,3.188343383,0.000000000,4.227767074
1772692074.599248409,0.015193000,0.007659000,0.070905000,-0.003251110,0.006055400,0.034298710,0.999387990,-0.006083000,0.012327000,0.068575000,0.000148466,-0.000048388,-0.000103497,-0.000495660,0.019908365,0.000784011,0.012313444,-0.002951849,0.997514521,-0.000808641,0.004838005,0.001158544,0.000000000,0.000000000,0.000000000,0.000000000,0.015512483,0.007631339,0.070788728,0.015678251,-0.001130496,-0.005816482,0.005163442,0.000776501,-0.002352625,-0.212510751,0.444727256,3.185909712,-0.001745887,-0.003931018,0.027791247,0.999603271,0.000000000,0.000000000,0.000000000,0.000000000,0.000000000,0.000000000,3.187503643,0.000000000,4.227417586
1772692074.609247923,0.015192000,0.007650000,0.070894000,-0.003253710,0.006288390,0.034252810,0.999388120,-0.006073000,0.012792000,0.068482000,0.000340812,-0.000278536,0.000080459,-0.000212068,0.004696595,-0.003294372,0.012101178,-0.003372476,0.997493051,0.000986336,0.003579174,0.002965885,0.000000000,0.000000000,0.000000000,0.000000000,0.015508739,0.007628813,0.070793434,0.015785989,-0.000998325,-0.005774412,0.004107680,-0.000239807,-0.002324726,-0.213091662,0.441581298,3.185351270,-0.001751736,-0.003903707,0.027786409,0.999603444,0.000000000,0.000000000,0.000000000,0.000000000,0.000000000,0.000000000,3.185714150,0.000000000,4.227068090
1772692074.619247675,0.015201000,0.007653000,0.070902000,-0.003278000,0.006169310,0.034277950,0.999387920,-0.006130000,0.012556000,0.068533000,0.000384402,-0.000349845,0.000188831,-0.000552723,-0.002409206,-0.005418792,0.012133042,-0.004765781,0.996953909,0.002661994,-0.000446548,0.002118803,0.000000000,0.000000000,0.000000000,0.000000000,0.015505678,0.007628824,0.070795142,0.015834668,-0.000954638,-0.005755556,0.004739240,-0.001249182,-0.003725496,-0.213090220,0.439787959,3.183887880,-0.001752209,-0.003888041,0.027773674,0.999604122,0.000000000,0.000000000,0.000000000,0.000000000,0.000000000,0.000000000,3.183924022,0.000000000,4.226718586
1772692074.629246712,0.015200000,0.007646000,0.070907000,-0.003241390,0.006090910,0.034223290,0.999390390,-0.006062000,0.012397000,0.068424000,0.000203536,-0.000139919,0.000302797,-0.001421897,-0.008059876,-0.001770665,0.012229843,-0.004758852,0.996892947,0.001671211,-0.000201558,0.001242846,0.000000000,0.000000000,0.000000000,0.000000000,0.015506078,0.007629350,0.070795384,0.015857806,-0.000962011,-0.005773972,0.004624350,-0.000977781,-0.003692159,-0.212996145,0.439357309,3.183591627,-0.001751502,-0.003884257,0.027771101,0.999604204,0.000000000,0.000000000,0.000000000,0.000000000,0.000000000,0.000000000,3.183629553,0.000000000,4.226369107
1772692074.639246702,0.015194000,0.007647000,0.070906000,-0.003227650,0.006035020,0.034204750,0.999391410,-0.006039000,0.012284000,0.068387000,-0.000128400,0.000001787,0.000139452,0.001172865,-0.009903785,0.000918418,0.012326654,-0.004751923,0.996831980,0.000680333,0.000043455,0.000366807,0.000000000,0.000000000,0.000000000,0.000000000,0.015506478,0.007629876,0.070795626,0.015880946,-0.000969384,-0.005792388,0.004461443,-0.000630637,-0.003570874,-0.212902060,0.438926618,3.183295346,-0.001750796,-0.003880473,0.027768527,0.999604286,0.000000000,0.000000000,0.000000000,0.000000000,0.000000000,0.000000000,3.183335055,0.000000000,4.226019594
1772692074.649246216,0.015200000,0.007653000,0.070908000,-0.003239280,0.005971060,0.034231820,0.999390830,-0.006066000,0.012157000,0.068442000,-0.000360606,0.000191395,0.000002350,0.002359345,-0.002231173,0.003375987,0.012423460,-0.004744994,0.996771016,-0.000310497,0.000288457,-0.000509191,0.000000000,0.000000000,0.000000000,0.000000000,0.015506879,0.007630401,0.070795869,0.015904084,-0.000976758,-0.005810805,0.004298543,-0.000283511,-0.003449595,-0.212807980,0.438495947,3.182999079,-0.001750090,-0.003876688,0.027765953,0.999604368,0.000000000,0.000000000,0.000000000,0.000000000,0.000000000,0.000000000,3.183040572,0.000000000,4.225670099
1772692074.659245968,0.015199000,0.007647000,0.070911000,-0.003262690,0.006078090,0.034250090,0.999389490,-0.006106000,0.012373000,0.068477000,-0.000464278,0.000124340,-0.000185878,0.002495774,-0.001957887,0.003353191,0.012520268,-0.004738065,0.996710050,-0.001301351,0.000533465,-0.001385210,0.000000000,0.000000000,0.000000000,0.000000000,0.015507279,0.007630927,0.070796111,0.015927224,-0.000984131,-0.005829221,0.004135640,0.000063624,-0.003328313,-0.212713898,0.438065266,3.182702805,-0.001749384,-0.003872904,0.027763380,0.999604450,0.000000000,0.000000000,0.000000000,0.000000000,0.000000000,0.000000000,3.182746081,0.000000000,4.225320594
1772692074.669245481,0.015192000,0.007653000,0.070904000,-0.003229960,0.006030700,0.034329850,0.999387140,-0.006042000,0.012276000,0.068638000,-0.000233256,0.000047417,-0.000085762,0.003672337,-0.005842188,0.002742470,0.012617074,-0.004731137,0.996649086,-0.002292181,0.000778467,-0.002261208,0.000000000,0.000000000,0.000000000,0.000000000,0.015507679,0.007631453,0.070796353,0.015950362,-0.000991504,-0.005847637,0.003972740,0.000410750,-0.003207035,-0.212619818,0.437634595,3.182406538,-0.001748677,-0.003869120,0.027760806,0.999604532,0.000000000,0.000000000,0.000000000,0.000000000,0.000000000,0.000000000,3.182451598,0.000000000,4.224971098
1772692074.679245710,0.015177000,0.007652000,0.070899000,-0.003161750,0.006042010,0.034262310,0.999389610,-0.005906000,0.012294000,0.068503000,-0.000020144,-0.000159227,-0.000000952,0.005194698,-0.008998517,-0.001730311,0.011677841,-0.003795657,0.996800161,-0.001758816,-0.000670542,-0.001689476,0.000000000,0.000000000,0.000000000,0.000000000,0.015508267,0.007631611,0.070796907,0.015976504,-0.000973823,-0.005872646,0.003787876,0.000771096,-0.003140719,-0.210728215,0.437216988,3.180332511,-0.001732348,-0.003864987,0.027742786,0.999604857,0.000000000,0.000000000,0.000000000,0.000000000,0.000000000,0.000000000,3.180633577,0.000000000,4.224621577
1772692074.689245939,0.015184000,0.007656000,0.070903000,-0.003156170,0.006029270,0.034278710,0.999389140,-0.005896000,0.012268000,0.068536000,0.000237646,-0.000240074,-0.000008838,0.004832520,-0.006736808,-0.004965380,0.010836704,-0.003226868,0.996339827,0.000678572,0.000532785,0.000246690,0.000000000,0.000000000,0.000000000,0.000000000,0.015508296,0.007631958,0.070796979,0.015995649,-0.000847238,-0.005941902,0.003322416,0.000848516,-0.003468821,-0.210513485,0.437203754,3.176614583,-0.001730603,-0.003864764,0.027710360,0.999605098,0.000000000,0.000000000,0.000000000,0.000000000,0.000000000,0.000000000,3.177104458,0.000000000,4.224272057
1772692074.699245930,0.015196000,0.007642000,0.070908000,-0.003175370,0.005700710,0.034230860,0.999392650,-0.005957000,0.011612000,0.068442000,0.000366492,-0.000142696,-0.000015715,0.002607344,0.000628724,-0.005380742,0.011155811,-0.004882986,0.996665230,-0.000600264,0.002529543,0.001056463,0.000000000,0.000000000,0.000000000,0.000000000,0.015502562,0.007635490,0.070792122,0.015939242,-0.000740265,-0.006061102,0.003200017,-0.000543202,-0.002745562,-0.210704113,0.436873888,3.177229624,-0.001732325,-0.003861942,0.027715726,0.999605332,0.000000000,0.000000000,0.000000000,0.000000000,0.000000000,0.000000000,3.177032405,0.000000000,4.223922544
1772692074.709245443,0.015202000,0.007644000,0.070909000,-0.003103830,0.005950030,0.034211400,0.999392090,-0.005797000,0.012105000,0.068403000,0.000260684,-0.000088559,-0.000022222,-0.000184701,0.008310983,-0.003248378,0.012560700,-0.003702653,0.998290134,-0.000504277,0.000511918,0.001720233,0.000000000,0.000000000,0.000000000,0.000000000,0.015495914,0.007637620,0.070788570,0.015916283,-0.000738274,-0.006072418,0.004789982,0.000104448,-0.001017911,-0.209552968,0.434981340,3.174642864,-0.001722828,-0.003845116,0.027693229,0.999605585,0.000000000,0.000000000,0.000000000,0.000000000,0.000000000,0.000000000,3.175056266,0.000000000,4.223573048
1772692074.719245195,0.015198000,0.007644000,0.070902000,-0.003145060,0.005989780,0.034168400,0.999393190,-0.005877000,0.012188000,0.068316000,-0.000048427,0.000092657,-0.000128866,-0.002330577,0.010262904,0.000367814,0.013078613,-0.003064170,0.998355890,-0.001176894,-0.000634266,0.000267985,0.000000000,0.000000000,0.000000000,0.000000000,0.015496822,0.007638580,0.070789607,0.016027093,-0.000666405,-0.005941807,0.004569294,0.000801889,-0.001292848,-0.209928217,0.434260466,3.176509883,-0.001726214,-0.003838946,0.027709515,0.999605528,0.000000000,0.000000000,0.000000000,0.000000000,0.000000000,0.000000000,3.176239603,0.000000000,4.223223544
1772692074.729244709,0.015198000,0.007649000,0.070899000,-0.003172030,0.006131930,0.034217380,0.999390570,-0.005921000,0.012474000,0.068413000,-0.000399826,0.000316395,-0.000182809,-0.003120395,0.008254563,0.002830245,0.012389195,-0.004888554,0.997604322,-0.000120625,-0.000377133,-0.000480917,0.000000000,0.000000000,0.000000000,0.000000000,0.015503339,0.007634968,0.070793315,0.016141154,-0.000582901,-0.005832198,0.004662723,-0.000579173,-0.001688692,-0.210104325,0.433886954,3.176127508,-0.001727853,-0.003835725,0.027706181,0.999606073,0.000000000,0.000000000,0.000000000,0.000000000,0.000000000,0.000000000,3.176320756,0.000000000,4.222874330
1772692074.739244699,0.015185000,0.007654000,0.070900000,-0.003186730,0.006128860,0.034242550,0.999389680,-0.005950000,0.012469000,0.068463000,-0.000247999,0.000327215,-0.000057615,-0.004342066,-0.000473214,0.004818926,0.012291919,-0.005836289,0.997983193,0.004519357,-0.001187810,0.001850366,0.000000000,0.000000000,0.000000000,0.000000000,0.015509719,0.007634223,0.070795902,0.016232479,-0.000631243,-0.005768182,0.004800313,-0.002219796,-0.002127872,-0.209487422,0.433487276,3.174015963,-0.001722639,-0.003832057,0.027687789,0.999606511,0.000000000,0.000000000,0.000000000,0.000000000,0.000000000,0.000000000,3.174345973,0.000000000,4.223370809
1772692074.749244452,0.015187000,0.007652000,0.070902000,-0.003201580,0.005974470,0.034263950,0.999389830,-0.005990000,0.012161000,0.068506000,0.000070999,0.000084518,0.000089064,-0.005409472,-0.015383239,0.004139260,0.012752183,-0.004651646,0.998939788,0.000802060,-0.002051865,0.000172906,0.000000000,0.000000000,0.000000000,0.000000000,0.015512440,0.007632860,0.070794982,0.016352638,-0.000786708,-0.005719394,0.004668111,-0.000852400,-0.000844840,-0.208928220,0.432872274,3.171029570,-0.001718009,-0.003826512,0.027661767,0.999607236,0.000000000,0.000000000,0.000000000,0.000000000,0.000000000,0.000000000,3.171459703,0.000000000,4.223867276
1772692074.759244204,0.015189000,0.007655000,0.070902000,-0.003233970,0.005923100,0.034266670,0.999389940,-0.006059000,0.012061000,0.068512000,0.000280905,-0.000016900,0.000186383,-0.004577200,-0.019567516,0.002555134,0.011383265,-0.004152467,1.000710104,0.002932256,0.001326458,-0.001246834,0.000000000,0.000000000,0.000000000,0.000000000,0.015514857,0.007633787,0.070793980,0.016425621,-0.000780336,-0.005507294,0.004249301,-0.000676102,0.000448575,-0.208669274,0.432742800,3.167933445,-0.001715885,-0.003825274,0.027634770,0.999608004,0.000000000,0.000000000,0.000000000,0.000000000,0.000000000,0.000000000,3.168243260,0.000000000,4.224363743
1772692074.769244671,0.015195000,0.007658000,0.070904000,-0.003237860,0.005841040,0.034303480,0.999389150,-0.006071000,0.011897000,0.068586000,0.000271115,-0.000099223,0.000206177,-0.004668197,-0.021929457,0.000627114,0.010919243,-0.005151507,0.997834047,0.001906209,-0.002108484,-0.001242917,0.000000000,0.000000000,0.000000000,0.000000000,0.015509846,0.007637218,0.070796489,0.016408348,-0.000771173,-0.005202875,0.002901334,-0.001966006,-0.002179913,-0.207853761,0.432859035,3.167774629,-0.001708748,-0.003826089,0.027633410,0.999607337,0.000000000,0.000000000,0.000000000,0.000000000,0.000000000,0.000000000,3.167404780,0.000000000,4.224860246
1772692074.779244661,0.015206000,0.007646000,0.070907000,-0.003260420,0.005730700,0.034269270,0.999390890,-0.006125000,0.011678000,0.068518000,0.000130148,-0.000102992,0.000138675,-0.004043429,-0.015301924,-0.000197462,0.012007359,-0.004696329,0.995041403,0.000545827,0.002036614,-0.001057891,0.000000000,0.000000000,0.000000000,0.000000000,0.015507203,0.007637161,0.070800434,0.016316921,-0.000904276,-0.005236305,0.004629998,-0.001077619,-0.005046932,-0.207092971,0.433071770,3.167629367,-0.001702065,-0.003827759,0.027632165,0.999607889,0.000000000,0.000000000,0.000000000,0.000000000,0.000000000,0.000000000,3.168029945,0.000000000,4.225356725
1772692074.789244652,0.015198000,0.007650000,0.070906000,-0.003287030,0.005650240,0.034274730,0.999391070,-0.006183000,0.011519000,0.068529000,-0.000061519,-0.000202797,0.000211150,-0.003148573,-0.012611893,0.000108430,0.011980944,-0.002783130,0.994887971,-0.001231915,0.001865528,-0.001994318,0.000000000,0.000000000,0.000000000,0.000000000,0.015507217,0.007638122,0.070800265,0.016390692,-0.000905547,-0.005526084,0.004312725,0.002698010,-0.004435428,-0.206510891,0.432916169,3.167441739,-0.001697032,-0.003826259,0.027630550,0.999607437,0.000000000,0.000000000,0.000000000,0.000000000,0.000000000,0.000000000,3.167070170,0.000000000,4.225853204
1772692074.799244881,0.015193000,0.007653000,0.070909000,-0.003299960,0.005590580,0.034278030,0.999391250,-0.006213000,0.011401000,0.068536000,-0.000062490,-0.000058897,-0.000046698,-0.001326306,-0.006389449,-0.001434111,0.011192176,-0.003291740,0.996710687,-0.000119823,0.002282333,-0.001139887,0.000000000,0.000000000,0.000000000,0.000000000,0.015510710,0.007641289,0.070798978,0.016425041,-0.000635121,-0.005694601,0.004122873,-0.000209322,-0.003709562,-0.207195251,0.431440530,3.169669820,-0.001703283,-0.003813585,0.027649988,0.999607742,0.000000000,0.000000000,0.000000000,0.000000000,0.000000000,0.000000000,3.169450777,0.000000000,4.226349694
1772692074.809244394,0.015192000,0.007650000,0.070910000,-0.003285260,0.005596000,0.034277490,0.999391290,-0.006183000,0.011411000,0.068535000,0.000070280,0.000130420,-0.000256644,0.000958096,0.001995374,-0.004667410,0.009849173,-0.004768244,0.996706255,-0.000298887,0.000229029,0.001778232,0.000000000,0.000000000,0.000000000,0.000000000,0.015517623,0.007638085,0.070798464,0.016414975,-0.000646158,-0.005793468,0.002561816,-0.000183255,-0.002450435,-0.207873221,0.429767114,3.169250539,-0.001709615,-0.003799144,0.027646337,0.999607787,0.000000000,0.000000000,0.000000000,0.000000000,0.000000000,0.000000000,3.169628589,0.000000000,4.226846149
1772692074.819244623,0.015195000,0.007648000,0.070905000,-0.003290760,0.005670520,0.034248660,0.999391840,-0.006190000,0.011560000,0.068476000,0.000253808,0.000179351,-0.000269348,0.003472946,0.009897392,-0.005348687,0.011504139,-0.004036385,0.997939221,-0.004672839,0.003084791,0.003791028,0.000000000,0.000000000,0.000000000,0.000000000,0.015516993,0.007638082,0.070797678,0.016294426,-0.000622353,-0.005772424,0.004919546,-0.000603956,-0.002598464,-0.207932787,0.428395859,3.166403896,-0.001710560,-0.003787154,0.027621526,0.999608470,0.000000000,0.000000000,0.000000000,0.000000000,0.000000000,0.000000000,3.166945987,0.000000000,4.227342640
1772692074.829244614,0.015204000,0.007646000,0.070908000,-0.003279710,0.005589870,0.034248720,0.999392330,-0.006173000,0.011398000,0.068477000,0.000192172,0.000093065,-0.000131333,0.001961613,0.015435543,-0.004991893,0.013260859,-0.005200207,0.996461890,-0.001118493,0.003371003,0.001755209,0.000000000,0.000000000,0.000000000,0.000000000,0.015514942,0.007639133,0.070798223,0.016361692,-0.000633952,-0.005772057,0.005654582,-0.001158278,-0.003090062,-0.208529073,0.427408428,3.165361600,-0.001716034,-0.003778669,0.027612430,0.999608098,0.000000000,0.000000000,0.000000000,0.000000000,0.000000000,0.000000000,3.164787235,0.000000000,4.227839119
1772692074.839244366,0.015205000,0.007664000,0.070887000,-0.003249650,0.005845610,0.034146370,0.999394460,-0.006097000,0.011906000,0.068271000,0.000054274,0.000013831,-0.000027001,0.000174856,0.016911021,-0.002478153,0.012952300,-0.004956160,0.997052105,0.001502722,0.000786264,-0.000100564,0.000000000,0.000000000,0.000000000,0.000000000,0.015513450,0.007639273,0.070799022,0.016477514,-0.000683485,-0.005795131,0.005290364,-0.001204359,-0.003366266,-0.209510764,0.426054594,3.168029381,-0.001724836,-0.003767136,0.027635691,0.999608145,0.000000000,0.000000000,0.000000000,0.000000000,0.000000000,0.000000000,3.167475112,0.000000000,4.228152752
1772692074.849244833,0.015205000,0.007653000,0.070903000,-0.003244660,0.005850890,0.034137640,0.999394750,-0.006086000,0.011917000,0.068254000,-0.000161752,-0.000110664,0.000067288,-0.002144917,0.013652733,-0.000838107,0.012248677,-0.004177590,0.997045890,0.000520687,-0.002950780,-0.000535127,0.000000000,0.000000000,0.000000000,0.000000000,0.015513830,0.007637908,0.070798524,0.016583828,-0.000733088,-0.005838350,0.005190624,-0.000054147,-0.003271723,-0.209621845,0.425840253,3.164629972,-0.001725969,-0.003765241,0.027606038,0.999608886,0.000000000,0.000000000,0.000000000,0.000000000,0.000000000,0.000000000,3.165178472,0.000000000,4.228152752
1772692074.859245539,0.015197000,0.007648000,0.070909000,-0.003274230,0.005941580,0.034214860,0.999391480,-0.006138000,0.012100000,0.068408000,-0.000254934,-0.000345086,0.000136500,-0.003587806,0.007286114,0.000548650,0.012691459,-0.003335285,0.996884631,0.001394612,-0.002410766,-0.000678005,0.000000000,0.000000000,0.000000000,0.000000000,0.015517426,0.007636246,0.070796785,0.016668321,-0.000689931,-0.005889065,0.004618933,0.000823861,-0.003136583,-0.208924733,0.426024965,3.161507017,-0.001719945,-0.003766638,0.027578818,0.999609805,0.000000000,0.000000000,0.000000000,0.000000000,0.000000000,0.000000000,3.161893400,0.000000000,4.228152752
