t,px,py,pz,qx,qy,qz,qw,roll,pitch,yaw,vx,vy,vz,wx_vicon,wy_vicon,wz_vicon,imu_acc_x,imu_acc_y,imu_acc_z,imu_gyro_x,imu_gyro_y,imu_gyro_z,motor_motor_m1,motor_motor_m2,motor_motor_m3,motor_motor_m4,est_stateEstimate_x,est_stateEstimate_y,est_stateEstimate_z,est_stateEstimate_vx,est_stateEstimate_vy,est_stateEstimate_vz,est_stateEstimate_ax,est_stateEstimate_ay,est_stateEstimate_az,att_stateEstimate_roll,att_stateEstimate_pitch,att_stateEstimate_yaw,att_stateEstimate_qx,att_stateEstimate_qy,att_stateEstimate_qz,att_stateEstimate_qw,sp_ctrltarget_x,sp_ctrltarget_y,sp_ctrltarget_z,sp_ctrltarget_yaw,pid_controller_roll,pid_controller_pitch,pid_controller_yaw,pid_controller_cmd_thrust,pwr_pm_vbat
1772715841.520373821,0.014629000,0.009104000,0.056354000,-0.000367800,0.005087680,-0.006514210,0.999965770,-0.000802000,0.010170000,-0.013033000,0.001633898,-0.001311885,0.002032189,0.023435001,-0.019505075,0.021110320,0.009055843,-0.002930856,0.998653596,0.001234272,-0.000956129,0.002313489,0.000000000,0.000000000,0.000000000,0.000000000,0.014796257,0.009085532,0.056354270,0.016174057,-0.001498698,-0.000785158,0.005807407,-0.002025038,-0.001150820,-0.116084935,0.174210659,-0.493773411,-0.001019571,-0.001515896,-0.004310501,0.999988036,0.000000000,0.000000000,0.000000000,0.000000000,0.000000000,0.000000000,-0.493803356,0.000000000,4.183000689
1772715841.530374050,0.014644000,0.009092000,0.056367000,-0.000289420,0.005161710,-0.006482000,0.999965630,-0.000646000,0.010319000,-0.012968000,0.000528239,0.000004720,0.000524451,0.010710472,0.010557546,0.005565916,0.009207563,-0.002826452,0.998606888,0.000776886,-0.001897736,0.001978347,0.000000000,0.000000000,0.000000000,0.000000000,0.014798035,0.009086212,0.056354355,0.016202261,-0.001515588,-0.000797942,0.005910240,-0.001871517,-0.001248324,-0.116037751,0.173859633,-0.493601733,-0.001019144,-0.001512836,-0.004308999,0.999988046,0.000000000,0.000000000,0.000000000,0.000000000,0.000000000,0.000000000,-0.493633996,0.000000000,4.182653265
1772715841.540374756,0.014640000,0.009099000,0.056362000,-0.000231950,0.005224080,-0.006434880,0.999965620,-0.000531000,0.010445000,-0.012873000,-0.000128141,0.000589541,-0.000302200,0.002626536,0.024094177,-0.002838798,0.009359292,-0.002722043,0.998560178,0.000319478,-0.002839387,0.001643189,0.000000000,0.000000000,0.000000000,0.000000000,0.014799813,0.009086892,0.056354440,0.016230467,-0.001532478,-0.000810726,0.006013079,-0.001717989,-0.001345832,-0.115990565,0.173508590,-0.493430046,-0.001018717,-0.001509776,-0.004307497,0.999988056,0.000000000,0.000000000,0.000000000,0.000000000,0.000000000,0.000000000,-0.493464629,0.000000000,4.182305825
1772715841.550375938,0.014642000,0.009109000,0.056364000,-0.000247710,0.005220690,-0.006502650,0.999965200,-0.000563000,0.010438000,-0.013009000,-0.000426845,0.000634877,-0.000597408,-0.001803488,0.025028668,-0.005651751,0.009511027,-0.002617629,0.998513466,-0.000137952,-0.003781084,0.001308015,0.000000000,0.000000000,0.000000000,0.000000000,0.014801592,0.009087572,0.056354526,0.016258674,-0.001549370,-0.000823511,0.006115922,-0.001564454,-0.001443344,-0.115943377,0.173157530,-0.493258351,-0.001018290,-0.001506716,-0.004305995,0.999988066,0.000000000,0.000000000,0.000000000,0.000000000,0.000000000,0.000000000,-0.493295253,0.000000000,4.181958368
1772715841.560376883,0.014632000,0.009113000,0.056361000,-0.000316600,0.005472510,-0.006466540,0.999964070,-0.000704000,0.010941000,-0.012937000,-0.000459477,0.000333026,-0.000510815,-0.003553799,0.017283546,-0.004427383,0.009662759,-0.002513218,0.998466755,-0.000595371,-0.004722757,0.000972848,0.000000000,0.000000000,0.000000000,0.000000000,0.014803370,0.009088252,0.056354611,0.016286880,-0.001566261,-0.000836295,0.006215691,-0.000923014,-0.001312629,-0.115897571,0.172827306,-0.493078866,-0.001017875,-0.001503837,-0.004304426,0.999988076,0.000000000,0.000000000,0.000000000,0.000000000,0.000000000,0.000000000,-0.493125881,0.000000000,4.181610920
1772715841.570377588,0.014631000,0.009112000,0.056348000,-0.000234090,0.005435070,-0.006541770,0.999963800,-0.000539000,0.010867000,-0.013087000,-0.000317642,-0.000123712,-0.000192066,-0.003611587,0.004779863,-0.000721033,0.009427292,-0.001623176,0.998998848,-0.001645530,-0.000824652,0.001369457,0.000000000,0.000000000,0.000000000,0.000000000,0.014803996,0.009089454,0.056354512,0.016339193,-0.001577400,-0.000859617,0.006307822,0.000931459,-0.000614496,-0.115892921,0.173117210,-0.492667328,-0.001017840,-0.001506371,-0.004300837,0.999988109,0.000000000,0.000000000,0.000000000,0.000000000,0.000000000,0.000000000,-0.492736300,0.000000000,4.181263480
1772715841.580378056,0.014623000,0.009110000,0.056350000,-0.000298700,0.005554060,-0.006495170,0.999963440,-0.000670000,0.011104000,-0.012994000,-0.000070374,-0.000406857,0.000156053,-0.002947483,-0.004891157,0.003699786,0.008906637,-0.000410615,0.999743816,-0.002404937,0.005806158,0.002238671,0.000000000,0.000000000,0.000000000,0.000000000,0.014798396,0.009093450,0.056353183,0.016522085,-0.001550667,-0.000938541,0.006277757,0.000990466,-0.000640379,-0.115890898,0.173243329,-0.492488295,-0.001017825,-0.001507473,-0.004299276,0.999988139,0.000000000,0.000000000,0.000000000,0.000000000,0.000000000,0.000000000,-0.492488295,0.000000000,4.180916048
1772715841.590378284,0.014639000,0.009094000,0.056360000,-0.000321870,0.005401170,-0.006516340,0.999964130,-0.000714000,0.010798000,-0.013037000,-0.000006740,-0.000361172,0.000400894,-0.004820246,-0.015536558,0.006996573,0.008879565,-0.001401908,0.998749002,0.001005564,0.002361768,0.001863446,0.000000000,0.000000000,0.000000000,0.000000000,0.014796135,0.009095367,0.056347170,0.016641323,-0.001390032,-0.000956892,0.006609332,0.000557212,-0.000964402,-0.116505393,0.172333883,-0.492419446,-0.001023152,-0.001499514,-0.004298675,0.999988145,0.000000000,0.000000000,0.000000000,0.000000000,0.000000000,0.000000000,-0.492441448,0.000000000,4.180645466
1772715841.600379467,0.014631000,0.009099000,0.056359000,-0.000328390,0.005323820,-0.006414210,0.999965200,-0.000725000,0.010643000,-0.012833000,0.000181324,-0.000116797,0.000412724,-0.005810626,-0.019263836,0.006137825,0.011514427,-0.002287052,0.999048337,0.000715214,-0.000567290,0.003012146,0.000000000,0.000000000,0.000000000,0.000000000,0.014791854,0.009096409,0.056343673,0.016792755,-0.001293737,-0.001024874,0.007578594,-0.000741340,-0.001491457,-0.116905094,0.171181703,-0.492164035,-0.001026594,-0.001489447,-0.004296441,0.999988198,0.000000000,0.000000000,0.000000000,0.000000000,0.000000000,0.000000000,-0.492231273,0.000000000,4.180645466
1772715841.610379696,0.014626000,0.009098000,0.056371000,-0.000349410,0.005138230,-0.006382000,0.999966370,-0.000764000,0.010272000,-0.012768000,0.000058719,0.000056777,0.000238664,-0.007404615,-0.011724386,0.004834779,0.009252691,-0.004332966,0.996823481,-0.001230184,0.002337964,-0.000255300,0.000000000,0.000000000,0.000000000,0.000000000,0.014796691,0.009090244,0.056345780,0.017131577,-0.001331410,-0.001089116,0.006982443,-0.002210564,-0.002269021,-0.115885606,0.171279807,-0.491639800,-0.001017694,-0.001490346,-0.004291854,0.999988202,0.000000000,0.000000000,0.000000000,0.000000000,0.000000000,0.000000000,-0.491719291,0.000000000,4.180645466
1772715841.620379925,0.014636000,0.009103000,0.056368000,-0.000396760,0.005212480,-0.006370480,0.999966040,-0.000860000,0.010420000,-0.012746000,-0.000133308,0.000218288,-0.000058136,-0.004398857,-0.001103117,0.001851677,0.008340029,-0.004706172,0.998130804,-0.004029611,0.000373447,0.001161517,0.000000000,0.000000000,0.000000000,0.000000000,0.014798583,0.009087192,0.056346887,0.017294415,-0.001492434,-0.001263808,0.005541887,-0.002345504,-0.001712878,-0.115472280,0.171479302,-0.490731101,-0.001014083,-0.001492110,-0.004283921,0.999988254,0.000000000,0.000000000,0.000000000,0.000000000,0.000000000,0.000000000,-0.491010295,0.000000000,4.180645466
1772715841.630380869,0.014630000,0.009105000,0.056367000,-0.000483800,0.005139290,-0.006411080,0.999966130,-0.001034000,0.010272000,-0.012828000,-0.000201467,0.000223164,-0.000128432,-0.005061668,0.007199457,-0.002030826,0.010582453,-0.002681576,1.001520125,0.001094384,0.001001328,0.002038069,0.000000000,0.000000000,0.000000000,0.000000000,0.014797402,0.009084459,0.056351359,0.017367981,-0.001734644,-0.001358747,0.007229551,-0.001453421,0.001033905,-0.116432257,0.171247512,-0.489023685,-0.001022429,-0.001490067,-0.004269032,0.999988261,0.000000000,0.000000000,0.000000000,0.000000000,0.000000000,0.000000000,-0.489023685,0.000000000,4.180645466
1772715841.640380859,0.014636000,0.009105000,0.056356000,-0.000409090,0.005288480,-0.006430010,0.999965260,-0.000886000,0.010572000,-0.012865000,0.000152518,-0.000042714,-0.000036556,-0.004662833,0.005674284,-0.006244596,0.010493204,-0.001991211,1.001147806,0.000979393,-0.001876556,-0.002464565,0.000000000,0.000000000,0.000000000,0.000000000,0.014802181,0.009084729,0.056354112,0.017670225,-0.001804156,-0.001131111,0.007902940,0.000331182,0.001015803,-0.116239057,0.170264347,-0.488842623,-0.001020704,-0.001481496,-0.004267440,0.999988317,0.000000000,0.000000000,0.000000000,0.000000000,0.000000000,0.000000000,-0.488892000,0.000000000,4.180645466
1772715841.650381088,0.014622000,0.009101000,0.056363000,-0.000466400,0.005333160,-0.006423310,0.999965040,-0.001001000,0.010660000,-0.012852000,0.000040460,-0.000070840,0.000033507,-0.001978969,0.001880495,-0.005709635,0.009876403,-0.002324635,0.998523248,0.003806092,-0.004123457,-0.000008519,0.000000000,0.000000000,0.000000000,0.000000000,0.014804192,0.009086302,0.056354639,0.017985560,-0.001729491,-0.000949116,0.006610600,0.000113443,-0.001939575,-0.114700588,0.169834228,-0.488399368,-0.001007257,-0.001477804,-0.004263549,0.999988317,0.000000000,0.000000000,0.000000000,0.000000000,0.000000000,0.000000000,-0.488449508,0.000000000,4.180645466
1772715841.660381079,0.014626000,0.009106000,0.056366000,-0.000439370,0.005354500,-0.006433710,0.999964870,-0.000948000,0.010703000,-0.012873000,0.000015423,-0.000128743,0.000214112,-0.000445930,-0.003899738,-0.004131487,0.008936750,-0.003568088,0.999438256,0.000467079,0.002212088,-0.002413016,0.000000000,0.000000000,0.000000000,0.000000000,0.014806236,0.009086692,0.056351565,0.018175236,-0.001696441,-0.001054792,0.005956763,-0.002135529,-0.000481873,-0.113955935,0.170459414,-0.487112552,-0.001000765,-0.001483299,-0.004252315,0.999988357,0.000000000,0.000000000,0.000000000,0.000000000,0.000000000,0.000000000,-0.487276314,0.000000000,4.180645466
1772715841.670381546,0.014639000,0.009100000,0.056370000,-0.000518950,0.005152870,-0.006532630,0.999965250,-0.001105000,0.010299000,-0.013071000,0.000213665,-0.000107163,0.000177847,0.001582182,-0.007931868,-0.001248093,0.007212128,-0.003008777,1.000339138,-0.001869966,0.000725275,-0.000123670,0.000000000,0.000000000,0.000000000,0.000000000,0.014803356,0.009086361,0.056353101,0.018231671,-0.001806549,-0.001082755,0.004082017,-0.002207943,0.000033845,-0.113709617,0.170027725,-0.487591867,-0.000998606,-0.001479536,-0.004256491,0.999988332,0.000000000,0.000000000,0.000000000,0.000000000,0.000000000,0.000000000,-0.487515553,0.000000000,4.180645466
1772715841.680382013,0.014642000,0.009097000,0.056369000,-0.000465730,0.005146530,-0.006501400,0.999965510,-0.000998000,0.010287000,-0.013008000,0.000018181,-0.000014588,0.000002525,0.002465407,-0.008930061,0.002316563,0.006638384,-0.000113024,1.000213012,-0.001690934,-0.000215409,0.000622773,0.000000000,0.000000000,0.000000000,0.000000000,0.014806909,0.009085391,0.056355793,0.018136368,-0.001882274,-0.000996875,0.003379700,0.002424387,0.000220135,-0.113769758,0.170024337,-0.487443355,-0.000999129,-0.001479506,-0.004255195,0.999988365,0.000000000,0.000000000,0.000000000,0.000000000,0.000000000,0.000000000,-0.487593020,0.000000000,4.180645466
1772715841.690382719,0.014622000,0.009104000,0.056367000,-0.000411610,0.005193580,-0.006453110,0.999965610,-0.000890000,0.010382000,-0.012911000,-0.000018162,-0.000023309,-0.000229962,0.005238979,-0.002511528,0.005649631,0.007195876,-0.000806564,0.998802709,0.000874881,0.002226162,0.001006925,0.000000000,0.000000000,0.000000000,0.000000000,0.014812233,0.009082718,0.056358128,0.017958812,-0.001652555,-0.000917426,0.003746794,0.001429774,-0.000520906,-0.114324236,0.169743851,-0.486219447,-0.001003941,-0.001477048,-0.004244519,0.999988377,0.000000000,0.000000000,0.000000000,0.000000000,0.000000000,0.000000000,-0.486302171,0.000000000,4.180645466
1772715841.700383186,0.014636000,0.009099000,0.056366000,-0.000429090,0.005186810,-0.006434450,0.999965750,-0.000925000,0.010368000,-0.012874000,-0.000181246,-0.000065673,-0.000204419,0.005695384,0.003229632,0.006030429,0.009364694,-0.002633184,0.999659467,-0.000636170,0.001128490,-0.001238386,0.000000000,0.000000000,0.000000000,0.000000000,0.014806479,0.009085166,0.056358336,0.017800016,-0.001442904,-0.000957609,0.006114677,-0.000884799,-0.000863155,-0.114860013,0.168295234,-0.485629886,-0.001008556,-0.001464392,-0.004239369,0.999988437,0.000000000,0.000000000,0.000000000,0.000000000,0.000000000,0.000000000,-0.485629886,0.000000000,4.180645466
1772715841.710383892,0.014636000,0.009100000,0.056361000,-0.000357580,0.005127970,-0.006392650,0.999966350,-0.000781000,0.010251000,-0.012790000,-0.000022008,-0.000025387,-0.000178003,0.006512341,0.007489561,0.003018667,0.009461142,-0.005170525,0.999291758,-0.002562279,0.002034628,0.003634457,0.000000000,0.000000000,0.000000000,0.000000000,0.014806217,0.009085657,0.056357735,0.017848703,-0.001454126,-0.000974550,0.007031127,-0.002968764,-0.000704644,-0.115265678,0.167898741,-0.485271872,-0.001012076,-0.001460920,-0.004236246,0.999988440,0.000000000,0.000000000,0.000000000,0.000000000,0.000000000,0.000000000,-0.485418222,0.000000000,4.180645466
1772715841.720384359,0.014621000,0.009102000,0.056359000,-0.000373430,0.005263370,-0.006369610,0.999965790,-0.000814000,0.010522000,-0.012744000,-0.000006760,-0.000033584,-0.000003205,0.005346825,0.009179910,-0.003144251,0.009193119,-0.005920389,0.999668006,0.002230471,-0.004964362,0.000174492,0.000000000,0.000000000,0.000000000,0.000000000,0.014808021,0.009084965,0.056355488,0.017953621,-0.001652645,-0.001001658,0.005939060,-0.003855146,-0.000208862,-0.116243208,0.166933817,-0.484257095,-0.001020558,-0.001452473,-0.004227395,0.999988489,0.000000000,0.000000000,0.000000000,0.000000000,0.000000000,0.000000000,-0.484323490,0.000000000,4.180645466
1772715841.730385303,0.014637000,0.009095000,0.056363000,-0.000340310,0.005277310,-0.006418330,0.999965420,-0.000748000,0.010550000,-0.012841000,0.000066042,-0.000040752,0.000112252,0.001580105,0.009802705,-0.006651393,0.010455807,-0.004517169,0.999510040,0.002438493,-0.004271984,-0.000589051,0.000000000,0.000000000,0.000000000,0.000000000,0.014804892,0.009084280,0.056352700,0.018015813,-0.001970017,-0.001004432,0.007419022,-0.003014774,-0.000097883,-0.114899956,0.168149143,-0.483880073,-0.001008876,-0.001463131,-0.004224098,0.999988496,0.000000000,0.000000000,0.000000000,0.000000000,0.000000000,0.000000000,-0.483887832,0.000000000,4.180645466
1772715841.740385532,0.014634000,0.009098000,0.056365000,-0.000312510,0.005288330,-0.006493200,0.999964890,-0.000694000,0.010572000,-0.012990000,0.000054970,-0.000030107,0.000100947,-0.002258124,0.001712205,-0.007306739,0.011251802,-0.003111288,0.999349003,0.000915418,-0.000943800,0.001289754,0.000000000,0.000000000,0.000000000,0.000000000,0.014805770,0.009081053,0.056352386,0.018162356,-0.002187546,-0.000989424,0.008160888,-0.001430061,-0.000952381,-0.114850742,0.168234893,-0.483895727,-0.001008450,-0.001463881,-0.004224235,0.999988449,0.000000000,0.000000000,0.000000000,0.000000000,0.000000000,0.000000000,-0.483880073,0.000000000,4.180645466
1772715841.750386477,0.014636000,0.009100000,0.056362000,-0.000310360,0.005345970,-0.006513060,0.999964450,-0.000690000,0.010688000,-0.013030000,0.000158171,-0.000116001,0.000015578,-0.006507145,-0.005671163,-0.006069767,0.010502575,-0.002948852,0.999910369,0.003202120,-0.002425419,-0.000063488,0.000000000,0.000000000,0.000000000,0.000000000,0.014809758,0.009077721,0.056353810,0.018413323,-0.002272208,-0.000982507,0.007351868,-0.000804421,-0.000160014,-0.113833583,0.169953950,-0.484132906,-0.000999640,-0.001478918,-0.004226307,0.999988486,0.000000000,0.000000000,0.000000000,0.000000000,0.000000000,0.000000000,-0.484182281,0.000000000,4.180645466
1772715841.760387182,0.014623000,0.009100000,0.056368000,-0.000352980,0.005371990,-0.006533610,0.999964160,-0.000776000,0.010739000,-0.013072000,0.000304531,-0.000061322,-0.000257952,-0.002151968,-0.009083415,-0.002318673,0.008679059,-0.003287827,0.999542626,0.001420809,0.000439698,0.002678621,0.000000000,0.000000000,0.000000000,0.000000000,0.014813233,0.009077119,0.056353994,0.018632998,-0.002317723,-0.000924272,0.006218410,-0.001499384,0.000471926,-0.112546671,0.170232380,-0.481265913,-0.000988383,-0.001481420,-0.004201273,0.999988559,0.000000000,0.000000000,0.000000000,0.000000000,0.000000000,0.000000000,-0.481525530,0.000000000,4.180645466
1772715841.770387411,0.014644000,0.009095000,0.056361000,-0.000478760,0.005177000,-0.006521860,0.999965220,-0.001025000,0.010348000,-0.013049000,0.000061594,-0.000048677,-0.000384500,0.002857361,-0.007095100,0.002978745,0.009397941,-0.003665490,1.000626417,0.001953629,0.000644079,-0.000455056,0.000000000,0.000000000,0.000000000,0.000000000,0.014809661,0.009077208,0.056356312,0.018640691,-0.002389965,-0.000861179,0.005907259,-0.000877803,0.000399230,-0.112585184,0.168954023,-0.479849467,-0.000988654,-0.001470275,-0.004188903,0.999988675,0.000000000,0.000000000,0.000000000,0.000000000,0.000000000,0.000000000,-0.479779439,0.000000000,4.180645466
1772715841.780387878,0.014642000,0.009093000,0.056355000,-0.000395250,0.005008790,-0.006496750,0.999966270,-0.000856000,0.010012000,-0.012998000,0.000074996,0.000005691,-0.000295480,0.007585138,-0.010545595,0.004610626,0.009894727,-0.002800678,0.999928793,-0.002001185,-0.000011036,0.001932440,0.000000000,0.000000000,0.000000000,0.000000000,0.014815886,0.009074813,0.056355464,0.018680239,-0.002458356,-0.000781368,0.007005816,-0.000699923,-0.000064511,-0.112459851,0.168474476,-0.479809984,-0.000987543,-0.001466095,-0.004188552,0.999988675,0.000000000,0.000000000,0.000000000,0.000000000,0.000000000,0.000000000,-0.479951310,0.000000000,4.180645466
1772715841.790388823,0.014635000,0.009096000,0.056353000,-0.000333390,0.005207960,-0.006485790,0.999965350,-0.000734000,0.010411000,-0.012976000,-0.000074084,0.000144457,-0.000065187,0.009102423,-0.009334295,0.006153365,0.009901219,-0.000912910,0.997967273,-0.002134171,-0.000538519,0.001898633,0.000000000,0.000000000,0.000000000,0.000000000,0.014996752,0.009050697,0.056347949,0.019334918,-0.002529685,-0.000767104,0.006935547,0.000532802,-0.001182332,-0.112885975,0.168275163,-0.478279278,-0.000991234,-0.001464354,-0.004175198,0.999988735,0.000000000,0.000000000,0.000000000,0.000000000,0.000000000,0.000000000,-0.478413900,0.000000000,4.180645466
1772715841.800389051,0.014646000,0.009101000,0.056348000,-0.000151870,0.005211220,-0.006446990,0.999965630,-0.000371000,0.010420000,-0.012896000,-0.000007226,0.000151858,0.000114136,0.003105844,-0.003265711,0.004593772,0.009599156,-0.001942766,0.999109284,-0.002353581,-0.000381382,-0.001083329,0.000000000,0.000000000,0.000000000,0.000000000,0.014818689,0.009077083,0.056346284,0.015864766,-0.001568735,-0.000584749,0.005273907,-0.000457437,-0.001009907,-0.114835193,0.201502118,-0.480411614,-0.001009487,-0.001754221,-0.004194119,0.999988057,0.000000000,0.000000000,0.000000000,0.000000000,0.000000000,0.000000000,-0.478405535,0.000000000,4.180645466
1772715841.810389996,0.014626000,0.009098000,0.056359000,-0.000242260,0.005096700,-0.006405070,0.999966470,-0.000550000,0.010190000,-0.012813000,0.000037819,0.000087991,0.000377527,-0.002715418,0.006362336,0.002203142,0.010461475,-0.003915897,0.997780777,-0.001348951,0.001945990,-0.001118085,0.000000000,0.000000000,0.000000000,0.000000000,0.014743186,0.009088634,0.056357335,0.016127051,-0.001603776,-0.000692005,0.006935667,-0.002417802,-0.002543144,-0.115822932,0.206211437,-0.485378538,-0.001018356,-0.001795237,-0.004237520,0.999987900,0.000000000,0.000000000,0.000000000,0.000000000,0.000000000,0.000000000,-0.480471576,0.000000000,4.180645466
1772715841.820390701,0.014638000,0.009105000,0.056363000,-0.000315310,0.004970120,-0.006447180,0.999966820,-0.000695000,0.009936000,-0.012898000,0.000208790,0.000016239,0.000241170,-0.008745233,0.010537613,-0.000657317,0.009773470,-0.001271062,0.997820390,0.000070735,0.001060655,0.001410297,0.000000000,0.000000000,0.000000000,0.000000000,0.014777152,0.009086681,0.056349447,0.016681269,-0.001806425,-0.001008324,0.006647333,-0.000153761,-0.002653741,-0.116728368,0.205198954,-0.484428402,-0.001026205,-0.001786376,-0.004229234,0.999987900,0.000000000,0.000000000,0.000000000,0.000000000,0.000000000,0.000000000,-0.482537568,0.000000000,4.180645466
1772715841.830391645,0.014640000,0.009100000,0.056365000,-0.000388580,0.005193310,-0.006393600,0.999966000,-0.000844000,0.010381000,-0.012792000,0.000187132,0.000009829,-0.000042888,-0.006520600,0.009187850,-0.005089900,0.008301471,-0.001155152,0.997264230,0.000190383,-0.003162689,-0.002826314,0.000000000,0.000000000,0.000000000,0.000000000,0.014788289,0.009085981,0.056344257,0.016975103,-0.001718846,-0.001256463,0.005552143,0.001108560,-0.001900261,-0.117387564,0.204556333,-0.484057453,-0.001031928,-0.001780748,-0.004226001,0.999987953,0.000000000,0.000000000,0.000000000,0.000000000,0.000000000,0.000000000,-0.483893944,0.000000000,4.180645466
1772715841.840392351,0.014651000,0.009095000,0.056360000,-0.000464250,0.005296950,-0.006502110,0.999964720,-0.000997000,0.010588000,-0.013010000,-0.000108406,0.000008838,-0.000218094,-0.003340447,0.011481174,-0.007756394,0.009551763,-0.002401648,0.999760782,-0.000054116,0.003326891,-0.001248162,0.000000000,0.000000000,0.000000000,0.000000000,0.014788236,0.009082810,0.056345256,0.017058445,-0.001572675,-0.001445081,0.005466949,-0.000625782,-0.001057649,-0.118169240,0.204303454,-0.483753936,-0.001038736,-0.001778515,-0.004223362,0.999987928,0.000000000,0.000000000,0.000000000,0.000000000,0.000000000,0.000000000,-0.483161172,0.000000000,4.180645466
1772715841.850393295,0.014642000,0.009100000,0.056361000,-0.000302270,0.005408600,-0.006484790,0.999964300,-0.000675000,0.010813000,-0.012974000,-0.000338718,-0.000015539,-0.000267723,0.004283820,0.003944390,-0.006272300,0.011639337,-0.001852671,0.999968082,-0.001268548,-0.003149110,0.001204279,0.000000000,0.000000000,0.000000000,0.000000000,0.014796209,0.009081417,0.056344309,0.017246604,-0.001567093,-0.001432672,0.008171140,0.000056984,-0.000720591,-0.117680423,0.203131354,-0.481675631,-0.001034395,-0.001768323,-0.004205208,0.999988056,0.000000000,0.000000000,0.000000000,0.000000000,0.000000000,0.000000000,-0.482428383,0.000000000,4.180645466
1772715841.860394001,0.014631000,0.009104000,0.056347000,-0.000327650,0.005300080,-0.006542490,0.999964500,-0.000725000,0.010596000,-0.013089000,-0.000591056,-0.000070257,-0.000153489,0.005329573,-0.006462623,-0.003502068,0.009969682,-0.001394078,1.000742765,0.001059272,0.001487339,0.000820898,0.000000000,0.000000000,0.000000000,0.000000000,0.014808810,0.009081727,0.056343225,0.017625125,-0.001512002,-0.001373677,0.006362717,0.000820309,0.000722664,-0.118381853,0.203517016,-0.481506439,-0.001040527,-0.001771664,-0.004203746,0.999988021,0.000000000,0.000000000,0.000000000,0.000000000,0.000000000,0.000000000,-0.481650921,0.000000000,4.180645466
1772715841.870394707,0.014632000,0.009102000,0.056352000,-0.000280650,0.005148370,-0.006593060,0.999964970,-0.000629000,0.010293000,-0.013190000,-0.000173710,-0.000056349,-0.000029175,0.006152907,-0.016594423,-0.000845267,0.008130735,-0.002349508,0.998811232,0.000791411,0.002065358,0.001059288,0.000000000,0.000000000,0.000000000,0.000000000,0.014806812,0.009083209,0.056344963,0.017789547,-0.001376974,-0.001196552,0.004243150,-0.000480301,-0.000688918,-0.117878473,0.201066697,-0.480477461,-0.001036029,-0.001750309,-0.004194737,0.999988139,0.000000000,0.000000000,0.000000000,0.000000000,0.000000000,0.000000000,-0.480525036,0.000000000,4.180645466
1772715841.880395889,0.014620000,0.009096000,0.056360000,-0.000346150,0.005161660,-0.006524970,0.999965330,-0.000760000,0.010319000,-0.013054000,0.000111358,-0.000192551,0.000108212,0.008284017,-0.014450199,0.004577324,0.007870148,-0.003047578,1.000169031,0.000034402,0.001481287,-0.001126119,0.000000000,0.000000000,0.000000000,0.000000000,0.014803960,0.009091525,0.056345356,0.017729144,-0.001346259,-0.001234456,0.003987215,-0.001046831,0.000826825,-0.118096208,0.198798967,-0.479848171,-0.001037837,-0.001730518,-0.004189228,0.999988162,0.000000000,0.000000000,0.000000000,0.000000000,0.000000000,0.000000000,-0.479925045,0.000000000,4.180645466
1772715841.890395880,0.014629000,0.009095000,0.056359000,-0.000243660,0.005030020,-0.006480910,0.999966320,-0.000553000,0.010057000,-0.012965000,0.000376439,-0.000084631,0.000138824,0.005735917,-0.012409758,0.006627031,0.010460206,-0.002888685,1.001869107,0.000457357,0.003273682,-0.000156347,0.000000000,0.000000000,0.000000000,0.000000000,0.014799710,0.009091717,0.056345008,0.017577502,-0.001408684,-0.001173510,0.007435465,-0.000549275,0.001461714,-0.118383288,0.197385950,-0.479660006,-0.001040288,-0.001718178,-0.004187578,0.999988221,0.000000000,0.000000000,0.000000000,0.000000000,0.000000000,0.000000000,-0.479653793,0.000000000,4.180645466
1772715841.900396109,0.014642000,0.009097000,0.056354000,-0.000259030,0.005077390,-0.006493270,0.999965990,-0.000584000,0.010151000,-0.012990000,0.000137931,0.000165901,0.000105104,0.001294093,-0.007227893,0.007101686,0.010060989,-0.004780417,0.999456552,-0.001656569,0.002145531,0.004288490,0.000000000,0.000000000,0.000000000,0.000000000,0.014806651,0.009089050,0.056346289,0.017747938,-0.001445261,-0.000912712,0.006299043,-0.002616639,-0.000967713,-0.118645638,0.195768678,-0.479170815,-0.001042511,-0.001704060,-0.004183299,0.999988277,0.000000000,0.000000000,0.000000000,0.000000000,0.000000000,0.000000000,-0.479276770,0.000000000,4.180645466
1772715841.910396338,0.014650000,0.009097000,0.056357000,-0.000162830,0.004986250,-0.006447500,0.999966770,-0.000390000,0.009970000,-0.012897000,-0.000136590,0.000302589,-0.000073501,-0.006732533,-0.003189272,0.004269538,0.009270161,-0.005463616,0.998749813,-0.004391816,-0.003578031,0.001346573,0.000000000,0.000000000,0.000000000,0.000000000,0.014816216,0.009087214,0.056348664,0.017924482,-0.001623515,-0.000880814,0.005644560,-0.002004996,-0.000642448,-0.119449558,0.195315203,-0.478854358,-0.001049505,-0.001700076,-0.004180545,0.999988314,0.000000000,0.000000000,0.000000000,0.000000000,0.000000000,0.000000000,-0.478845940,0.000000000,4.180645466
1772715841.920396328,0.014629000,0.009099000,0.056359000,-0.000168300,0.005033840,-0.006385690,0.999966930,-0.000401000,0.010065000,-0.012774000,-0.000025679,0.000277745,-0.000088419,-0.010526966,0.003449807,0.002842329,0.009071791,-0.004769052,0.998906073,-0.003659236,-0.001880205,-0.000048670,0.000000000,0.000000000,0.000000000,0.000000000,0.014815539,0.009086645,0.056349453,0.017927176,-0.001672842,-0.000890774,0.005570042,-0.001448187,-0.000557023,-0.119903577,0.195292521,-0.479018790,-0.001053468,-0.001699860,-0.004181986,0.999988304,0.000000000,0.000000000,0.000000000,0.000000000,0.000000000,0.000000000,-0.478993478,0.000000000,4.180645466
1772715841.930396318,0.014629000,0.009113000,0.056357000,-0.000404440,0.004940690,-0.006409700,0.999967170,-0.000872000,0.009876000,-0.012824000,-0.000100617,0.000100209,0.000155976,-0.011483898,0.008408862,0.003077543,0.008873420,-0.004074487,0.999062333,-0.002926657,-0.000182380,-0.001443913,0.000000000,0.000000000,0.000000000,0.000000000,0.014814861,0.009086076,0.056350242,0.017929870,-0.001722168,-0.000900735,0.005393802,-0.001238414,-0.000857683,-0.120033497,0.194995451,-0.479222747,-0.001054594,-0.001697261,-0.004183765,0.999988293,0.000000000,0.000000000,0.000000000,0.000000000,0.000000000,0.000000000,-0.479197585,0.000000000,4.180645466
1772715841.940396070,0.014622000,0.009106000,0.056356000,-0.000486400,0.005079120,-0.006441520,0.999966240,-0.001038000,0.010152000,-0.012889000,0.000097898,-0.000072355,0.000128898,-0.003958107,0.012395757,0.001199028,0.008675055,-0.003379939,0.999218588,-0.002194094,0.001515405,-0.002839123,0.000000000,0.000000000,0.000000000,0.000000000,0.014814184,0.009085507,0.056351030,0.017932563,-0.001771493,-0.000910695,0.005217567,-0.001028645,-0.001158335,-0.120163413,0.194698389,-0.479426699,-0.001055720,-0.001694662,-0.004185544,0.999988283,0.000000000,0.000000000,0.000000000,0.000000000,0.000000000,0.000000000,-0.479401687,0.000000000,4.180645466
1772715841.950397015,0.014640000,0.009100000,0.056357000,-0.000409520,0.005187000,-0.006403120,0.999965960,-0.000885000,0.010369000,-0.012811000,0.000258205,-0.000198883,-0.000091857,0.004049986,0.014173079,-0.001330319,0.008476665,-0.002685309,0.999374863,-0.001461445,0.003213393,-0.004234499,0.000000000,0.000000000,0.000000000,0.000000000,0.014813506,0.009084938,0.056351819,0.017935257,-0.001820824,-0.000920656,0.005041310,-0.000818851,-0.001459024,-0.120293345,0.194401291,-0.479630675,-0.001056846,-0.001692063,-0.004187323,0.999988273,0.000000000,0.000000000,0.000000000,0.000000000,0.000000000,0.000000000,-0.479605813,0.000000000,4.180645466
1772715841.960397482,0.014653000,0.009100000,0.056359000,-0.000305110,0.005268680,-0.006352080,0.999965900,-0.000677000,0.010533000,-0.012708000,0.000217667,-0.000208867,-0.000215880,0.012108751,0.008627258,-0.000313736,0.008278286,-0.001990711,0.999531130,-0.000728830,0.004911299,-0.005629809,0.000000000,0.000000000,0.000000000,0.000000000,0.014812829,0.009084369,0.056352608,0.017937951,-0.001870153,-0.000930616,0.004865061,-0.000609068,-0.001759698,-0.120423270,0.194104208,-0.479834642,-0.001057972,-0.001689464,-0.004189103,0.999988262,0.000000000,0.000000000,0.000000000,0.000000000,0.000000000,0.000000000,-0.479809930,0.000000000,4.180645466
1772715841.970397949,0.014634000,0.009098000,0.056366000,-0.000254060,0.005187770,-0.006409990,0.999965970,-0.000575000,0.010372000,-0.012823000,-0.000010897,-0.000116817,-0.000252358,0.011833127,0.004390103,0.000546442,0.008394169,-0.002198870,0.998899547,-0.000575932,0.003105818,-0.004386155,0.000000000,0.000000000,0.000000000,0.000000000,0.014812327,0.009083588,0.056351773,0.017930754,-0.001900797,-0.000946807,0.004688813,-0.000399284,-0.002060373,-0.120553196,0.193807124,-0.480038608,-0.001059098,-0.001686864,-0.004190882,0.999988231,0.000000000,0.000000000,0.000000000,0.000000000,0.000000000,0.000000000,-0.480014047,0.000000000,4.180645466
1772715841.980398655,0.014638000,0.009099000,0.056346000,-0.000186130,0.005308830,-0.006454400,0.999965060,-0.000441000,0.010615000,-0.012911000,-0.000212869,0.000088127,-0.000095761,0.002979113,-0.005026605,-0.000869045,0.008854668,-0.003155866,0.997984018,-0.001236598,-0.001732187,-0.000489602,0.000000000,0.000000000,0.000000000,0.000000000,0.014812458,0.009082037,0.056345065,0.017887804,-0.001863910,-0.000985514,0.005083854,-0.000749567,-0.000970483,-0.120657298,0.193768875,-0.479797808,-0.001060002,-0.001686529,-0.004188782,0.999988215,0.000000000,0.000000000,0.000000000,0.000000000,0.000000000,0.000000000,-0.479862231,0.000000000,4.180645466
1772715841.990399122,0.014631000,0.009100000,0.056345000,-0.000236160,0.005185160,-0.006417540,0.999965940,-0.000539000,0.010367000,-0.012838000,-0.000131657,0.000060137,0.000015170,-0.005616726,-0.006902748,-0.003816698,0.009123083,-0.002461627,1.000473167,-0.002033640,-0.001014848,0.000831235,0.000000000,0.000000000,0.000000000,0.000000000,0.014808726,0.009081939,0.056339594,0.017848647,-0.001915611,-0.001156434,0.005987462,-0.000389831,0.000438950,-0.121108160,0.193566800,-0.479163129,-0.001063919,-0.001684755,-0.004183248,0.999988273,0.000000000,0.000000000,0.000000000,0.000000000,0.000000000,0.000000000,-0.479232563,0.000000000,4.180645466
1772715842.000399828,0.014634000,0.009103000,0.056353000,-0.000286190,0.005147480,-0.006381550,0.999966350,-0.000638000,0.010291000,-0.012767000,0.000101141,0.000008216,0.000201583,-0.008854983,-0.006737916,-0.002843276,0.008664647,-0.001715860,1.000958502,0.001016000,-0.000439760,-0.000416926,0.000000000,0.000000000,0.000000000,0.000000000,0.014809110,0.009083114,0.056341542,0.017883279,-0.001882325,-0.001029785,0.005273873,0.000427032,0.000828657,-0.120994256,0.192753586,-0.479225662,-0.001062897,-0.001677662,-0.004183785,0.999988293,0.000000000,0.000000000,0.000000000,0.000000000,0.000000000,0.000000000,-0.479159737,0.000000000,4.180645466
1772715842.010400295,0.014642000,0.009100000,0.056359000,-0.000366610,0.005183430,-0.006453100,0.999965680,-0.000800000,0.010362000,-0.012911000,0.000197971,0.000009110,0.000229340,-0.013080279,-0.006015770,-0.002899995,0.008616686,-0.002096967,0.999559091,-0.000420614,-0.000534190,0.000950302,0.000000000,0.000000000,0.000000000,0.000000000,0.014812203,0.009082786,0.056346699,0.017886613,-0.001786173,-0.000852742,0.005518879,-0.000667492,-0.000349372,-0.120628557,0.191796769,-0.478772420,-0.001059664,-0.001669330,-0.004179815,0.999988286,0.000000000,0.000000000,0.000000000,0.000000000,0.000000000,0.000000000,-0.478874477,0.000000000,4.180645466
1772715842.020400286,0.014635000,0.009100000,0.056366000,-0.000386080,0.005059300,-0.006488530,0.999966080,-0.000838000,0.010113000,-0.012982000,-0.000177789,0.000054252,0.000219240,-0.012633838,-0.007339870,-0.006061268,0.008517545,-0.003347156,0.998916926,0.001607634,-0.001626057,0.000089031,0.000000000,0.000000000,0.000000000,0.000000000,0.014811584,0.009082794,0.056351816,0.017861071,-0.001723491,-0.000798037,0.004741272,-0.000908631,-0.001542640,-0.119835064,0.191967959,-0.478573498,-0.001052743,-0.001670855,-0.004178069,0.999988317,0.000000000,0.000000000,0.000000000,0.000000000,0.000000000,0.000000000,-0.478557581,0.000000000,4.180645466
1772715842.030401230,0.014647000,0.009099000,0.056356000,-0.000433080,0.005142100,-0.006525420,0.999965390,-0.000933000,0.010278000,-0.013056000,-0.000189929,0.000059710,-0.000033254,-0.006317680,-0.000335380,-0.006861646,0.008296491,-0.003179750,1.000544779,-0.000535287,0.001630593,0.002757279,0.000000000,0.000000000,0.000000000,0.000000000,0.014814485,0.009082593,0.056350265,0.017824373,-0.001797667,-0.000884837,0.005579372,-0.001228680,0.000226919,-0.119420696,0.191971227,-0.477665173,-0.001049114,-0.001670906,-0.004170136,0.999988345,0.000000000,0.000000000,0.000000000,0.000000000,0.000000000,0.000000000,-0.477828550,0.000000000,4.180645466
1772715842.040401936,0.014629000,0.009102000,0.056360000,-0.000453090,0.005086590,-0.006478910,0.999965970,-0.000972000,0.010167000,-0.012963000,-0.000243578,0.000032652,0.000090380,0.001210355,0.005167492,-0.005756851,0.007117125,-0.002342914,0.999882387,-0.000999971,0.003604530,0.001430958,0.000000000,0.000000000,0.000000000,0.000000000,0.014807879,0.009083627,0.056350391,0.017749580,-0.001851268,-0.000824155,0.003598625,-0.000385757,0.000256443,-0.119834248,0.190603174,-0.477557140,-0.001052671,-0.001658954,-0.004169187,0.999988377,0.000000000,0.000000000,0.000000000,0.000000000,0.000000000,0.000000000,-0.477506468,0.000000000,4.180645466
1772715842.050402641,0.014628000,0.009104000,0.056353000,-0.000571250,0.005080820,-0.006584540,0.999965250,-0.001209000,0.010154000,-0.013175000,-0.000000622,0.000057690,0.000150304,0.005372165,0.007610267,-0.005223979,0.008646895,-0.000703215,0.998816887,-0.001496108,0.002898302,0.001204409,0.000000000,0.000000000,0.000000000,0.000000000,0.014803249,0.009085070,0.056349437,0.017575472,-0.001839623,-0.000771373,0.005336318,0.001231084,-0.001260251,-0.120085343,0.190051129,-0.477041767,-0.001054835,-0.001654132,-0.004164688,0.999988377,0.000000000,0.000000000,0.000000000,0.000000000,0.000000000,0.000000000,-0.477143918,0.000000000,4.180645466
1772715842.060403109,0.014625000,0.009105000,0.056363000,-0.000391170,0.005119570,-0.006610220,0.999964970,-0.000850000,0.010234000,-0.013225000,0.000096188,-0.000035973,0.000301035,0.007273879,0.006447792,-0.005779120,0.009737851,-0.001623913,0.999939647,-0.001449798,0.004687049,-0.001377075,0.000000000,0.000000000,0.000000000,0.000000000,0.014801377,0.009085803,0.056352922,0.017505169,-0.001687882,-0.000805887,0.005417543,-0.000149193,0.000350939,-0.120932944,0.187561914,-0.476323504,-0.001062131,-0.001632386,-0.004158410,0.999988436,0.000000000,0.000000000,0.000000000,0.000000000,0.000000000,0.000000000,-0.476416674,0.000000000,4.180645466
1772715842.070403576,0.014643000,0.009099000,0.056368000,-0.000303930,0.005297330,-0.006579100,0.999964280,-0.000678000,0.010590000,-0.013162000,0.000081387,-0.000046793,0.000317371,0.006566504,-0.003516268,-0.005735440,0.009162824,-0.002572580,1.000809485,0.000575815,0.002197864,-0.001017326,0.000000000,0.000000000,0.000000000,0.000000000,0.014806980,0.009084349,0.056357175,0.017595295,-0.001589754,-0.000781452,0.006550245,-0.000689774,-0.000343412,-0.120857169,0.186943869,-0.476033579,-0.001061443,-0.001626998,-0.004155873,0.999988496,0.000000000,0.000000000,0.000000000,0.000000000,0.000000000,0.000000000,-0.476059531,0.000000000,4.180645466
1772715842.080403566,0.014637000,0.009100000,0.056376000,-0.000302660,0.005249640,-0.006643190,0.999964110,-0.000675000,0.010495000,-0.013290000,0.000262497,-0.000041335,0.000022765,0.004425036,-0.003606521,-0.003201553,0.007905345,-0.002106723,1.000177456,-0.001152187,0.003369720,0.000796925,0.000000000,0.000000000,0.000000000,0.000000000,0.014808142,0.009084652,0.056361986,0.017632913,-0.001624903,-0.000657112,0.004541308,-0.000489909,0.000835149,-0.121239565,0.185938502,-0.475666778,-0.001064739,-0.001618214,-0.004152669,0.999988496,0.000000000,0.000000000,0.000000000,0.000000000,0.000000000,0.000000000,-0.475721868,0.000000000,4.180645466
1772715842.090404272,0.014642000,0.009103000,0.056360000,-0.000390220,0.005085370,-0.006665080,0.999964780,-0.000848000,0.010165000,-0.013335000,0.000016744,-0.000061749,-0.000135911,0.003203697,-0.007988682,0.004490796,0.005726247,-0.003531971,0.999104068,0.001338060,0.000117768,0.000666801,0.000000000,0.000000000,0.000000000,0.000000000,0.014809314,0.009085818,0.056358716,0.017591928,-0.001571325,-0.000626233,0.002773254,-0.000423033,-0.000925340,-0.121357962,0.185548377,-0.475475385,-0.001065755,-0.001614807,-0.004150997,0.999988496,0.000000000,0.000000000,0.000000000,0.000000000,0.000000000,0.000000000,-0.475481455,0.000000000,4.180645466
1772715842.100405216,0.014627000,0.009099000,0.056369000,-0.000346720,0.005032050,-0.006632180,0.999965290,-0.000760000,0.010059000,-0.013268000,-0.000053688,0.000096752,-0.000409091,-0.001769244,-0.004295395,0.006759138,0.006222515,-0.002780854,0.998562514,0.002629347,0.001912180,0.001566127,0.000000000,0.000000000,0.000000000,0.000000000,0.014804023,0.009085271,0.056359580,0.017268087,-0.001639145,-0.000643946,0.002704373,-0.000628649,-0.001697868,-0.119958864,0.183767191,-0.475382643,-0.001053480,-0.001599315,-0.004150151,0.999988528,0.000000000,0.000000000,0.000000000,0.000000000,0.000000000,0.000000000,-0.475394136,0.000000000,4.180645466
1772715842.110405922,0.014637000,0.009104000,0.056359000,-0.000361280,0.004994220,-0.006612350,0.999965600,-0.000789000,0.009983000,-0.013229000,0.000045142,0.000026650,-0.000348158,-0.000732478,0.003576839,0.005257274,0.007569568,-0.002848537,0.999820214,0.000667344,-0.002226667,0.002417757,0.000000000,0.000000000,0.000000000,0.000000000,0.014804948,0.009086194,0.056354938,0.017020712,-0.001644855,-0.000789075,0.005567857,-0.000954348,0.000322944,-0.119053293,0.184186055,-0.473762433,-0.001045570,-0.001603018,-0.004136003,0.999988592,0.000000000,0.000000000,0.000000000,0.000000000,0.000000000,0.000000000,-0.473990171,0.000000000,4.180645466
1772715842.120406628,0.014643000,0.009101000,0.056355000,-0.000295050,0.005259180,-0.006518090,0.999964880,-0.000659000,0.010514000,-0.013040000,0.000255952,-0.000091235,-0.000109960,-0.000923074,0.012885411,0.002239720,0.009182244,-0.002647306,1.000060665,0.001236270,-0.001785737,-0.000566399,0.000000000,0.000000000,0.000000000,0.000000000,0.014805171,0.009085310,0.056352092,0.016914545,-0.001679097,-0.000786687,0.006459896,-0.001058102,-0.000407391,-0.118340072,0.184505130,-0.472652707,-0.001039342,-0.001605838,-0.004126312,0.999988644,0.000000000,0.000000000,0.000000000,0.000000000,0.000000000,0.000000000,-0.472759604,0.000000000,4.180645466
1772715842.130407095,0.014634000,0.009099000,0.056360000,-0.000292640,0.005113840,-0.006458190,0.999966030,-0.000651000,0.010224000,-0.012920000,0.000157996,0.000000991,0.000163609,-0.001687341,0.008758850,-0.004256923,0.009319144,-0.003045707,1.000910570,0.001650761,-0.001253939,-0.002165531,0.000000000,0.000000000,0.000000000,0.000000000,0.014802592,0.009084461,0.056352278,0.016956154,-0.001684166,-0.000762341,0.006039180,-0.000377513,0.001090863,-0.117534857,0.184838257,-0.471957802,-0.001032317,-0.001608780,-0.004120240,0.999988675,0.000000000,0.000000000,0.000000000,0.000000000,0.000000000,0.000000000,-0.472013555,0.000000000,4.180645466
1772715842.140408278,0.014644000,0.009108000,0.056354000,-0.000421500,0.005330740,-0.006620780,0.999963780,-0.000914000,0.010656000,-0.013247000,-0.000080824,0.000060623,0.000108056,-0.003957403,0.001144561,-0.008812044,0.008503020,-0.002963100,1.001182040,-0.000497729,-0.001481112,-0.002378154,0.000000000,0.000000000,0.000000000,0.000000000,0.014806201,0.009087692,0.056349804,0.017067402,-0.001702473,-0.000677127,0.005710911,-0.000923995,0.001131316,-0.117108441,0.185834626,-0.471580144,-0.001028627,-0.001617494,-0.004116947,0.999988675,0.000000000,0.000000000,0.000000000,0.000000000,0.000000000,0.000000000,-0.471620209,0.000000000,4.180645466
1772715842.150408745,0.014645000,0.009093000,0.056364000,-0.000388310,0.005255780,-0.006699530,0.999963670,-0.000847000,0.010506000,-0.013404000,-0.000470161,0.000187326,0.000012898,-0.005136920,-0.003123447,-0.007901283,0.008780802,-0.003032658,1.000414330,-0.000594708,0.002011915,0.000926960,0.000000000,0.000000000,0.000000000,0.000000000,0.014808467,0.009081866,0.056354053,0.017088989,-0.001744539,-0.000503869,0.005219656,-0.000822430,0.000117476,-0.117171702,0.185889866,-0.470872677,-0.001029171,-0.001617980,-0.004110775,0.999988686,0.000000000,0.000000000,0.000000000,0.000000000,0.000000000,0.000000000,-0.471045171,0.000000000,4.180645466
1772715842.160409689,0.014634000,0.009104000,0.056366000,-0.000411450,0.005187030,-0.006680330,0.999964150,-0.000892000,0.010368000,-0.013366000,-0.000439801,0.000165124,-0.000190939,-0.005725125,-0.000656334,-0.004835026,0.007998308,-0.002924121,0.997825843,-0.001006054,-0.001197141,0.000654620,0.000000000,0.000000000,0.000000000,0.000000000,0.014805056,0.009084015,0.056357710,0.017093234,-0.001772003,-0.000410499,0.005341604,-0.000121848,-0.000953741,-0.117335466,0.185003492,-0.469839649,-0.001030553,-0.001610248,-0.004101755,0.999988741,0.000000000,0.000000000,0.000000000,0.000000000,0.000000000,0.000000000,-0.469943248,0.000000000,4.180645466
1772715842.170409918,0.014627000,0.009111000,0.056360000,-0.000393830,0.005050840,-0.006697630,0.999964740,-0.000855000,0.010096000,-0.013400000,-0.000147118,0.000029894,-0.000216870,-0.003450275,0.004022741,0.002113910,0.010553505,-0.001754031,0.998904397,0.001371596,0.002757335,0.002154403,0.000000000,0.000000000,0.000000000,0.000000000,0.014799805,0.009088121,0.056357005,0.017056033,-0.001762825,-0.000521596,0.006674120,-0.000148896,-0.001133663,-0.117072961,0.184301269,-0.468745961,-0.001028222,-0.001604140,-0.004092201,0.999988796,0.000000000,0.000000000,0.000000000,0.000000000,0.000000000,0.000000000,-0.468932594,0.000000000,4.180645466
1772715842.180410862,0.014622000,0.009105000,0.056350000,-0.000449280,0.005247440,-0.006643240,0.999964060,-0.000968000,0.010489000,-0.013292000,0.000013966,-0.000033021,-0.000120041,-0.001525373,0.000576576,0.007789476,0.008478055,-0.002142514,0.999809533,-0.002017356,0.005242077,0.002193532,0.000000000,0.000000000,0.000000000,0.000000000,0.014794734,0.009088883,0.056351698,0.017186862,-0.001699331,-0.000629431,0.006774336,-0.000465775,0.000028630,-0.116927915,0.181962953,-0.467278775,-0.001026853,-0.001583752,-0.004079374,0.999988862,0.000000000,0.000000000,0.000000000,0.000000000,0.000000000,0.000000000,-0.467485634,0.000000000,4.180645466
1772715842.190411568,0.014629000,0.009110000,0.056347000,-0.000495080,0.005315800,-0.006582980,0.999964080,-0.001060000,0.010625000,-0.013172000,0.000405925,0.000002914,-0.000057709,-0.002988767,0.003624543,0.006882156,0.008463177,-0.002919587,1.000731932,0.000413670,0.000315548,-0.001622986,0.000000000,0.000000000,0.000000000,0.000000000,0.014927413,0.009075816,0.056345534,0.017651122,-0.001716794,-0.000651462,0.005253522,-0.000924493,0.000874597,-0.117339960,0.179240588,-0.466439042,-0.001030340,-0.001559988,-0.004072028,0.999988973,0.000000000,0.000000000,0.000000000,0.000000000,0.000000000,0.000000000,-0.466385501,0.000000000,4.180645466
1772715842.200412273,0.014641000,0.009096000,0.056358000,-0.000464980,0.005344260,-0.006610030,0.999963760,-0.001001000,0.010682000,-0.013226000,0.000446424,-0.000112213,-0.000044442,-0.002012715,-0.000040320,0.005840401,0.007914412,-0.004069509,1.000223545,0.001620290,0.004095191,-0.002487957,0.000000000,0.000000000,0.000000000,0.000000000,0.015101224,0.009058786,0.056339545,0.018177871,-0.001792600,-0.000585448,0.004900828,-0.001579001,0.000350559,-0.116758949,0.178157625,-0.466472330,-0.001025232,-0.001550558,-0.004072301,0.999988973,0.000000000,0.000000000,0.000000000,0.000000000,0.000000000,0.000000000,-0.466600885,0.000000000,4.180645466
1772715842.210412741,0.014647000,0.009103000,0.056361000,-0.000445080,0.005147070,-0.006547250,0.999965220,-0.000958000,0.010288000,-0.013100000,0.000193134,0.000076298,-0.000021095,0.001952480,-0.006550827,0.002798951,0.009418670,-0.002916703,1.000367775,0.000778824,-0.002182887,0.000169274,0.000000000,0.000000000,0.000000000,0.000000000,0.015285439,0.009040046,0.056333899,0.018664034,-0.001955205,-0.000543483,0.006045512,-0.000757486,0.000321810,-0.115800735,0.176660492,-0.465702321,-0.001016807,-0.001537534,-0.004065555,0.999989032,0.000000000,0.000000000,0.000000000,0.000000000,0.000000000,0.000000000,-0.465745337,0.000000000,4.180645466
1772715842.220413446,0.014637000,0.009108000,0.056356000,-0.000445080,0.005128750,-0.006537030,0.999965380,-0.000957000,0.010252000,-0.013079000,-0.000077269,0.000162755,-0.000020182,0.005016338,-0.013940648,0.001334544,0.010370210,-0.001737918,0.999436476,0.000063175,0.000751843,-0.001641306,0.000000000,0.000000000,0.000000000,0.000000000,0.014935565,0.009076198,0.056344709,0.016093073,-0.001649415,-0.000412028,0.007678757,-0.000405717,-0.000543043,-0.115764607,0.183873376,-0.465737755,-0.001016748,-0.001600479,-0.004065928,0.999988595,0.000000000,0.000000000,0.000000000,0.000000000,0.000000000,0.000000000,-0.465463098,0.000000000,4.180645466
1772715842.230413914,0.014642000,0.009108000,0.056351000,-0.000479030,0.005197520,-0.006544090,0.999964970,-0.001026000,0.010389000,-0.013094000,-0.000271666,0.000085835,-0.000162696,0.003837726,-0.004178347,0.005054356,0.011041810,-0.001543838,0.999411547,0.001585283,0.002070921,-0.001081558,0.000000000,0.000000000,0.000000000,0.000000000,0.014706123,0.009100490,0.056351380,0.014878234,-0.001407750,-0.000372567,0.006947072,0.000897671,-0.000753313,-0.116021444,0.210449729,-0.467036148,-0.001019952,-0.001832379,-0.004077495,0.999988496,0.000000000,0.000000000,0.000000000,0.000000000,0.000000000,0.000000000,-0.465844758,0.000000000,4.180645466
1772715842.240414619,0.014629000,0.009107000,0.056343000,-0.000420210,0.005114200,-0.006521130,0.999965570,-0.000907000,0.010223000,-0.013047000,-0.000224659,-0.000123654,-0.000016841,0.001930710,0.004706369,0.005261355,0.009995400,-0.001000621,1.000664610,-0.000730192,-0.001125004,0.002156627,0.000000000,0.000000000,0.000000000,0.000000000,0.014744171,0.009094821,0.056352128,0.015530290,-0.001341414,-0.000418316,0.006011288,0.000977522,-0.000193205,-0.115493420,0.209628975,-0.467163929,-0.001015317,-0.001825234,-0.004078594,0.999988496,0.000000000,0.000000000,0.000000000,0.000000000,0.000000000,0.000000000,-0.466226428,0.000000000,4.180645466
1772715842.250415087,0.014633000,0.009108000,0.056357000,-0.000321570,0.005081120,-0.006559940,0.999965520,-0.000710000,0.010158000,-0.013124000,0.000084281,-0.000363231,0.000249367,0.002923286,0.008051809,0.000679487,0.008948457,-0.002916178,1.000050482,-0.000934401,-0.001023772,0.000240822,0.000000000,0.000000000,0.000000000,0.000000000,0.014766452,0.009090508,0.056352206,0.015867888,-0.001247257,-0.000385926,0.005114793,-0.000510929,0.000971273,-0.115393893,0.210017183,-0.466574607,-0.001014453,-0.001828630,-0.004073453,0.999988545,0.000000000,0.000000000,0.000000000,0.000000000,0.000000000,0.000000000,-0.466596206,0.000000000,4.180645466
1772715842.260416031,0.014637000,0.009100000,0.056359000,-0.000407620,0.005132530,-0.006431160,0.999966060,-0.000881000,0.010260000,-0.012867000,0.000100831,-0.000209470,0.000372147,0.001937266,0.000136012,-0.000211343,0.009578178,-0.003018115,1.000401412,-0.001246953,0.001116584,0.001946622,0.000000000,0.000000000,0.000000000,0.000000000,0.014779723,0.009086753,0.056355354,0.016071499,-0.001265588,-0.000326597,0.005718999,-0.000943247,0.000326863,-0.114898883,0.209488813,-0.466377640,-0.001010111,-0.001824039,-0.004071722,0.999988556,0.000000000,0.000000000,0.000000000,0.000000000,0.000000000,0.000000000,-0.466410865,0.000000000,4.180645466
1772715842.270416737,0.014637000,0.009098000,0.056355000,-0.000426920,0.005384990,-0.006409590,0.999964870,-0.000923000,0.010764000,-0.012824000,-0.000122391,0.000005206,0.000288040,0.002384860,-0.004074983,-0.001997870,0.010185293,-0.002247901,1.000102628,-0.001868688,-0.000110742,0.000449626,0.000000000,0.000000000,0.000000000,0.000000000,0.014787945,0.009086866,0.056358117,0.016266966,-0.001332982,-0.000254736,0.006972942,-0.000038204,-0.000282685,-0.115188488,0.209263390,-0.465684485,-0.001012619,-0.001822068,-0.004065675,0.999988556,0.000000000,0.000000000,0.000000000,0.000000000,0.000000000,0.000000000,-0.465779994,0.000000000,4.180645466
1772715842.280417204,0.014638000,0.009093000,0.056368000,-0.000378330,0.005175300,-0.006593840,0.999964800,-0.000825000,0.010345000,-0.013192000,-0.000158578,0.000082378,-0.000014277,-0.000716441,-0.000555492,-0.006111615,0.009825949,-0.003471770,0.999002965,0.000789581,-0.000834383,0.002744301,0.000000000,0.000000000,0.000000000,0.000000000,0.014788595,0.009091115,0.056357320,0.016496935,-0.001325279,-0.000230594,0.006553812,-0.001069159,-0.000924465,-0.115587531,0.209701323,-0.465817343,-0.001016119,-0.001825874,-0.004066845,0.999988556,0.000000000,0.000000000,0.000000000,0.000000000,0.000000000,0.000000000,-0.465799683,0.000000000,4.180645466
1772715842.290417910,0.014638000,0.009106000,0.056360000,-0.000330390,0.005060700,-0.006611540,0.999965280,-0.000728000,0.010117000,-0.013227000,-0.000362978,0.000252028,-0.000280484,0.000320318,-0.004472782,-0.007278136,0.009699889,-0.005208612,0.998926862,0.002322549,0.000401253,0.002656739,0.000000000,0.000000000,0.000000000,0.000000000,0.014786096,0.009093051,0.056355737,0.016689432,-0.001384513,-0.000303650,0.005805401,-0.003620750,-0.001180230,-0.114463492,0.209423571,-0.463586226,-0.001006265,-0.001823509,-0.004047354,0.999988598,0.000000000,0.000000000,0.000000000,0.000000000,0.000000000,0.000000000,-0.463905592,0.000000000,4.180645466
1772715842.300418615,0.014619000,0.009111000,0.056358000,-0.000390070,0.004985350,-0.006516300,0.999966270,-0.000845000,0.009965000,-0.013037000,-0.000329744,0.000227340,-0.000128413,0.003597573,-0.009133213,-0.006752758,0.010056606,-0.004838520,0.998567867,-0.000987558,0.000246715,0.000365186,0.000000000,0.000000000,0.000000000,0.000000000,0.014788203,0.009091299,0.056353175,0.016844085,-0.001605880,-0.000402628,0.006141865,-0.003966342,-0.001203440,-0.113622226,0.208278162,-0.462815046,-0.000998871,-0.001813550,-0.004040601,0.999988652,0.000000000,0.000000000,0.000000000,0.000000000,0.000000000,0.000000000,-0.462910923,0.000000000,4.180645466
1772715842.310419083,0.014624000,0.009105000,0.056355000,-0.000327510,0.005155580,-0.006601120,0.999964870,-0.000723000,0.010307000,-0.013206000,0.000091119,-0.000020376,0.000063109,0.001310521,-0.008354046,-0.000421459,0.010586098,-0.002962979,0.999071750,-0.002161497,0.000134901,-0.000419407,0.000000000,0.000000000,0.000000000,0.000000000,0.014792049,0.009088961,0.056351200,0.017005992,-0.001870404,-0.000489110,0.006784972,-0.000845720,-0.000817076,-0.113913772,0.207760250,-0.462021970,-0.001001384,-0.001809028,-0.004033681,0.999988703,0.000000000,0.000000000,0.000000000,0.000000000,0.000000000,0.000000000,-0.462131129,0.000000000,4.180645466
1772715842.320419550,0.014632000,0.009101000,0.056351000,-0.000430490,0.005218140,-0.006659010,0.999964120,-0.000931000,0.010430000,-0.013323000,0.000225766,-0.000176934,0.000180897,-0.001138598,-0.003667151,0.002811838,0.011082001,-0.001445286,1.001250294,0.001755092,0.001526601,-0.001476651,0.000000000,0.000000000,0.000000000,0.000000000,0.014792951,0.009089565,0.056353225,0.017166659,-0.001983871,-0.000589128,0.007025566,0.000090895,0.001178484,-0.113321471,0.206911574,-0.461698863,-0.000996181,-0.001801645,-0.004030845,0.999988739,0.000000000,0.000000000,0.000000000,0.000000000,0.000000000,0.000000000,-0.461730201,0.000000000,4.180645466
1772715842.330420256,0.014627000,0.009109000,0.056361000,-0.000310470,0.004912140,-0.006570200,0.999966300,-0.000686000,0.009820000,-0.013144000,0.000273822,-0.000247269,0.000273122,-0.000433599,-0.006904033,0.004634567,0.011072059,-0.001600586,1.000944541,0.001685296,0.001561526,-0.001481984,0.000000000,0.000000000,0.000000000,0.000000000,0.014794116,0.009088372,0.056354435,0.017218176,-0.001971367,-0.000560072,0.007123977,0.000186105,0.001727887,-0.112756987,0.206363710,-0.461537377,-0.000991233,-0.001796885,-0.004029422,0.999988750,0.000000000,0.000000000,0.000000000,0.000000000,0.000000000,0.000000000,-0.461717993,0.000000000,4.180645466
1772715842.340421200,0.014636000,0.009096000,0.056371000,-0.000316580,0.004912510,-0.006555380,0.999966400,-0.000698000,0.009821000,-0.013114000,0.000188608,-0.000124237,0.000172408,0.000278513,-0.007157091,0.008396948,0.011062115,-0.001755889,1.000638780,0.001615499,0.001596452,-0.001487317,0.000000000,0.000000000,0.000000000,0.000000000,0.014795280,0.009087180,0.056355645,0.017269694,-0.001958863,-0.000531016,0.007207317,0.000173199,0.001237470,-0.112744965,0.206301073,-0.461285507,-0.000991122,-0.001796341,-0.004027224,0.999988760,0.000000000,0.000000000,0.000000000,0.000000000,0.000000000,0.000000000,-0.461705784,0.000000000,4.180645466
1772715842.350421429,0.014647000,0.009097000,0.056368000,-0.000411140,0.004978300,-0.006484850,0.999966500,-0.000887000,0.009951000,-0.012974000,-0.000004060,-0.000126490,0.000138999,-0.001726668,-0.002270426,0.013558153,0.011052173,-0.001911181,1.000333041,0.001545707,0.001631375,-0.001492649,0.000000000,0.000000000,0.000000000,0.000000000,0.014796444,0.009085988,0.056356856,0.017321208,-0.001946359,-0.000501961,0.007290652,0.000160294,0.000747088,-0.112732944,0.206238441,-0.461033656,-0.000991011,-0.001795797,-0.004025025,0.999988771,0.000000000,0.000000000,0.000000000,0.000000000,0.000000000,0.000000000,-0.461693576,0.000000000,4.180645466
1772715842.360421896,0.014622000,0.009103000,0.056361000,-0.000396660,0.004966100,-0.006471700,0.999966650,-0.000858000,0.009927000,-0.012948000,-0.000167494,0.000007498,0.000076414,-0.002908739,0.004097678,0.012376212,0.011042230,-0.002066476,1.000027295,0.001475913,0.001666300,-0.001497982,0.000000000,0.000000000,0.000000000,0.000000000,0.014797608,0.009084796,0.056358066,0.017372723,-0.001933856,-0.000472906,0.007373988,0.000147389,0.000256695,-0.112720922,0.206175808,-0.460781798,-0.000990900,-0.001795253,-0.004022827,0.999988782,0.000000000,0.000000000,0.000000000,0.000000000,0.000000000,0.000000000,-0.461681368,0.000000000,4.180645466
1772715842.370422840,0.014630000,0.009101000,0.056359000,-0.000349520,0.004985420,-0.006342150,0.999967400,-0.000762000,0.009966000,-0.012688000,-0.000211257,0.000146574,-0.000134143,-0.006736050,0.008030805,0.005828790,0.011032287,-0.002221779,0.999721534,0.001406115,0.001701226,-0.001503315,0.000000000,0.000000000,0.000000000,0.000000000,0.014798772,0.009083603,0.056359276,0.017424240,-0.001921351,-0.000443850,0.007457328,0.000134483,-0.000233722,-0.112708900,0.206113171,-0.460529928,-0.000990789,-0.001794709,-0.004020628,0.999988793,0.000000000,0.000000000,0.000000000,0.000000000,0.000000000,0.000000000,-0.461459260,0.000000000,4.180645466
1772715842.380423546,0.014631000,0.009098000,0.056367000,-0.000397450,0.005060600,-0.006351570,0.999966940,-0.000859000,0.010116000,-0.012708000,-0.000426243,0.000318633,-0.000070218,-0.001154225,0.005509854,0.002686820,0.009321796,-0.001427334,0.999070104,0.000270410,0.001800768,-0.000379104,0.000000000,0.000000000,0.000000000,0.000000000,0.014803520,0.009082117,0.056360822,0.017565877,-0.001899549,-0.000409427,0.007293252,0.000155559,-0.000733838,-0.112696878,0.206050536,-0.460278064,-0.000990678,-0.001794165,-0.004018429,0.999988835,0.000000000,0.000000000,0.000000000,0.000000000,0.000000000,0.000000000,-0.460487336,0.000000000,4.180645466
1772715842.390424490,0.014631000,0.009099000,0.056370000,-0.000442670,0.005089400,-0.006313140,0.999967020,-0.000950000,0.010173000,-0.012631000,-0.000630293,0.000245288,-0.000019890,0.002475179,0.007266194,0.000195162,0.007639491,-0.001414544,0.998685903,-0.001049443,0.002222453,-0.000506486,0.000000000,0.000000000,0.000000000,0.000000000,0.014807877,0.009081176,0.056361749,0.017722101,-0.001852093,-0.000400401,0.003727400,0.000643852,-0.001367481,-0.113169253,0.206156623,-0.459633897,-0.000994794,-0.001795080,-0.004012816,0.999988854,0.000000000,0.000000000,0.000000000,0.000000000,0.000000000,0.000000000,-0.459742268,0.000000000,4.180645466
1772715842.400424719,0.014616000,0.009115000,0.056364000,-0.000445200,0.005010230,-0.006388080,0.999966950,-0.000954000,0.010015000,-0.012781000,-0.000319371,0.000127111,-0.000101627,0.004240645,0.008867367,-0.002794916,0.007477632,-0.003204666,0.998945379,-0.001503518,0.002001848,-0.002875273,0.000000000,0.000000000,0.000000000,0.000000000,0.014801879,0.009082869,0.056359673,0.017703062,-0.001738553,-0.000493364,0.004285395,-0.001064092,-0.001415233,-0.113942393,0.205229424,-0.459406972,-0.001001504,-0.001786964,-0.004010840,0.999988854,0.000000000,0.000000000,0.000000000,0.000000000,0.000000000,0.000000000,-0.459389945,0.000000000,4.180645466
1772715842.410425901,0.014619000,0.009107000,0.056355000,-0.000409130,0.005167870,-0.006460230,0.999965690,-0.000885000,0.010330000,-0.012925000,-0.000034691,-0.000196747,-0.000130297,0.007453496,0.013433709,-0.004919019,0.009668170,-0.004137640,0.998988806,0.000951902,-0.004415866,-0.001714224,0.000000000,0.000000000,0.000000000,0.000000000,0.014801851,0.009083166,0.056357291,0.017593199,-0.001767477,-0.000583231,0.006306156,-0.001739453,-0.000962273,-0.114147065,0.204659677,-0.459455568,-0.001003271,-0.001781984,-0.004011262,0.999988854,0.000000000,0.000000000,0.000000000,0.000000000,0.000000000,0.000000000,-0.459456774,0.000000000,4.180645466
