t,px,py,pz,qx,qy,qz,qw,roll,pitch,yaw,vx,vy,vz,wx_vicon,wy_vicon,wz_vicon,imu_acc_x,imu_acc_y,imu_acc_z,imu_gyro_x,imu_gyro_y,imu_gyro_z,motor_motor_m1,motor_motor_m2,motor_motor_m3,motor_motor_m4,est_stateEstimate_x,est_stateEstimate_y,est_stateEstimate_z,est_stateEstimate_vx,est_stateEstimate_vy,est_stateEstimate_vz,est_stateEstimate_ax,est_stateEstimate_ay,est_stateEstimate_az,att_stateEstimate_roll,att_stateEstimate_pitch,att_stateEstimate_yaw,att_stateEstimate_qx,att_stateEstimate_qy,att_stateEstimate_qz,att_stateEstimate_qw,sp_ctrltarget_x,sp_ctrltarget_y,sp_ctrltarget_z,sp_ctrltarget_yaw,pid_controller_roll,pid_controller_pitch,pid_controller_yaw,pid_controller_cmd_thrust,pwr_pm_vbat
1772689960.502860785,0.016059000,0.005448000,0.053827000,-0.001145620,0.004719480,0.014123110,0.999888470,-0.002158000,0.009470000,0.028237000,-0.001828795,0.000491224,0.000429554,0.015087208,0.010902962,0.006171063,0.008068491,-0.002419692,1.000436989,-0.000753780,0.002810077,0.001786120,0.000000000,0.000000000,0.000000000,0.000000000,0.016357472,0.005416645,0.053809699,0.016134342,-0.001004107,-0.001045187,0.005238323,0.000593687,0.000012086,-0.168122751,0.140068197,1.115057934,-0.001455181,-0.001236544,0.009728743,0.999949817,0.000000000,0.000000000,0.000000000,0.000000000,0.000000000,0.000000000,-0.022204515,0.000000000,4.103524352
1772689960.512861490,0.016037000,0.005447000,0.053837000,-0.001103320,0.004799430,0.014095480,0.999888530,-0.002071000,0.009629000,0.028182000,-0.001118122,-0.000136587,0.000611243,-0.004791782,0.040626217,-0.017564454,0.007642557,-0.002754284,1.000491719,0.001536024,0.002904596,0.002289730,0.000000000,0.000000000,0.000000000,0.000000000,0.016385097,0.005411481,0.053810618,0.016236525,-0.000936441,-0.000981756,0.004653364,0.000446951,0.000071620,-0.168581354,0.138196579,1.113444885,-0.001459359,-0.001220230,0.009714687,0.999949991,0.000000000,0.000000000,0.000000000,0.000000000,0.000000000,0.000000000,-0.022204515,0.000000000,4.104012794
1772689960.522862434,0.016048000,0.005448000,0.053834000,-0.001067080,0.004911230,0.014065630,0.999888440,-0.001996000,0.009852000,0.028123000,-0.000522011,-0.000377712,0.000595160,-0.015417513,0.049545766,-0.027644515,0.006434135,-0.003286823,0.999456467,-0.000135544,0.002925271,0.000246171,0.000000000,0.000000000,0.000000000,0.000000000,0.016529551,0.005403344,0.053802117,0.016662550,-0.000910185,-0.000945334,0.004650924,-0.000299695,-0.000146628,-0.167520352,0.137406437,1.113235663,-0.001450170,-0.001213242,0.009712881,0.999950045,0.000000000,0.000000000,0.000000000,0.000000000,0.000000000,0.000000000,-0.022204515,0.000000000,4.104501247
1772689960.532862902,0.016016000,0.005440000,0.053853000,-0.001482930,0.005805370,0.013668490,0.999888630,-0.002807000,0.011650000,0.027322000,-0.000048151,-0.000341235,0.000435148,-0.018482862,0.042593249,-0.027164242,0.006854642,-0.003589184,0.999773616,-0.002452627,-0.001483428,0.000198371,0.000000000,0.000000000,0.000000000,0.000000000,0.016694788,0.005394200,0.053792642,0.017084316,-0.000957175,-0.000988848,0.004448595,-0.000836313,-0.000411684,-0.167474294,0.136296343,1.111898667,-0.001449876,-0.001203534,0.009701229,0.999950154,0.000000000,0.000000000,0.000000000,0.000000000,0.000000000,0.000000000,-0.022204515,0.000000000,4.104989678
1772689960.542863607,0.016040000,0.005443000,0.053840000,-0.001283520,0.005267950,0.013733870,0.999890990,-0.002422000,0.010570000,0.027456000,0.000295764,-0.000136237,0.000185049,-0.015707172,0.024680403,-0.019231328,0.010185028,-0.002778227,1.000958915,0.001418631,0.001016821,-0.000813714,0.000000000,0.000000000,0.000000000,0.000000000,0.016869616,0.005384172,0.053782475,0.017484277,-0.001026545,-0.001021448,0.006954767,-0.000379986,0.000209715,-0.167850981,0.136237528,1.111390377,-0.001453174,-0.001203047,0.009696791,0.999950222,0.000000000,0.000000000,0.000000000,0.000000000,0.000000000,0.000000000,-0.022204515,0.000000000,4.105478120
1772689960.552864313,0.016048000,0.005437000,0.053843000,-0.001242030,0.005092020,0.013841680,0.999890460,-0.002343000,0.010217000,0.027673000,0.000502043,0.000128196,-0.000101294,-0.008759306,0.000744937,-0.006948252,0.009663037,-0.003034651,0.999575970,0.000091172,-0.001744685,0.000455693,0.000000000,0.000000000,0.000000000,0.000000000,0.017046476,0.005374128,0.053772846,0.018314614,-0.001007599,-0.000929024,0.007935988,-0.000023025,-0.000179155,-0.167516463,0.136063574,1.110003877,-0.001450284,-0.001201483,0.009684698,0.999950329,0.000000000,0.000000000,0.000000000,0.000000000,0.000000000,0.000000000,-0.022204515,0.000000000,4.105966561
1772689960.562864304,0.016029000,0.005443000,0.053864000,-0.001603030,0.005751760,0.013533090,0.999890600,-0.003050000,0.011546000,0.027050000,0.000671825,0.000199151,-0.000639427,0.008239503,-0.037394119,0.010521995,0.009265827,-0.002695558,0.997757865,-0.000224986,-0.000096005,0.000186905,0.000000000,0.000000000,0.000000000,0.000000000,0.017224752,0.005364452,0.053763644,0.018954989,-0.001016563,-0.000992922,0.006375369,0.000214533,-0.001726802,-0.167633903,0.138223421,1.110882589,-0.001451111,-0.001220352,0.009692336,0.999950446,0.000000000,0.000000000,0.000000000,0.000000000,0.000000000,0.000000000,-0.022204515,0.000000000,4.106454969
1772689960.572865009,0.016055000,0.005446000,0.053834000,-0.001384770,0.005528940,0.013676540,0.999890230,-0.002618000,0.011095000,0.027340000,0.000319907,0.000143677,-0.000399175,0.012573106,-0.040850925,0.017602273,0.010142903,-0.003333164,0.999022454,0.000046068,0.001718409,-0.003648131,0.000000000,0.000000000,0.000000000,0.000000000,0.016300063,0.005427016,0.053827352,0.013229698,-0.000502424,-0.000770314,0.006770925,0.000152405,-0.001489346,-0.171183030,0.171478311,1.136647460,-0.001478934,-0.001511174,0.009916692,0.999948191,0.000000000,0.000000000,0.000000000,0.000000000,0.000000000,0.000000000,-0.022204515,0.000000000,4.106571120
1772689960.582865953,0.016048000,0.005448000,0.053826000,-0.001300050,0.004977230,0.013851140,0.999890840,-0.002462000,0.009990000,0.027691000,-0.000436702,-0.000047743,0.000112444,0.002100720,-0.019722827,0.008364224,0.009410634,-0.001963879,1.000944112,0.000830024,0.002010180,0.000873698,0.000000000,0.000000000,0.000000000,0.000000000,0.016262128,0.005433752,0.053839451,0.013392746,-0.000434939,-0.000749589,0.006422875,0.000568772,0.000825851,-0.170353826,0.171232647,1.135225075,-0.001471738,-0.001508940,0.009904293,0.999947904,0.000000000,0.000000000,0.000000000,0.000000000,0.000000000,0.000000000,-0.022204515,0.000000000,4.106144136
1772689960.592866898,0.016056000,0.005450000,0.053838000,-0.001206910,0.004583360,0.013972960,0.999891140,-0.002286000,0.009200000,0.027937000,-0.000531198,-0.000108442,0.000287800,0.000652081,-0.013988277,0.004893340,0.007082489,-0.001036617,1.000413916,0.002049170,0.001490677,0.000030083,0.000000000,0.000000000,0.000000000,0.000000000,0.016258956,0.005437662,0.053829712,0.013686840,-0.000304108,-0.000641098,0.004358152,0.002243052,0.000837216,-0.171364163,0.170812124,1.132672825,-0.001480624,-0.001505325,0.009882014,0.999947965,0.000000000,0.000000000,0.000000000,0.000000000,0.000000000,0.000000000,-0.022204515,0.000000000,4.105717151
1772689960.602868080,0.016046000,0.005439000,0.053823000,-0.001055500,0.004585880,0.014030460,0.999890490,-0.001982000,0.009200000,0.028053000,-0.000194761,-0.000067050,0.000211213,0.003546214,-0.005483848,0.002898900,0.007700160,-0.001927380,0.999300426,0.003043668,-0.000885679,-0.001397834,0.000000000,0.000000000,0.000000000,0.000000000,0.016202534,0.005442964,0.053827154,0.013624598,-0.000218891,-0.000657488,0.004380285,0.001150539,-0.000795391,-0.171076139,0.169729831,1.131688888,-0.001478217,-0.001495843,0.009873446,0.999948011,0.000000000,0.000000000,0.000000000,0.000000000,0.000000000,0.000000000,-0.022204515,0.000000000,4.105290157
1772689960.612869024,0.016011000,0.005439000,0.053877000,-0.001526590,0.005454500,0.013730830,0.999889680,-0.002903000,0.010950000,0.027447000,-0.000378217,-0.000038964,0.000586342,-0.008905326,0.027933657,-0.011142511,0.007988845,-0.002603383,0.999707377,-0.000244999,0.000848674,0.000198588,0.000000000,0.000000000,0.000000000,0.000000000,0.016316462,0.005444328,0.053821968,0.014075469,0.000024173,-0.000686196,0.005235407,0.000554666,-0.000097520,-0.170394191,0.168889249,1.130049680,-0.001472360,-0.001488428,0.009859162,0.999948340,0.000000000,0.000000000,0.000000000,0.000000000,0.000000000,0.000000000,-0.022204515,0.000000000,4.104863172
1772689960.622869492,0.016031000,0.005442000,0.053850000,-0.001482710,0.005228820,0.013677520,0.999891690,-0.002822000,0.010497000,0.027341000,0.000024571,0.000070527,0.000084143,-0.010334179,0.038796698,-0.013845822,0.007861933,-0.002620533,0.999797741,-0.003536202,0.000517411,-0.000489833,0.000000000,0.000000000,0.000000000,0.000000000,0.016314630,0.005442159,0.053822302,0.014223026,0.000055219,-0.000654718,0.005184545,0.000715400,-0.000765258,-0.170635075,0.168871832,1.128271701,-0.001474487,-0.001488274,0.009843644,0.999948454,0.000000000,0.000000000,0.000000000,0.000000000,0.000000000,0.000000000,-0.022204515,0.000000000,4.104436208
1772689960.632870913,0.016046000,0.005448000,0.053839000,-0.001296490,0.005210780,0.013824160,0.999890020,-0.002449000,0.010456000,0.027637000,0.000120019,0.000088086,-0.000245146,-0.006527570,0.025866894,-0.008632782,0.008103063,-0.003342229,0.999397292,-0.002428973,-0.001766202,-0.002599773,0.000000000,0.000000000,0.000000000,0.000000000,0.016278170,0.005441589,0.053842583,0.014257451,0.000108280,-0.000613052,0.005196827,0.000296937,-0.000656766,-0.170459206,0.168538387,1.127084824,-0.001472996,-0.001485334,0.009833294,0.999948561,0.000000000,0.000000000,0.000000000,0.000000000,0.000000000,0.000000000,-0.022204515,0.000000000,4.104009203
1772689960.642871141,0.016057000,0.005450000,0.053831000,-0.001194660,0.005144900,0.013819740,0.999890550,-0.002247000,0.010322000,0.027629000,0.000329211,-0.000095234,-0.000384860,-0.000487310,0.010160644,0.001407898,0.006870670,-0.004673245,0.999819479,0.000683045,-0.000276277,-0.001113562,0.000000000,0.000000000,0.000000000,0.000000000,0.016166575,0.005441629,0.053846019,0.013986703,0.000105675,-0.000597625,0.004305905,-0.001167323,-0.000213208,-0.171534777,0.168741576,1.125656306,-0.001482382,-0.001487181,0.009820812,0.999948561,0.000000000,0.000000000,0.000000000,0.000000000,0.000000000,0.000000000,-0.022204515,0.000000000,4.103582249
1772689960.652872086,0.016020000,0.005438000,0.053862000,-0.001618950,0.005680410,0.013606540,0.999889980,-0.003083000,0.011404000,0.027197000,0.000044713,-0.000102460,-0.000449055,0.005165698,0.002874564,0.008328252,0.006110370,-0.003882721,1.000057304,0.001664226,-0.002043101,-0.000508801,0.000000000,0.000000000,0.000000000,0.000000000,0.016315314,0.005444831,0.053833134,0.014477167,-0.000128813,-0.000647910,0.003377558,-0.001899355,0.000089100,-0.172555682,0.167797909,1.123918679,-0.001491395,-0.001479011,0.009805647,0.999948877,0.000000000,0.000000000,0.000000000,0.000000000,0.000000000,0.000000000,-0.022204515,0.000000000,4.103155265
1772689960.662872314,0.016044000,0.005445000,0.053828000,-0.001415170,0.005499210,0.013766550,0.999889110,-0.002679000,0.011036000,0.027520000,-0.000019501,-0.000061631,-0.000104655,0.008916082,0.000179128,0.013157558,0.005496659,-0.002954946,0.999972259,-0.000090255,0.000780497,-0.000928898,0.000000000,0.000000000,0.000000000,0.000000000,0.016185030,0.005447180,0.053832119,0.014153693,-0.000125793,-0.000651731,0.003600921,-0.000852975,0.000093087,-0.172638966,0.166556962,1.121949949,-0.001492253,-0.001468164,0.009788484,0.999948919,0.000000000,0.000000000,0.000000000,0.000000000,0.000000000,0.000000000,-0.022204515,0.000000000,4.102728311
1772689960.672873497,0.016036000,0.005437000,0.053840000,-0.001296180,0.005367990,0.013870850,0.999888550,-0.002443000,0.010771000,0.027730000,0.000089252,-0.000032127,-0.000048209,0.008895556,-0.000299709,0.011701104,0.005985426,-0.003446489,1.000370072,-0.000840316,0.000565207,-0.001512102,0.000000000,0.000000000,0.000000000,0.000000000,0.016218640,0.005445106,0.053834045,0.014222418,-0.000164208,-0.000615219,0.004110563,-0.000187672,0.000129892,-0.172463732,0.166468433,1.121165036,-0.001490741,-0.001467366,0.009781638,0.999948972,0.000000000,0.000000000,0.000000000,0.000000000,0.000000000,0.000000000,-0.022204515,0.000000000,4.102301316
1772689960.682874441,0.016045000,0.005437000,0.053835000,-0.001301410,0.005451190,0.013955620,0.999886910,-0.002451000,0.010938000,0.027899000,0.000217215,0.000108772,0.000033176,0.006693227,-0.000285917,0.008905080,0.006474182,-0.003938020,1.000767876,-0.001590358,0.000349923,-0.002095292,0.000000000,0.000000000,0.000000000,0.000000000,0.016252565,0.005443025,0.053835976,0.014291901,-0.000202702,-0.000578630,0.004362634,-0.000551953,0.000468767,-0.172288502,0.166379907,1.120380142,-0.001489230,-0.001466568,0.009774792,0.999949034,0.000000000,0.000000000,0.000000000,0.000000000,0.000000000,0.000000000,-0.022204515,0.000000000,4.101874332
1772689960.692875147,0.016039000,0.005456000,0.053836000,-0.001190990,0.005323360,0.013962510,0.999887640,-0.002233000,0.010679000,0.027914000,0.000110851,0.000079773,0.000122932,-0.000888416,0.002424700,0.001126338,0.006962926,-0.004429540,1.001165671,-0.002340383,0.000134644,-0.002678468,0.000000000,0.000000000,0.000000000,0.000000000,0.016286490,0.005440943,0.053837907,0.014361381,-0.000241194,-0.000542041,0.004614698,-0.000916224,0.000807633,-0.172113277,0.166291382,1.119595267,-0.001487718,-0.001465771,0.009767947,0.999949097,0.000000000,0.000000000,0.000000000,0.000000000,0.000000000,0.000000000,-0.022204515,0.000000000,4.101466179
1772689960.702876091,0.016061000,0.005441000,0.053832000,-0.001066060,0.005211060,0.014064860,0.999886940,-0.001985000,0.010451000,0.028121000,-0.000329075,-0.000050715,0.000322471,-0.012446518,0.004645950,-0.008962954,0.007937157,-0.003568149,1.000580840,-0.000748164,-0.002116094,-0.000336207,0.000000000,0.000000000,0.000000000,0.000000000,0.016291982,0.005439736,0.053838537,0.014362682,-0.000270421,-0.000516935,0.004866769,-0.001280504,0.001146508,-0.171928607,0.165660185,1.119177268,-0.001486166,-0.001460242,0.009764310,0.999949157,0.000000000,0.000000000,0.000000000,0.000000000,0.000000000,0.000000000,-0.022204515,0.000000000,4.101466179
1772689960.712877035,0.016027000,0.005440000,0.053857000,-0.001562670,0.005814530,0.013719730,0.999887750,-0.002966000,0.011671000,0.027424000,-0.000177610,0.000054872,0.000039760,-0.006061032,-0.023312773,-0.010099976,0.008908104,-0.002062457,0.999599294,0.001293122,-0.002886739,0.003498094,0.000000000,0.000000000,0.000000000,0.000000000,0.016187483,0.005441913,0.053834134,0.014100217,-0.000263799,-0.000536252,0.005622982,0.000199660,0.000422020,-0.171764081,0.164267181,1.119268046,-0.001484848,-0.001448073,0.009765122,0.999949157,0.000000000,0.000000000,0.000000000,0.000000000,0.000000000,0.000000000,-0.022204515,0.000000000,4.101466179
1772689960.722877502,0.016037000,0.005446000,0.053841000,-0.001454680,0.005305610,0.013793400,0.999889730,-0.002763000,0.010650000,0.027573000,-0.000181922,0.000164227,-0.000237124,0.011304641,-0.059623527,-0.003063503,0.009474787,-0.003029007,0.999838370,-0.001356817,0.003783197,0.003303393,0.000000000,0.000000000,0.000000000,0.000000000,0.016320902,0.005435509,0.053830019,0.014809823,-0.000185222,-0.000475046,0.006864799,0.000816433,-0.000540255,-0.172478938,0.164849193,1.117695197,-0.001491056,-0.001453192,0.009751379,0.999949324,0.000000000,0.000000000,0.000000000,0.000000000,0.000000000,0.000000000,-0.022204515,0.000000000,4.101466179
1772689960.732878447,0.016033000,0.005441000,0.053837000,-0.001341140,0.005094470,0.013828750,0.999890500,-0.002541000,0.010225000,0.027646000,-0.000055241,0.000269018,-0.000392494,0.020796524,-0.065909059,0.003818364,0.008887762,-0.005130458,1.000228809,-0.001051236,0.000429548,0.001784152,0.000000000,0.000000000,0.000000000,0.000000000,0.016328823,0.005436351,0.053827746,0.015196624,-0.000261774,-0.000477230,0.006495773,-0.001854307,0.000527760,-0.173389765,0.162798532,1.116796973,-0.001499190,-0.001435363,0.009743558,0.999949421,0.000000000,0.000000000,0.000000000,0.000000000,0.000000000,0.000000000,-0.022204515,0.000000000,4.101466179
1772689960.742878675,0.016039000,0.005450000,0.053834000,-0.001128460,0.004532050,0.013842730,0.999893280,-0.002131000,0.009094000,0.027677000,0.000061651,0.000402672,-0.000068158,0.019182680,-0.043015615,0.001760630,0.006933009,-0.005554213,0.999057003,0.001684995,0.000435982,0.001550780,0.000000000,0.000000000,0.000000000,0.000000000,0.016260387,0.005442051,0.053828726,0.015154824,-0.000401101,-0.000407452,0.002789054,-0.002253315,0.000040186,-0.173978698,0.161122765,1.115887627,-0.001504483,-0.001420779,0.009735636,0.999949574,0.000000000,0.000000000,0.000000000,0.000000000,0.000000000,0.000000000,-0.022204515,0.000000000,4.101466179
1772689960.752879143,0.016041000,0.005458000,0.053838000,-0.000963930,0.004105320,0.013858860,0.999895070,-0.001814000,0.008237000,0.027711000,-0.000185166,0.000218963,0.000756085,-0.005571188,0.015489879,-0.010186009,0.008707310,-0.005102134,0.999674201,-0.001318579,0.005474214,-0.001113140,0.000000000,0.000000000,0.000000000,0.000000000,0.016288796,0.005434237,0.053835143,0.015285488,-0.000733918,-0.000469443,0.006004039,-0.002794609,-0.001465054,-0.173925912,0.160971570,1.114676630,-0.001504050,-0.001419439,0.009725072,0.999949633,0.000000000,0.000000000,0.000000000,0.000000000,0.000000000,0.000000000,-0.022204515,0.000000000,4.101466179
1772689960.762880087,0.016035000,0.005459000,0.053828000,-0.000920450,0.004350020,0.013922910,0.999893190,-0.001720000,0.008725000,0.027839000,-0.000650110,0.000087426,0.001168197,-0.039751577,0.082773010,-0.026299945,0.008001512,-0.005605146,1.000069782,-0.002781179,0.002747744,-0.000577949,0.000000000,0.000000000,0.000000000,0.000000000,0.016226508,0.005436445,0.053838938,0.015135997,-0.000871813,-0.000495531,0.005687663,-0.002205116,0.000216209,-0.174126561,0.159911747,1.113728498,-0.001505903,-0.001410195,0.009716811,0.999949694,0.000000000,0.000000000,0.000000000,0.000000000,0.000000000,0.000000000,-0.022204515,0.000000000,4.101466179
1772689960.772880793,0.016030000,0.005450000,0.053861000,-0.001445310,0.005382430,0.013650690,0.999891290,-0.002744000,0.010803000,0.027288000,-0.000198005,-0.000076277,0.000522574,-0.042996660,0.092064488,-0.025351221,0.007458663,-0.004554120,0.999219250,0.001458845,0.000172838,-0.003095430,0.000000000,0.000000000,0.000000000,0.000000000,0.016305495,0.005426207,0.053832662,0.015541461,-0.001230963,-0.000518094,0.005499030,-0.002129289,-0.000809895,-0.173434835,0.158440319,1.111725243,-0.001500016,-0.001397270,0.009699359,0.999949862,0.000000000,0.000000000,0.000000000,0.000000000,0.000000000,0.000000000,-0.022204515,0.000000000,4.101466179
1772689960.782881498,0.016025000,0.005451000,0.053881000,-0.001830820,0.005982810,0.013354170,0.999891250,-0.003502000,0.012013000,0.026689000,-0.000106131,-0.000316217,0.000191284,-0.041128546,0.082908779,-0.022080348,0.007193119,-0.002559002,0.999365839,0.000279656,-0.001805616,-0.001620466,0.000000000,0.000000000,0.000000000,0.000000000,0.016203567,0.005435355,0.053832217,0.015292083,-0.001282259,-0.000517886,0.004468477,-0.000436861,-0.000351502,-0.173098655,0.159689518,1.110929578,-0.001496986,-0.001408132,0.009692405,0.999949932,0.000000000,0.000000000,0.000000000,0.000000000,0.000000000,0.000000000,-0.022204515,0.000000000,4.101466179
1772689960.792882681,0.016003000,0.005453000,0.053882000,-0.002162020,0.006402890,0.013242660,0.999889470,-0.004154000,0.012862000,0.026460000,0.000015481,-0.000267367,-0.000191090,-0.023975799,0.037022546,-0.011075249,0.006444621,-0.003045536,0.998791321,0.001617000,0.002645574,-0.001745877,0.000000000,0.000000000,0.000000000,0.000000000,0.016323625,0.005429931,0.053827549,0.015618360,-0.001229963,-0.000589849,0.003775413,-0.000375760,-0.000897524,-0.172939153,0.160729061,1.109593447,-0.001495523,-0.001417173,0.009680733,0.999950024,0.000000000,0.000000000,0.000000000,0.000000000,0.000000000,0.000000000,-0.022204515,0.000000000,4.101466179
1772689960.802883148,0.016039000,0.005449000,0.053832000,-0.001789870,0.005970260,0.013472290,0.999889820,-0.003419000,0.011988000,0.026925000,0.000264861,-0.000183709,-0.000486737,0.004166416,-0.017345598,0.005310036,0.007939396,-0.003789839,0.998648077,0.002086325,-0.003631246,-0.001180405,0.000000000,0.000000000,0.000000000,0.000000000,0.016338355,0.005431867,0.053822934,0.015592030,-0.001221078,-0.000712248,0.004778724,-0.000618685,-0.001582692,-0.172505858,0.161120460,1.107933161,-0.001491729,-0.001420530,0.009666244,0.999950357,0.000000000,0.000000000,0.000000000,0.000000000,0.000000000,0.000000000,-0.022204515,0.000000000,4.101466179
1772689960.812884331,0.016053000,0.005443000,0.053829000,-0.001480180,0.005426620,0.013589460,0.999891840,-0.002813000,0.010893000,0.027165000,0.000541648,-0.000108831,-0.000894401,0.032764872,-0.057811118,0.024721041,0.007429635,-0.003591962,0.998911596,0.001536813,-0.003860795,0.002602515,0.000000000,0.000000000,0.000000000,0.000000000,0.016334747,0.005429164,0.053836799,0.015664353,-0.001248531,-0.000754818,0.005199514,-0.000859535,-0.000920587,-0.171054111,0.160251880,1.105634534,-0.001479163,-0.001412798,0.009646214,0.999950525,0.000000000,0.000000000,0.000000000,0.000000000,0.000000000,0.000000000,-0.022204515,0.000000000,4.101466179
1772689960.822884321,0.016017000,0.005443000,0.053866000,-0.001862350,0.005799490,0.013474260,0.999890670,-0.003568000,0.011648000,0.026929000,0.000316217,-0.000071537,-0.000293317,0.032220087,-0.043257251,0.027210189,0.007152940,-0.004130851,0.999074572,0.003616939,-0.001858645,0.003380156,0.000000000,0.000000000,0.000000000,0.000000000,0.016331590,0.005428237,0.053851674,0.015681596,-0.001270086,-0.000689206,0.004775809,-0.000825262,0.000118150,-0.169298671,0.161041626,1.104126095,-0.001463797,-0.001419523,0.009633064,0.999950630,0.000000000,0.000000000,0.000000000,0.000000000,0.000000000,0.000000000,-0.022204515,0.000000000,4.101466179
1772689960.832884789,0.016031000,0.005448000,0.053847000,-0.001505670,0.005340370,0.013718010,0.999890510,-0.002865000,0.010721000,0.027422000,0.000032437,0.000037701,0.000062330,0.022095905,-0.019878912,0.021985593,0.007665503,-0.004077196,0.999573737,0.002990132,-0.001319141,-0.000416702,0.000000000,0.000000000,0.000000000,0.000000000,0.016319620,0.005428091,0.053859999,0.015655434,-0.001334505,-0.000794349,0.004434431,-0.000694205,0.000919365,-0.170432780,0.161905277,1.102666898,-0.001473639,-0.001427136,0.009620305,0.999950601,0.000000000,0.000000000,0.000000000,0.000000000,0.000000000,0.000000000,-0.022204515,0.000000000,4.101466179
1772689960.842885494,0.016047000,0.005444000,0.053841000,-0.001242520,0.005227350,0.013866800,0.999889420,-0.002340000,0.010488000,0.027723000,-0.000344148,0.000127769,0.000263093,0.013181171,-0.007449314,0.016810040,0.006642963,-0.004118608,1.002123314,0.000148620,0.002704102,-0.002978619,0.000000000,0.000000000,0.000000000,0.000000000,0.016328026,0.005425905,0.053842529,0.015675749,-0.001377487,-0.000762885,0.004214209,-0.000788014,0.001265377,-0.169239053,0.161572769,1.103075079,-0.001463245,-0.001424139,0.009623886,0.999950629,0.000000000,0.000000000,0.000000000,0.000000000,0.000000000,0.000000000,-0.022204515,0.000000000,4.101466179
1772689960.852885962,0.016045000,0.005448000,0.053832000,-0.001146950,0.005102460,0.014010670,0.999888170,-0.002151000,0.010236000,0.028012000,0.000094885,0.000089931,-0.000330804,0.015757945,-0.009859374,0.014235753,0.008142591,-0.003806740,1.000553494,0.001902252,0.000852451,0.000400365,0.000000000,0.000000000,0.000000000,0.000000000,0.016340115,0.005421561,0.053829253,0.015701952,-0.001447258,-0.000685506,0.004483788,-0.000988532,0.000846225,-0.169248893,0.162770904,1.102194070,-0.001463241,-0.001434584,0.009616183,0.999950754,0.000000000,0.000000000,0.000000000,0.000000000,0.000000000,0.000000000,-0.022204515,0.000000000,4.101466179
1772689960.862887144,0.016021000,0.005449000,0.053857000,-0.001445880,0.005704640,0.013870620,0.999886480,-0.002733000,0.011448000,0.027727000,0.000337641,0.000097138,-0.000386667,0.017797760,-0.019463855,0.009648523,0.006289782,-0.003900195,0.999657981,-0.002297718,0.000585181,-0.000840006,0.000000000,0.000000000,0.000000000,0.000000000,0.016336204,0.005418512,0.053835451,0.015707515,-0.001482971,-0.000581038,0.004909991,-0.000611367,0.000270120,-0.168735101,0.161829864,1.100941747,-0.001458852,-0.001426313,0.009605273,0.999950915,0.000000000,0.000000000,0.000000000,0.000000000,0.000000000,0.000000000,-0.022204515,0.000000000,4.101466179
1772689960.872887850,0.016038000,0.005448000,0.053832000,-0.001203370,0.005142750,0.013981640,0.999888300,-0.002263000,0.010318000,0.027953000,0.000373012,0.000166500,-0.000197033,0.014351169,-0.021453484,0.004325216,0.005935840,-0.003917506,0.999752193,0.000003012,0.000016011,0.000306636,0.000000000,0.000000000,0.000000000,0.000000000,0.016331666,0.005417956,0.053840301,0.015630124,-0.001493655,-0.000533943,0.002430259,-0.000479570,-0.000321389,-0.168495314,0.160857742,1.099689211,-0.001456857,-0.001417794,0.009594359,0.999951063,0.000000000,0.000000000,0.000000000,0.000000000,0.000000000,0.000000000,-0.022204515,0.000000000,4.101466179
1772689960.882888079,0.016038000,0.005449000,0.053846000,-0.001040280,0.004845510,0.013999530,0.999889720,-0.001945000,0.009719000,0.027991000,0.000044849,0.000099469,0.000182543,0.008464918,-0.018955193,-0.003076397,0.006554560,-0.003226170,0.999583521,-0.000762559,-0.000133122,-0.000885351,0.000000000,0.000000000,0.000000000,0.000000000,0.016333574,0.005418128,0.053837804,0.015508537,-0.001501626,-0.000548798,0.003567472,-0.000788479,-0.000696741,-0.168275124,0.160051379,1.098207053,-0.001455021,-0.001410720,0.009581439,0.999951211,0.000000000,0.000000000,0.000000000,0.000000000,0.000000000,0.000000000,-0.022204515,0.000000000,4.101466179
1772689960.892889500,0.016055000,0.005450000,0.053826000,-0.001031630,0.005025120,0.013971020,0.999889240,-0.001923000,0.010078000,0.027934000,-0.000032748,0.000008877,0.000349393,-0.000166969,-0.002006707,-0.008585128,0.007435234,-0.002105267,0.999839852,0.000116087,0.001648380,0.000730328,0.000000000,0.000000000,0.000000000,0.000000000,0.016340275,0.005417737,0.053831049,0.015467338,-0.001448065,-0.000610562,0.004699501,0.000957077,-0.000366525,-0.168135009,0.158547296,1.095548179,-0.001453957,-0.001397550,0.009558258,0.999951422,0.000000000,0.000000000,0.000000000,0.000000000,0.000000000,0.000000000,-0.022204515,0.000000000,4.101466179
1772689960.902890205,0.016048000,0.005456000,0.053841000,-0.000956340,0.004850200,0.014008030,0.999889660,-0.001777000,0.009726000,0.028009000,-0.000258509,-0.000079307,0.000222401,-0.009977037,0.020875932,-0.010304406,0.006473143,-0.001155175,0.998696798,0.002446527,0.000645168,-0.001348542,0.000000000,0.000000000,0.000000000,0.000000000,0.016336248,0.005420450,0.053831532,0.015413611,-0.001262751,-0.000622983,0.003847285,0.001607585,-0.000542770,-0.168285784,0.157116646,1.094316237,-0.001455407,-0.001385062,0.009547524,0.999951444,0.000000000,0.000000000,0.000000000,0.000000000,0.000000000,0.000000000,-0.022204515,0.000000000,4.101466179
1772689960.912891150,0.016046000,0.005451000,0.053842000,-0.001023110,0.004984360,0.013933630,0.999889980,-0.001907000,0.009996000,0.027859000,-0.000345527,-0.000206862,0.000101411,-0.019746684,0.043640194,-0.010125584,0.006992053,-0.002069143,0.998496106,0.000436297,0.002946548,-0.001225362,0.000000000,0.000000000,0.000000000,0.000000000,0.016330408,0.005423281,0.053833397,0.015338528,-0.001085381,-0.000706076,0.004682696,0.000794860,-0.002672323,-0.168598118,0.156100741,1.093818055,-0.001458223,-0.001376217,0.009543186,0.999951512,0.000000000,0.000000000,0.000000000,0.000000000,0.000000000,0.000000000,-0.022204515,0.000000000,4.101466179
1772689960.922892094,0.016003000,0.005442000,0.053874000,-0.001547330,0.005627410,0.013629760,0.999890080,-0.002941000,0.011296000,0.027244000,0.000045393,-0.000257053,-0.000461758,-0.005034326,0.015287106,0.002330010,0.007334021,-0.002846986,0.999565954,-0.001495939,0.003756078,0.001677966,0.000000000,0.000000000,0.000000000,0.000000000,0.016332179,0.005425834,0.053827600,0.015340885,-0.000974941,-0.000848349,0.004968528,0.000673050,-0.000315003,-0.168683697,0.155073573,1.092709186,-0.001459069,-0.001367247,0.009533522,0.999951637,0.000000000,0.000000000,0.000000000,0.000000000,0.000000000,0.000000000,-0.022204515,0.000000000,4.101466179
1772689960.932893276,0.016044000,0.005448000,0.053833000,-0.001342280,0.005590720,0.013834770,0.999887760,-0.002530000,0.011218000,0.027657000,-0.000000583,-0.000033467,-0.000259461,-0.002433911,0.003691736,0.006163929,0.006586679,-0.002740546,0.999533457,-0.001286985,0.003476384,-0.000030858,0.000000000,0.000000000,0.000000000,0.000000000,0.016334914,0.005428636,0.053826770,0.015346113,-0.000891085,-0.000814879,0.004213602,0.001322437,-0.000010919,-0.168641353,0.153517249,1.091525305,-0.001458843,-0.001353648,0.009523212,0.999951786,0.000000000,0.000000000,0.000000000,0.000000000,0.000000000,0.000000000,-0.022204515,0.000000000,4.101466179
1772689960.942893505,0.016043000,0.005442000,0.053824000,-0.001213170,0.005481080,0.013931510,0.999887190,-0.002273000,0.010995000,0.027852000,0.000301241,0.000058757,-0.000113376,-0.001385711,0.000592280,0.006544729,0.006717974,-0.002698305,0.998829654,-0.001461647,0.002362568,-0.001203112,0.000000000,0.000000000,0.000000000,0.000000000,0.016342127,0.005431486,0.053819240,0.015303028,-0.000779429,-0.000851350,0.003943271,0.000918399,-0.000514382,-0.169185120,0.151361884,1.090278734,-0.001463781,-0.001334869,0.009512356,0.999951896,0.000000000,0.000000000,0.000000000,0.000000000,0.000000000,0.000000000,-0.022204515,0.000000000,4.101466179
1772689960.952894449,0.016054000,0.005444000,0.053826000,-0.001121600,0.005170300,0.014034680,0.999887510,-0.002098000,0.010371000,0.028060000,0.000222168,0.000123981,0.000239960,-0.002384468,-0.006309617,0.002525814,0.008155622,-0.002614475,0.999020155,-0.004594799,-0.001717968,0.001870657,0.000000000,0.000000000,0.000000000,0.000000000,0.016332681,0.005436572,0.053822747,0.015171803,-0.000711119,-0.000874408,0.004483279,0.000670505,-0.000632546,-0.169744490,0.153330415,1.089567135,-0.001468507,-0.001352084,0.009506114,0.999952006,0.000000000,0.000000000,0.000000000,0.000000000,0.000000000,0.000000000,-0.022204515,0.000000000,4.101466179
1772689960.962895155,0.016042000,0.005451000,0.053839000,-0.001025600,0.004854210,0.014064450,0.999888780,-0.001915000,0.009736000,0.028121000,0.000022395,0.000129109,0.000306020,-0.005711926,-0.007159034,-0.003412883,0.007562846,-0.002813397,0.999262811,-0.002662417,0.001098425,0.002103793,0.000000000,0.000000000,0.000000000,0.000000000,0.016202322,0.005437676,0.053829416,0.013941943,-0.000672953,-0.000978549,0.005333226,0.000865536,-0.000538715,-0.170075105,0.161259277,1.089464769,-0.001470736,-0.001421299,0.009505113,0.999951901,0.000000000,0.000000000,0.000000000,0.000000000,0.000000000,0.000000000,-0.022204515,0.000000000,4.101466179
1772689960.972895861,0.016022000,0.005457000,0.053867000,-0.001645380,0.005758770,0.013731990,0.999887770,-0.003132000,0.011562000,0.027447000,-0.000413801,0.000079540,0.000434701,-0.010774224,-0.003634721,-0.012614017,0.007508744,-0.004281743,0.997244552,0.002026692,-0.002036801,-0.001527767,0.000000000,0.000000000,0.000000000,0.000000000,0.016279700,0.005433086,0.053814402,0.014465034,-0.000677317,-0.001139241,0.004809219,-0.000825674,-0.002171174,-0.171905037,0.160537941,1.088115237,-0.001486781,-0.001415139,0.009493324,0.999951951,0.000000000,0.000000000,0.000000000,0.000000000,0.000000000,0.000000000,-0.022204515,0.000000000,4.101466179
1772689960.982895851,0.016048000,0.005441000,0.053851000,-0.001389760,0.005424420,0.013802900,0.999889060,-0.002630000,0.010886000,0.027593000,0.000001321,0.000001826,-0.000387346,0.003507779,-0.009707646,-0.007675095,0.006122366,-0.003739969,0.999835575,-0.000844957,0.002068606,-0.000872352,0.000000000,0.000000000,0.000000000,0.000000000,0.016308051,0.005434685,0.053813665,0.014655922,-0.000749150,-0.001308916,0.003988446,-0.000541568,-0.001024416,-0.172498418,0.159822815,1.086428854,-0.001492039,-0.001408925,0.009478611,0.999952018,0.000000000,0.000000000,0.000000000,0.000000000,0.000000000,0.000000000,-0.022204515,0.000000000,4.101466179
1772689960.992896318,0.016036000,0.005447000,0.053834000,-0.001350850,0.005200090,0.013776390,0.999890670,-0.002558000,0.010436000,0.027541000,0.000060582,-0.000064953,-0.000797652,0.019844873,-0.030185493,0.001317709,0.005621961,-0.003583873,1.000986343,0.000062970,-0.002664472,0.001174643,0.000000000,0.000000000,0.000000000,0.000000000,0.016307487,0.005438380,0.053828011,0.014602409,-0.000750468,-0.001146200,0.003143833,-0.000748494,0.000628763,-0.171685733,0.160311765,1.086237228,-0.001484909,-0.001413122,0.009476941,0.999952018,0.000000000,0.000000000,0.000000000,0.000000000,0.000000000,0.000000000,-0.022204515,0.000000000,4.101466179
1772689961.002897501,0.016042000,0.005453000,0.053823000,-0.001125370,0.004908870,0.013901440,0.999890690,-0.002114000,0.009848000,0.027794000,0.000386667,-0.000144415,-0.000825117,0.030987755,-0.047825192,0.010876433,0.007609458,-0.003225792,1.000446609,-0.000643698,-0.001550750,0.001550598,0.000000000,0.000000000,0.000000000,0.000000000,0.016318280,0.005432228,0.053830465,0.014554903,-0.000852889,-0.000999929,0.004017772,-0.000717782,0.000353713,-0.171917373,0.161552106,1.086051247,-0.001486830,-0.001423963,0.009475299,0.999952018,0.000000000,0.000000000,0.000000000,0.000000000,0.000000000,0.000000000,-0.022204515,0.000000000,4.101466179
1772689961.012897491,0.016043000,0.005449000,0.053827000,-0.000954820,0.004694510,0.013871860,0.999892300,-0.001779000,0.009415000,0.027737000,0.000402303,0.000040926,-0.000293588,0.029758340,-0.047246382,0.015849036,0.007473771,-0.000911394,0.999114594,0.000214300,-0.000780121,-0.002522940,0.000000000,0.000000000,0.000000000,0.000000000,0.016319160,0.005432126,0.053821029,0.014627351,-0.000750712,-0.000983478,0.004341655,0.001599857,-0.001065199,-0.172106966,0.162327653,1.084919822,-0.001488434,-0.001430731,0.009465413,0.999952258,0.000000000,0.000000000,0.000000000,0.000000000,0.000000000,0.000000000,-0.022204515,0.000000000,4.101466179
1772689961.022897959,0.016047000,0.005444000,0.053817000,-0.000829260,0.004673280,0.013998050,0.999890760,-0.001528000,0.009369000,0.027990000,-0.000012606,0.000238289,0.000365495,0.009005981,-0.015771507,0.008972176,0.008597361,-0.001921843,0.998847691,0.001084614,-0.001707656,-0.001352603,0.000000000,0.000000000,0.000000000,0.000000000,0.016322165,0.005436405,0.053812030,0.014649606,-0.000509673,-0.001108568,0.005339255,0.001161924,-0.001087595,-0.172446791,0.162432666,1.082590028,-0.001491420,-0.001431646,0.009445077,0.999952324,0.000000000,0.000000000,0.000000000,0.000000000,0.000000000,0.000000000,-0.022204515,0.000000000,4.101466179
1772689961.032899141,0.016042000,0.005452000,0.053835000,-0.000855850,0.004325400,0.014040710,0.999891700,-0.001590000,0.008674000,0.028076000,0.000079443,0.000295239,0.000554992,-0.001973994,-0.004044519,0.006909178,0.008435715,-0.002954045,0.998789488,-0.001030058,0.000768113,-0.000368348,0.000000000,0.000000000,0.000000000,0.000000000,0.016324985,0.005437831,0.053807653,0.014809404,-0.000447131,-0.001156872,0.005662699,0.000149716,-0.001384350,-0.171770197,0.163431904,1.080677513,-0.001485458,-0.001440285,0.009428383,0.999952615,0.000000000,0.000000000,0.000000000,0.000000000,0.000000000,0.000000000,-0.022204515,0.000000000,4.101466179
1772689961.042899132,0.016059000,0.005447000,0.053836000,-0.000924750,0.004605350,0.014043720,0.999890350,-0.001720000,0.009236000,0.028081000,-0.000204706,0.000235376,0.000427417,-0.011521980,0.002519627,0.002737209,0.007449550,-0.003100764,0.998556284,-0.001740941,0.000072546,0.000835677,0.000000000,0.000000000,0.000000000,0.000000000,0.016328979,0.005437116,0.053802043,0.014898678,-0.000448213,-0.001287740,0.004960879,0.000286689,-0.001679000,-0.171553346,0.162927120,1.078068195,-0.001483639,-0.001435828,0.009405623,0.999952686,0.000000000,0.000000000,0.000000000,0.000000000,0.000000000,0.000000000,-0.022204515,0.000000000,4.101466179
1772689961.052900314,0.016045000,0.005463000,0.053844000,-0.001012420,0.004691550,0.014058490,0.999889660,-0.001893000,0.009411000,0.028109000,-0.000007964,0.000075946,0.000073849,-0.014971727,0.008101805,0.000262303,0.007117977,-0.002206807,0.998906655,-0.000562466,0.002729622,0.000849032,0.000000000,0.000000000,0.000000000,0.000000000,0.016330830,0.005439891,0.053806309,0.014907619,-0.000395225,-0.001332892,0.004441552,0.000796858,-0.000950136,-0.171729145,0.162791304,1.077031748,-0.001485198,-0.001434644,0.009396580,0.999952793,0.000000000,0.000000000,0.000000000,0.000000000,0.000000000,0.000000000,-0.022204515,0.000000000,4.101466179
1772689961.062901020,0.016030000,0.005460000,0.053836000,-0.001074360,0.004673700,0.013998270,0.999890520,-0.002018000,0.009377000,0.027988000,-0.000028766,-0.000242932,-0.000213835,-0.009266583,0.015108849,-0.002938015,0.006912658,-0.002220576,0.998369336,-0.000517410,0.004067372,-0.001055953,0.000000000,0.000000000,0.000000000,0.000000000,0.016337848,0.005441175,0.053809182,0.014899210,-0.000309866,-0.001342804,0.003493651,0.001009844,-0.001414433,-0.172054782,0.161671101,1.076485070,-0.001488138,-0.001424888,0.009391820,0.999952797,0.000000000,0.000000000,0.000000000,0.000000000,0.000000000,0.000000000,-0.022204515,0.000000000,4.101466179
1772689961.072901487,0.016050000,0.005456000,0.053837000,-0.001097340,0.004589850,0.014061570,0.999889990,-0.002065000,0.009210000,0.028115000,-0.000032962,-0.000470382,-0.000310254,-0.003907679,0.016526414,-0.001228558,0.006739244,-0.001476330,0.998287959,-0.000672522,0.001753118,0.001525889,0.000000000,0.000000000,0.000000000,0.000000000,0.016334869,0.005448930,0.053813503,0.014798283,-0.000196566,-0.001409745,0.004165943,0.001721190,-0.001263551,-0.172013245,0.159680421,1.076618151,-0.001487937,-0.001407515,0.009393007,0.999952900,0.000000000,0.000000000,0.000000000,0.000000000,0.000000000,0.000000000,-0.022204515,0.000000000,4.101466179
1772689961.082902431,0.016042000,0.005438000,0.053829000,-0.001079730,0.004686240,0.014018250,0.999890170,-0.002028000,0.009402000,0.028028000,-0.000069265,-0.000314663,-0.000073441,-0.001852751,0.013659852,-0.000845547,0.007218496,-0.001398038,0.998701463,-0.001137549,0.001627740,0.001402380,0.000000000,0.000000000,0.000000000,0.000000000,0.016332813,0.005449879,0.053813035,0.014799356,-0.000151338,-0.001414464,0.005043227,0.002031979,-0.000742621,-0.171925212,0.159348817,1.076409001,-0.001487199,-0.001404612,0.009391188,0.999952933,0.000000000,0.000000000,0.000000000,0.000000000,0.000000000,0.000000000,-0.022204515,0.000000000,4.101466179
1772689961.092902899,0.016058000,0.005442000,0.053825000,-0.001133790,0.004955780,0.014006000,0.999888990,-0.002129000,0.009942000,0.028003000,-0.000004934,-0.000108054,-0.000001165,-0.000844506,0.016982329,0.001029871,0.007697726,-0.001319750,0.999114948,-0.001602554,0.001502369,0.001278877,0.000000000,0.000000000,0.000000000,0.000000000,0.016330756,0.005450827,0.053812568,0.014800429,-0.000106112,-0.001419184,0.005307527,0.001655459,-0.000415635,-0.171837184,0.159017229,1.076199861,-0.001486460,-0.001401708,0.009389368,0.999952957,0.000000000,0.000000000,0.000000000,0.000000000,0.000000000,0.000000000,-0.022204515,0.000000000,4.101466179
1772689961.102904081,0.016034000,0.005442000,0.053833000,-0.001003250,0.005021660,0.014031020,0.999888450,-0.001865000,0.010071000,0.028054000,-0.000113356,0.000086668,0.000125457,0.001634596,0.014039459,0.002135702,0.008176990,-0.001241456,0.999528462,-0.002067592,0.001376988,0.001155364,0.000000000,0.000000000,0.000000000,0.000000000,0.016328699,0.005451776,0.053812100,0.014801502,-0.000060884,-0.001423904,0.005571847,0.001278911,-0.000088624,-0.171749150,0.158685618,1.075990706,-0.001485722,-0.001398805,0.009387549,0.999952980,0.000000000,0.000000000,0.000000000,0.000000000,0.000000000,0.000000000,-0.022204515,0.000000000,4.101466179
1772689961.112904787,0.016040000,0.005449000,0.053843000,-0.001147480,0.004904190,0.014052700,0.999888570,-0.002157000,0.009840000,0.028096000,-0.000268571,0.000079870,-0.000044558,0.005268641,-0.000861378,0.000253958,0.008656231,-0.001163166,0.999941957,-0.002532607,0.001251614,0.001031858,0.000000000,0.000000000,0.000000000,0.000000000,0.016326642,0.005452725,0.053811632,0.014802575,-0.000015657,-0.001428623,0.005836154,0.000902381,0.000238370,-0.171661119,0.158354022,1.075781561,-0.001484983,-0.001395901,0.009385729,0.999953004,0.000000000,0.000000000,0.000000000,0.000000000,0.000000000,0.000000000,-0.022204515,0.000000000,4.101466179
1772689961.122905254,0.016040000,0.005456000,0.053834000,-0.001107370,0.005021070,0.014024410,0.999888430,-0.002074000,0.010072000,0.028040000,0.000270707,0.000026028,-0.000285508,0.014407246,-0.021576607,0.004304437,0.008866436,-0.001993029,1.000388865,-0.002318644,0.001019090,0.000501605,0.000000000,0.000000000,0.000000000,0.000000000,0.016324624,0.005453674,0.053811168,0.014804343,0.000029365,-0.001432762,0.006100455,0.000525861,0.000565357,-0.171553342,0.158160848,1.075403311,-0.001484063,-0.001394202,0.009382432,0.999953027,0.000000000,0.000000000,0.000000000,0.000000000,0.000000000,0.000000000,-0.022204515,0.000000000,4.101466179
1772689961.132905960,0.016041000,0.005446000,0.053827000,-0.001015330,0.004884690,0.014084670,0.999888360,-0.001893000,0.009797000,0.028161000,0.000216729,-0.000229413,-0.000007226,0.008802716,-0.008534416,-0.001523000,0.008500659,-0.004757703,1.000959327,-0.000657681,0.000485448,-0.000937439,0.000000000,0.000000000,0.000000000,0.000000000,0.016329759,0.005454820,0.053811404,0.014934967,0.000036705,-0.001329170,0.006240240,0.000032435,0.001396929,-0.171356554,0.158591479,1.074262901,-0.001482325,-0.001397929,0.009372478,0.999953112,0.000000000,0.000000000,0.000000000,0.000000000,0.000000000,0.000000000,-0.022204515,0.000000000,4.101466179
1772689961.142906427,0.016049000,0.005434000,0.053830000,-0.000902320,0.004812510,0.014026390,0.999889640,-0.001670000,0.009649000,0.028046000,0.000275855,-0.000143075,0.000339758,-0.003312803,0.014936138,-0.006142474,0.009355687,-0.003008754,1.003506527,-0.002351947,-0.002497599,-0.002083141,0.000000000,0.000000000,0.000000000,0.000000000,0.016331609,0.005448587,0.053809868,0.015081828,-0.000022244,-0.001085260,0.006106505,-0.000586578,0.002273127,-0.171855035,0.156991508,1.072929699,-0.001486822,-0.001383991,0.009360859,0.999953186,0.000000000,0.000000000,0.000000000,0.000000000,0.000000000,0.000000000,-0.022204515,0.000000000,4.101466179
1772689961.152906656,0.016046000,0.005442000,0.053825000,-0.000882500,0.004654240,0.014002090,0.999890740,-0.001635000,0.009332000,0.027998000,-0.000046015,-0.000047802,0.000730310,-0.012469979,0.026911892,-0.010988205,0.007669173,-0.001453713,1.001066509,0.001115641,0.001304824,0.000341987,0.000000000,0.000000000,0.000000000,0.000000000,0.016339261,0.005444170,0.053809312,0.015253569,-0.000017216,-0.000789194,0.005779397,-0.001002615,0.000814838,-0.172442369,0.158598950,1.071569873,-0.001491832,-0.001398048,0.009348962,0.999953210,0.000000000,0.000000000,0.000000000,0.000000000,0.000000000,0.000000000,-0.022204515,0.000000000,4.101466179
1772689961.162907124,0.016062000,0.005446000,0.053838000,-0.000906500,0.004908470,0.014060140,0.999888690,-0.001675000,0.009841000,0.028113000,-0.000134975,0.000184097,0.000831313,-0.019381027,0.026240113,-0.011862999,0.006605747,-0.004070952,0.999466119,0.000399681,-0.002507625,0.000661577,0.000000000,0.000000000,0.000000000,0.000000000,0.016335682,0.005443009,0.053814524,0.015176375,0.000066150,-0.000585714,0.005452282,-0.001418662,-0.000643486,-0.172435345,0.159290872,1.071487866,-0.001491715,-0.001404084,0.009348240,0.999953252,0.000000000,0.000000000,0.000000000,0.000000000,0.000000000,0.000000000,-0.022204515,0.000000000,4.101466179
1772689961.172907591,0.016028000,0.005443000,0.053874000,-0.001446250,0.005736440,0.013754320,0.999887900,-0.002735000,0.011512000,0.027494000,-0.000257965,0.000223819,0.000355239,-0.017467850,0.018434482,-0.008266236,0.008588667,-0.003421392,0.999913094,0.003434754,-0.000431845,0.001582866,0.000000000,0.000000000,0.000000000,0.000000000,0.016333399,0.005446378,0.053824251,0.015172795,-0.000045237,-0.000583477,0.005808978,-0.001262162,-0.001734482,-0.172086761,0.159579132,1.070550990,-0.001488662,-0.001406559,0.009340065,0.999953350,0.000000000,0.000000000,0.000000000,0.000000000,0.000000000,0.000000000,-0.022204515,0.000000000,4.101466179
1772689961.182908058,0.016044000,0.005452000,0.053853000,-0.001332690,0.005347420,0.013873960,0.999888560,-0.002517000,0.010731000,0.027736000,-0.000287917,0.000052250,-0.000521506,-0.005482813,0.000659350,0.000992580,0.008958431,-0.003598248,0.998175004,-0.001600702,0.001109210,0.003314956,0.000000000,0.000000000,0.000000000,0.000000000,0.016333570,0.005450209,0.053823293,0.015310889,-0.000067560,-0.000549777,0.007324735,-0.000135192,-0.002202859,-0.172593915,0.159716419,1.069447932,-0.001493089,-0.001407784,0.009330431,0.999953455,0.000000000,0.000000000,0.000000000,0.000000000,0.000000000,0.000000000,-0.022204515,0.000000000,4.101466179
1772689961.192909241,0.016041000,0.005445000,0.053846000,-0.001213870,0.005057710,0.013828190,0.999890860,-0.002288000,0.010148000,0.027646000,0.000084881,-0.000254916,-0.001020519,0.015388002,-0.027120195,0.012142331,0.008785471,-0.005664673,0.998799165,-0.002991901,0.002048102,0.003120716,0.000000000,0.000000000,0.000000000,0.000000000,0.016336652,0.005445432,0.053819478,0.015511915,-0.000177388,-0.000728026,0.005617494,-0.002369117,-0.001443193,-0.171838901,0.159137680,1.068735260,-0.001486557,-0.001402663,0.009324229,0.999953523,0.000000000,0.000000000,0.000000000,0.000000000,0.000000000,0.000000000,-0.022204515,0.000000000,4.101466179
1772689961.202909946,0.016041000,0.005446000,0.053831000,-0.001087910,0.004980490,0.013963450,0.999889510,-0.002037000,0.009990000,0.027918000,-0.000099352,-0.000227354,-0.000729611,0.018122387,-0.025572885,0.012560733,0.008504405,-0.005040401,0.999816325,-0.002027068,0.000307631,-0.000455295,0.000000000,0.000000000,0.000000000,0.000000000,0.016342483,0.005437139,0.053817120,0.015591075,-0.000474407,-0.000786946,0.006021805,-0.001496343,-0.000486212,-0.172132223,0.157427306,1.067812282,-0.001489267,-0.001387750,0.009316193,0.999953643,0.000000000,0.000000000,0.000000000,0.000000000,0.000000000,0.000000000,-0.022204515,0.000000000,4.101466179
1772689961.212910652,0.016038000,0.005437000,0.053818000,-0.001058830,0.004908880,0.014049790,0.999888690,-0.001980000,0.009847000,0.028091000,0.000015636,-0.000154418,-0.000036652,0.013599683,-0.022839950,0.010025741,0.008047299,-0.002993748,0.999990149,-0.000152787,-0.001431000,-0.002129218,0.000000000,0.000000000,0.000000000,0.000000000,0.016345928,0.005434864,0.053814458,0.015687244,-0.000556546,-0.000780499,0.006007905,0.000097449,0.000569863,-0.172292510,0.156420178,1.066480378,-0.001490763,-0.001378957,0.009304582,0.999953806,0.000000000,0.000000000,0.000000000,0.000000000,0.000000000,0.000000000,-0.022204515,0.000000000,4.101466179
1772689961.222910881,0.016041000,0.005441000,0.053816000,-0.000930710,0.004892260,0.014106220,0.999888100,-0.001723000,0.009810000,0.028205000,-0.000483532,0.000024280,0.001091628,-0.014534280,0.013648512,-0.009788552,0.007553598,-0.003377354,0.999774425,0.002683465,-0.001431992,0.001561479,0.000000000,0.000000000,0.000000000,0.000000000,0.016354890,0.005435322,0.053820006,0.015783647,-0.000509779,-0.000658244,0.005148429,0.000229972,0.000052927,-0.172470745,0.155900345,1.064581014,-0.001492384,-0.001374410,0.009288013,0.999953861,0.000000000,0.000000000,0.000000000,0.000000000,0.000000000,0.000000000,-0.022204515,0.000000000,4.101466179
1772689961.232911110,0.016046000,0.005437000,0.053851000,-0.000959990,0.004815320,0.014070650,0.999888950,-0.001784000,0.009657000,0.028134000,-0.000436818,0.000187341,0.001136419,-0.029298198,0.030145262,-0.021117632,0.006021144,-0.004195349,0.998156568,0.000741286,-0.000857493,0.000595704,0.000000000,0.000000000,0.000000000,0.000000000,0.016342804,0.005434793,0.053842023,0.015684375,-0.000529513,-0.000608090,0.004539331,-0.000071207,-0.000187739,-0.171993046,0.156703215,1.063639270,-0.001488162,-0.001381365,0.009279791,0.999953981,0.000000000,0.000000000,0.000000000,0.000000000,0.000000000,0.000000000,-0.022204515,0.000000000,4.101466179
1772689961.242912054,0.016011000,0.005448000,0.053876000,-0.001487790,0.005499340,0.013721070,0.999889630,-0.002825000,0.011039000,0.027428000,-0.000081638,0.000208824,0.000380121,-0.021852609,0.021897496,-0.020325367,0.006111987,-0.003295544,0.999855262,0.002077499,-0.004076630,0.000042281,0.000000000,0.000000000,0.000000000,0.000000000,0.016343499,0.005437561,0.053840183,0.015505704,-0.000599255,-0.000795046,0.004219705,-0.000222522,0.000465523,-0.171947466,0.154733952,1.062189226,-0.001487941,-0.001364159,0.009267163,0.999954110,0.000000000,0.000000000,0.000000000,0.000000000,0.000000000,0.000000000,-0.022204515,0.000000000,4.101466179
1772689961.252912283,0.016037000,0.005446000,0.053857000,-0.001353750,0.004861020,0.013766510,0.999892500,-0.002574000,0.009758000,0.027522000,-0.000206435,0.000128915,-0.000199947,-0.015104648,0.026989811,-0.017533496,0.005750618,-0.003260090,1.001164344,0.003441396,-0.002163712,0.001047142,0.000000000,0.000000000,0.000000000,0.000000000,0.016341368,0.005435453,0.053835748,0.015410263,-0.000605633,-0.000739115,0.002599431,-0.000251432,0.001125424,-0.171874075,0.154750644,1.061138639,-0.001487311,-0.001364285,0.009257996,0.999954157,0.000000000,0.000000000,0.000000000,0.000000000,0.000000000,0.000000000,-0.022204515,0.000000000,4.101466179
1772689961.262912750,0.016018000,0.005450000,0.053862000,-0.001708680,0.005768780,0.013491820,0.999890880,-0.003262000,0.011583000,0.026966000,-0.000009420,-0.000026649,-0.000942144,-0.000280338,0.010783113,-0.005902458,0.007027833,-0.004438856,1.000674311,0.000277989,0.000464619,0.001187440,0.000000000,0.000000000,0.000000000,0.000000000,0.016338009,0.005434424,0.053826134,0.015162548,-0.000624068,-0.000614801,0.003099494,-0.001466627,0.000955917,-0.170664104,0.155549385,1.060650312,-0.001476694,-0.001371151,0.009253740,0.999954219,0.000000000,0.000000000,0.000000000,0.000000000,0.000000000,0.000000000,-0.022204515,0.000000000,4.101466179
1772689961.272913456,0.016036000,0.005442000,0.053823000,-0.001368100,0.005425590,0.013719470,0.999890230,-0.002587000,0.010888000,0.027426000,-0.000198005,-0.000016976,-0.000617672,0.004153569,0.003725496,0.000514619,0.007710653,-0.004281452,0.999535857,-0.000124466,-0.000482177,0.001061484,0.000000000,0.000000000,0.000000000,0.000000000,0.016333639,0.005428355,0.053815677,0.015102235,-0.000839856,-0.000581652,0.005000773,-0.001634899,-0.000048454,-0.168326274,0.156502908,1.059588228,-0.001456229,-0.001379269,0.009244486,0.999954277,0.000000000,0.000000000,0.000000000,0.000000000,0.000000000,0.000000000,-0.022204515,0.000000000,4.101466179
1772689961.282914400,0.016042000,0.005446000,0.053815000,-0.001070000,0.005075350,0.013878310,0.999890240,-0.001999000,0.010179000,0.027748000,0.000018142,-0.000077034,0.000093525,0.000480120,0.003462729,0.001759893,0.007391402,-0.002334299,0.999049249,-0.000756382,0.000611091,0.002336627,0.000000000,0.000000000,0.000000000,0.000000000,0.016333256,0.005426335,0.053810191,0.015169260,-0.000904578,-0.000632973,0.005019683,-0.000222166,-0.000732900,-0.167552225,0.156893690,1.059636190,-0.001449443,-0.001382617,0.009244910,0.999954283,0.000000000,0.000000000,0.000000000,0.000000000,0.000000000,0.000000000,-0.022204515,0.000000000,4.101466179
1772689961.292914629,0.016005000,0.005442000,0.053857000,-0.001527410,0.005731280,0.013565070,0.999890400,-0.002899000,0.011503000,0.027115000,0.000072936,0.000053454,0.000615846,-0.010427537,0.011594902,-0.002179453,0.006277226,-0.002536312,0.998749144,0.002803675,-0.001502812,0.004039807,0.000000000,0.000000000,0.000000000,0.000000000,0.016335287,0.005423927,0.053822536,0.015123476,-0.000836535,-0.000609732,0.004075893,0.000937839,-0.001139810,-0.167953434,0.156514646,1.059229213,-0.001452979,-0.001379337,0.009241358,0.999954283,0.000000000,0.000000000,0.000000000,0.000000000,0.000000000,0.000000000,-0.022204515,0.000000000,4.101466179
1772689961.302915573,0.016036000,0.005448000,0.053841000,-0.001361210,0.005104430,0.013770420,0.999891230,-0.002582000,0.010245000,0.027529000,0.000412228,0.000137325,0.000509638,-0.007027878,-0.011668300,0.000528842,0.007136911,-0.001803877,0.999570234,0.000903600,0.002838706,-0.001418725,0.000000000,0.000000000,0.000000000,0.000000000,0.016323247,0.005427394,0.053840474,0.015040669,-0.000706604,-0.000594024,0.003903107,0.001101365,-0.001624568,-0.167554922,0.156225201,1.059525488,-0.001449522,-0.001376783,0.009243952,0.999954318,0.000000000,0.000000000,0.000000000,0.000000000,0.000000000,0.000000000,-0.022204515,0.000000000,4.101466179
1772689961.312916517,0.016013000,0.005450000,0.053879000,-0.001761150,0.005663290,0.013549210,0.999890620,-0.003369000,0.011373000,0.027081000,0.000404633,0.000250720,0.000061864,0.002704091,-0.017689499,0.005606404,0.005118793,-0.002479103,1.000106495,-0.001124794,0.002072719,-0.001319542,0.000000000,0.000000000,0.000000000,0.000000000,0.016320008,0.005430739,0.053846386,0.014934453,-0.000586794,-0.000613931,0.003069752,0.000832238,-0.000997680,-0.166992035,0.155897113,1.058991727,-0.001444642,-0.001373868,0.009239305,0.999954431,0.000000000,0.000000000,0.000000000,0.000000000,0.000000000,0.000000000,-0.022204515,0.000000000,4.101466179
1772689961.322917461,0.016057000,0.005446000,0.053841000,-0.001504600,0.005473330,0.013684530,0.999890250,-0.002859000,0.010987000,0.027355000,0.000196004,0.000089601,-0.000372682,0.013760968,-0.026591975,0.009217662,0.005138310,-0.002445322,0.998888079,-0.001130802,-0.001090604,-0.000719956,0.000000000,0.000000000,0.000000000,0.000000000,0.016316970,0.005433948,0.053847149,0.014769304,-0.000489205,-0.000639402,0.002290715,0.000618020,-0.000517471,-0.167117736,0.154978001,1.057595414,-0.001445830,-0.001365840,0.009227131,0.999954586,0.000000000,0.000000000,0.000000000,0.000000000,0.000000000,0.000000000,-0.022204515,0.000000000,4.101466179
1772689961.332918882,0.016045000,0.005452000,0.053838000,-0.001311350,0.005102420,0.013813810,0.999890710,-0.002482000,0.010240000,0.027616000,0.000017695,0.000026552,-0.000636727,0.023082684,-0.040079797,0.013687787,0.006154263,-0.003205554,0.998001813,-0.000547334,-0.003334603,0.000710158,0.000000000,0.000000000,0.000000000,0.000000000,0.016312871,0.005435854,0.053840340,0.014603207,-0.000435786,-0.000747763,0.003061230,-0.000269850,-0.001719548,-0.167365735,0.154217389,1.055837648,-0.001448077,-0.001359200,0.009211799,0.999954700,0.000000000,0.000000000,0.000000000,0.000000000,0.000000000,0.000000000,-0.022204515,0.000000000,4.101466179
1772689961.342919111,0.016031000,0.005453000,0.053834000,-0.001121460,0.004656830,0.013900610,0.999891910,-0.002113000,0.009344000,0.027793000,-0.000691521,-0.000081793,-0.000003127,0.007199188,-0.014195501,0.001067532,0.007643347,-0.003599769,0.999287091,-0.000614166,-0.002992562,0.001428910,0.000000000,0.000000000,0.000000000,0.000000000,0.016316315,0.005435204,0.053821005,0.014550893,-0.000463464,-0.000947384,0.004018109,-0.000762822,-0.000608375,-0.168033875,0.154087428,1.054479015,-0.001453933,-0.001358103,0.009199937,0.999954686,0.000000000,0.000000000,0.000000000,0.000000000,0.000000000,0.000000000,-0.022204515,0.000000000,4.101466179
1772689961.352920294,0.016028000,0.005451000,0.053834000,-0.001047990,0.004807760,0.013944050,0.999890670,-0.001962000,0.009644000,0.027880000,-0.000251828,-0.000057805,0.000149795,0.002914079,-0.004716135,-0.002174161,0.009290082,-0.003586165,1.000381879,0.000698762,0.001145553,-0.000578567,0.000000000,0.000000000,0.000000000,0.000000000,0.016313944,0.005435149,0.053815487,0.014615743,-0.000509819,-0.000952587,0.006184320,-0.000270957,0.000448007,-0.168710515,0.154807873,1.054135242,-0.001459784,-0.001364439,0.009196919,0.999954678,0.000000000,0.000000000,0.000000000,0.000000000,0.000000000,0.000000000,-0.022204515,0.000000000,4.101466179
1772689961.362921000,0.016009000,0.005443000,0.053864000,-0.001520740,0.005244440,0.013601410,0.999892590,-0.002899000,0.010529000,0.027189000,-0.000498877,0.000066623,0.000995501,-0.020671942,0.036943258,-0.014709561,0.009585921,-0.003894950,0.999957101,-0.001162563,0.003659900,-0.002421488,0.000000000,0.000000000,0.000000000,0.000000000,0.016305262,0.005434387,0.053825985,0.014801936,-0.000526905,-0.000831474,0.006907703,-0.000095025,-0.000430356,-0.168846718,0.155326518,1.053779330,-0.001460935,-0.001368972,0.009193805,0.999954831,0.000000000,0.000000000,0.000000000,0.000000000,0.000000000,0.000000000,-0.022204515,0.000000000,4.101466179
1772689961.372921944,0.016034000,0.005450000,0.053842000,-0.001330070,0.004913880,0.013811720,0.999891650,-0.002524000,0.009864000,0.027612000,0.000056970,-0.000048171,0.000680935,-0.029310464,0.058379082,-0.016679422,0.007613542,-0.005401767,1.000665620,-0.000563516,0.000074373,0.001606339,0.000000000,0.000000000,0.000000000,0.000000000,0.016310936,0.005436924,0.053834741,0.015044379,-0.000576623,-0.000775779,0.005679278,-0.000657784,-0.000068474,-0.169538075,0.153116844,1.052192531,-0.001467164,-0.001349724,0.009179980,0.999954959,0.000000000,0.000000000,0.000000000,0.000000000,0.000000000,0.000000000,-0.022204515,0.000000000,4.101466179
1772689961.382922411,0.016019000,0.005449000,0.053868000,-0.001619660,0.005692340,0.013526750,0.999890990,-0.003085000,0.011428000,0.027037000,0.000192294,-0.000125088,0.000199597,-0.025066343,0.041996928,-0.010103101,0.007286113,-0.004095592,1.000910044,0.001732384,0.001540174,0.003900400,0.000000000,0.000000000,0.000000000,0.000000000,0.016112683,0.005444705,0.053835447,0.013079123,-0.001004636,-0.000680074,0.005377966,-0.000855488,-0.000700610,-0.170453714,0.162475430,1.057167387,-0.001474339,-0.001431527,0.009223258,0.999953992,0.000000000,0.000000000,0.000000000,0.000000000,0.000000000,0.000000000,-0.022204515,0.000000000,4.101466179
1772689961.392923117,0.016047000,0.005451000,0.053853000,-0.001418480,0.005513210,0.013690840,0.999890070,-0.002686000,0.011064000,0.027368000,0.000344517,-0.000185340,-0.000720850,-0.000736235,0.003039632,0.003510176,0.008227971,-0.004338825,0.999157402,-0.000206679,0.001123571,0.002448364,0.000000000,0.000000000,0.000000000,0.000000000,0.016235236,0.005433250,0.053837450,0.013805721,-0.001007598,-0.000556327,0.005137968,-0.001028697,-0.001402546,-0.170598680,0.168322968,1.059950403,-0.001475100,-0.001482602,0.009247464,0.999954134,0.000000000,0.000000000,0.000000000,0.000000000,0.000000000,0.000000000,-0.022204515,0.000000000,4.101466179
1772689961.402923822,0.016005000,0.005451000,0.053874000,-0.001909540,0.006010720,0.013518010,0.999888740,-0.003656000,0.012072000,0.027015000,0.000307981,-0.000257791,-0.001069757,0.016171096,-0.012189989,0.010560047,0.007947868,-0.003721854,0.997743386,-0.000341330,-0.001575974,-0.001739807,0.000000000,0.000000000,0.000000000,0.000000000,0.016270387,0.005430965,0.053846719,0.014166775,-0.001090437,-0.000649831,0.005338836,-0.000912258,-0.001688481,-0.169389807,0.167073909,1.059280258,-0.001464661,-0.001471596,0.009241648,0.999954164,0.000000000,0.000000000,0.000000000,0.000000000,0.000000000,0.000000000,-0.022204515,0.000000000,4.101466179
