t,px,py,pz,qx,qy,qz,qw,roll,pitch,yaw,vx,vy,vz,wx_vicon,wy_vicon,wz_vicon,imu_acc_x,imu_acc_y,imu_acc_z,imu_gyro_x,imu_gyro_y,imu_gyro_z,motor_motor_m1,motor_motor_m2,motor_motor_m3,motor_motor_m4,est_stateEstimate_x,est_stateEstimate_y,est_stateEstimate_z,est_stateEstimate_vx,est_stateEstimate_vy,est_stateEstimate_vz,est_stateEstimate_ax,est_stateEstimate_ay,est_stateEstimate_az,att_stateEstimate_roll,att_stateEstimate_pitch,att_stateEstimate_yaw,att_stateEstimate_qx,att_stateEstimate_qy,att_stateEstimate_qz,att_stateEstimate_qw,sp_ctrltarget_x,sp_ctrltarget_y,sp_ctrltarget_z,sp_ctrltarget_yaw,pid_controller_roll,pid_controller_pitch,pid_controller_yaw,pid_controller_cmd_thrust,pwr_pm_vbat
1772714580.143255711,0.014863000,0.007625000,0.075537000,-0.003215410,0.005885900,0.025000750,0.999664930,-0.006135000,0.011929000,0.049971000,0.000454507,-0.000917153,-0.001539609,-0.003911564,0.013419241,0.030620201,0.010732655,-0.004820354,0.998414061,-0.001332654,-0.000195388,-0.002231895,0.000000000,0.000000000,0.000000000,0.000000000,0.015042459,0.007631043,0.075511633,0.018457640,0.000356449,-0.002148120,0.007241004,-0.001006739,-0.001732372,-0.221743546,0.245862294,2.231987579,-0.001892915,-0.002182831,0.019472285,0.999805294,0.000000000,0.000000000,0.000000000,0.000000000,0.000000000,0.000000000,2.235604914,0.000000000,4.209489144
1772714580.153255939,0.014862000,0.007620000,0.075518000,-0.003200990,0.006223200,0.025159000,0.999658970,-0.006087000,0.012604000,0.050286000,-0.000150971,-0.000060742,-0.000298233,0.001757969,0.016360397,0.015619015,0.010130104,-0.004046406,0.998948418,0.000759174,0.000553090,0.000374027,0.000000000,0.000000000,0.000000000,0.000000000,0.015039271,0.007631209,0.075506668,0.018501368,0.000273336,-0.002164316,0.005706141,-0.000095677,-0.001112035,-0.221802652,0.247772037,2.235903518,-0.001893031,-0.002199568,0.019506417,0.999804601,0.000000000,0.000000000,0.000000000,0.000000000,0.000000000,0.000000000,2.239646139,0.000000000,4.208937269
1772714580.163255930,0.014868000,0.007617000,0.075524000,-0.003197200,0.006149170,0.025135990,0.999660020,-0.006084000,0.012455000,0.050241000,-0.000393979,0.000294386,0.000298271,0.003441885,0.012913390,0.006274633,0.008906726,-0.002300840,0.999236385,0.001672419,0.001757757,0.002604977,0.000000000,0.000000000,0.000000000,0.000000000,0.015037903,0.007629165,0.075509256,0.018553281,0.000242279,-0.002201892,0.004680628,0.000785208,-0.000630653,-0.221353562,0.248159366,2.240976099,-0.001888949,-0.002202955,0.019550678,0.999803754,0.000000000,0.000000000,0.000000000,0.000000000,0.000000000,0.000000000,2.244071835,0.000000000,4.208385407
1772714580.173255205,0.014853000,0.007629000,0.075535000,-0.003235210,0.005974040,0.025174120,0.999660000,-0.006168000,0.012107000,0.050317000,-0.000372417,0.000290191,0.000421232,0.002321811,0.005644904,0.001326987,0.010296215,-0.004749104,0.998013256,0.000549509,-0.001398069,-0.001784706,0.000000000,0.000000000,0.000000000,0.000000000,0.015035887,0.007628979,0.075514923,0.018485295,0.000331668,-0.002169484,0.004744213,0.000685193,-0.001646906,-0.220900341,0.248730620,2.245555542,-0.001884809,-0.002207937,0.019590630,0.999802897,0.000000000,0.000000000,0.000000000,0.000000000,0.000000000,0.000000000,2.249299924,0.000000000,4.207833585
1772714580.183255196,0.014852000,0.007627000,0.075538000,-0.003172340,0.006140410,0.025252020,0.999657220,-0.006033000,0.012437000,0.050473000,-0.000184188,0.000068629,0.000241978,-0.000413425,-0.002878744,-0.000482568,0.008525653,-0.006750048,0.998774121,0.001584570,-0.001254320,0.003690254,0.000000000,0.000000000,0.000000000,0.000000000,0.015040397,0.007629555,0.075521587,0.018439064,0.000408124,-0.002194440,0.004786006,-0.002123177,-0.001792865,-0.220128434,0.250324240,2.249228600,-0.001877730,-0.002221770,0.019622667,0.999802326,0.000000000,0.000000000,0.000000000,0.000000000,0.000000000,0.000000000,2.253000357,0.000000000,4.207281723
1772714580.193254709,0.014855000,0.007628000,0.075530000,-0.003121740,0.006210000,0.025167590,0.999659080,-0.005929000,0.012573000,0.050304000,0.000072805,-0.000228341,-0.000068162,-0.003572063,-0.010092227,-0.000413225,0.009947398,-0.006003985,1.000853497,-0.000199312,0.000628834,-0.001034139,0.000000000,0.000000000,0.000000000,0.000000000,0.015046270,0.007626204,0.075516736,0.018379211,0.000237554,-0.002290156,0.005270984,-0.002490412,-0.000170449,-0.219790750,0.251471174,2.253452319,-0.001874506,-0.002231788,0.019659504,0.999801578,0.000000000,0.000000000,0.000000000,0.000000000,0.000000000,0.000000000,2.257175769,0.000000000,4.207038403
1772714580.203255415,0.014853000,0.007619000,0.075531000,-0.003257940,0.006140610,0.025180790,0.999658750,-0.006205000,0.012441000,0.050330000,0.000275097,-0.000341997,-0.000139511,-0.004483219,-0.004221060,-0.001820346,0.010182274,-0.004477569,1.002022157,0.001081037,-0.000318578,-0.002023034,0.000000000,0.000000000,0.000000000,0.000000000,0.015045227,0.007626565,0.075507592,0.018328275,0.000055006,-0.002279710,0.006056924,-0.001476766,0.001708023,-0.220236817,0.252235971,2.256237369,-0.001878212,-0.002238583,0.019683780,0.999801033,0.000000000,0.000000000,0.000000000,0.000000000,0.000000000,0.000000000,2.260257292,0.000000000,4.207038403
1772714580.213255167,0.014869000,0.007612000,0.075520000,-0.003281760,0.006119450,0.025182010,0.999658770,-0.006254000,0.012400000,0.050332000,0.000207479,-0.000094017,-0.000018726,-0.003314050,0.000837763,-0.002253947,0.009526541,-0.005410190,1.001606281,0.001804533,-0.001782310,0.001958138,0.000000000,0.000000000,0.000000000,0.000000000,0.015042091,0.007627417,0.075505373,0.018329019,-0.000052834,-0.002106230,0.005033281,-0.001013722,0.001625950,-0.219744826,0.253856538,2.258808867,-0.001873590,-0.002252680,0.019706199,0.999800620,0.000000000,0.000000000,0.000000000,0.000000000,0.000000000,0.000000000,2.262693804,0.000000000,4.207038403
1772714580.223255634,0.014856000,0.007621000,0.075530000,-0.003240850,0.005862870,0.025221320,0.999659450,-0.006184000,0.011886000,0.050412000,-0.000104390,0.000282829,0.000144328,-0.001984311,0.003670787,-0.000475367,0.008925618,-0.004226475,1.000662021,0.000077889,0.002690242,-0.000327759,0.000000000,0.000000000,0.000000000,0.000000000,0.015041221,0.007624282,0.075511698,0.018329258,-0.000128412,-0.001833789,0.004254297,-0.000680854,0.001061360,-0.218752549,0.255571068,2.262039575,-0.001864574,-0.002267521,0.019734377,0.999799914,0.000000000,0.000000000,0.000000000,0.000000000,0.000000000,0.000000000,2.263059309,0.000000000,4.207038403
1772714580.233254910,0.014864000,0.007614000,0.075532000,-0.003273420,0.006029620,0.025154390,0.999660030,-0.006242000,0.012220000,0.050277000,-0.000206663,0.000330031,0.000243745,0.001339970,0.007380936,0.000655699,0.009934898,-0.003366159,0.999653188,-0.002096512,-0.003459481,-0.002139131,0.000000000,0.000000000,0.000000000,0.000000000,0.015041673,0.007619416,0.075520816,0.018262941,-0.000201923,-0.001610743,0.004750128,0.000515819,-0.000002494,-0.218173770,0.255337270,2.259264997,-0.001859619,-0.002265336,0.019710187,0.999800403,0.000000000,0.000000000,0.000000000,0.000000000,0.000000000,0.000000000,2.261134393,0.000000000,4.207038403
1772714580.243255138,0.014859000,0.007629000,0.075541000,-0.003241500,0.006305930,0.025121340,0.999659270,-0.006165000,0.012771000,0.050210000,-0.000080925,0.000170727,0.000056488,0.002301495,0.005517034,-0.003057456,0.008723800,-0.004357842,1.000635825,-0.000246301,-0.000114984,-0.001201449,0.000000000,0.000000000,0.000000000,0.000000000,0.015042520,0.007618008,0.075528588,0.018181255,-0.000167257,-0.001474912,0.003986484,-0.000049739,0.000253083,-0.218033185,0.256613707,2.256291007,-0.001858232,-0.002276401,0.019684219,0.999800882,0.000000000,0.000000000,0.000000000,0.000000000,0.000000000,0.000000000,2.258367337,0.000000000,4.207038403
1772714580.253256083,0.014846000,0.007638000,0.075530000,-0.003208550,0.006292940,0.025225000,0.999656840,-0.006098000,0.012744000,0.050418000,0.000035276,0.000027001,-0.000088248,0.001001865,-0.001719984,-0.004489254,0.009476472,-0.005990600,1.000605832,0.000504481,-0.003788947,-0.001025610,0.000000000,0.000000000,0.000000000,0.000000000,0.015040966,0.007620402,0.075523066,0.018114763,-0.000098325,-0.001429488,0.005418159,-0.001875825,0.000435197,-0.217113813,0.255919059,2.254268753,-0.001850370,-0.002270149,0.019666603,0.999801313,0.000000000,0.000000000,0.000000000,0.000000000,0.000000000,0.000000000,2.257832504,0.000000000,4.207038403
1772714580.263256073,0.014856000,0.007624000,0.075530000,-0.003243930,0.006114680,0.025163790,0.999659380,-0.006178000,0.012389000,0.050296000,0.000097300,-0.000175758,-0.000208392,0.000576838,-0.009187977,-0.001887107,0.009105504,-0.005281946,0.999783730,-0.000325220,-0.000611985,0.002709282,0.000000000,0.000000000,0.000000000,0.000000000,0.015040708,0.007618922,0.075514539,0.018019936,-0.000196793,-0.001327662,0.004644120,-0.001239108,0.000531973,-0.216933029,0.258143369,2.257138369,-0.001848353,-0.002289572,0.019691607,0.999800764,0.000000000,0.000000000,0.000000000,0.000000000,0.000000000,0.000000000,2.258526739,0.000000000,4.207038403
1772714580.273255825,0.014864000,0.007614000,0.075531000,-0.003245140,0.005974040,0.025103330,0.999661740,-0.006189000,0.012107000,0.050176000,-0.000002506,-0.000156818,-0.000212588,0.001547851,-0.016056476,0.000691863,0.008771681,-0.004916298,0.998652050,-0.001232467,-0.000382929,-0.000335558,0.000000000,0.000000000,0.000000000,0.000000000,0.015147359,0.007622661,0.075508599,0.012687292,-0.000031516,-0.001317732,0.004212484,-0.000257074,-0.001340757,-0.216985213,0.270075456,2.260602588,-0.001846667,-0.002393743,0.019721626,0.999799975,0.000000000,0.000000000,0.000000000,0.000000000,0.000000000,0.000000000,2.253375792,0.000000000,4.207038403
1772714580.283256054,0.014866000,0.007617000,0.075523000,-0.003245660,0.005955080,0.025078860,0.999662470,-0.006191000,0.012069000,0.050127000,-0.000040521,-0.000139530,-0.000127098,0.002019452,-0.007705620,0.002563122,0.010763366,-0.002559176,0.998996539,0.003098769,0.000219790,-0.000309943,0.000000000,0.000000000,0.000000000,0.000000000,0.014875588,0.007620959,0.075529009,0.010533412,0.000360046,-0.001425039,0.003711017,0.001735044,-0.001587635,-0.218843705,0.319442432,2.276291208,-0.001854005,-0.002825039,0.019857625,0.999796312,0.000000000,0.000000000,0.000000000,0.000000000,0.000000000,0.000000000,2.277779428,0.000000000,4.207038403
1772714580.293255568,0.014855000,0.007629000,0.075530000,-0.003169780,0.005975020,0.025166400,0.999660390,-0.006037000,0.012106000,0.050303000,-0.000030536,-0.000120688,0.000053089,0.003256281,0.003633465,0.004727111,0.010994517,-0.002473385,0.999687376,0.002314719,-0.001428298,-0.001522782,0.000000000,0.000000000,0.000000000,0.000000000,0.014898085,0.007621078,0.075524279,0.010732203,0.000444908,-0.001476621,0.004263162,0.001079860,-0.000539409,-0.218875999,0.324965764,2.277469659,-0.001853308,-0.002873254,0.019867813,0.999796108,0.000000000,0.000000000,0.000000000,0.000000000,0.000000000,0.000000000,2.276496310,0.000000000,4.207038403
1772714580.303255081,0.014848000,0.007619000,0.075531000,-0.003198940,0.006027290,0.025254250,0.999657770,-0.006092000,0.012212000,0.050478000,-0.000154468,0.000046115,0.000209344,0.004135248,0.001603394,0.009018953,0.009943761,-0.005073295,1.000102802,0.001119503,-0.002148083,-0.000397159,0.000000000,0.000000000,0.000000000,0.000000000,0.014934249,0.007624336,0.075517918,0.011169014,0.000606740,-0.001529100,0.003721453,-0.000171203,-0.000184924,-0.217884948,0.325424113,2.275235137,-0.001844637,-0.002877046,0.019848334,0.999796579,0.000000000,0.000000000,0.000000000,0.000000000,0.000000000,0.000000000,2.274308627,0.000000000,4.207038403
1772714580.313254833,0.014858000,0.007623000,0.075524000,-0.003168300,0.006068190,0.025203910,0.999658890,-0.006029000,0.012292000,0.050377000,0.000122572,-0.000208605,0.000258916,0.001935647,-0.001303737,0.005882458,0.008973030,-0.002567082,1.000604135,-0.001504919,0.004146656,0.002487827,0.000000000,0.000000000,0.000000000,0.000000000,0.014950753,0.007627321,0.075517007,0.011567094,0.000627774,-0.001483048,0.003133735,0.000368881,-0.000296395,-0.216001823,0.326148085,2.272395848,-0.001828153,-0.002882990,0.019823598,0.999797040,0.000000000,0.000000000,0.000000000,0.000000000,0.000000000,0.000000000,2.271390461,0.000000000,4.207038403
1772714580.323255062,0.014856000,0.007617000,0.075534000,-0.003166760,0.006089680,0.025260470,0.999657340,-0.006024000,0.012335000,0.050490000,0.000215987,-0.000260451,0.000258256,-0.000284831,-0.004357317,0.001442851,0.008688055,-0.002673097,1.000184729,0.002222195,0.000284171,0.000348589,0.000000000,0.000000000,0.000000000,0.000000000,0.014960555,0.007627917,0.075514933,0.011768682,0.000679630,-0.001430843,0.002984458,0.001539898,-0.000073303,-0.215182921,0.325482095,2.270327483,-0.001821176,-0.002877005,0.019805583,0.999797347,0.000000000,0.000000000,0.000000000,0.000000000,0.000000000,0.000000000,2.269939118,0.000000000,4.207038403
1772714580.333254337,0.014867000,0.007606000,0.075537000,-0.003170110,0.005929440,0.025246280,0.999658650,-0.006039000,0.012015000,0.050463000,0.000115404,-0.000085975,0.000012529,-0.001794465,-0.003056183,-0.004646638,0.011132143,-0.003517414,1.000023702,-0.000374830,0.005888408,0.000956801,0.000000000,0.000000000,0.000000000,0.000000000,0.014964978,0.007628268,0.075514263,0.011841036,0.000748209,-0.001401831,0.003407284,0.001268013,0.000243852,-0.215100724,0.324256827,2.269462166,-0.001820692,-0.002866287,0.019798057,0.999797673,0.000000000,0.000000000,0.000000000,0.000000000,0.000000000,0.000000000,2.267642104,0.000000000,4.207038403
1772714580.343254328,0.014857000,0.007623000,0.075542000,-0.003165920,0.005814510,0.025252540,0.999659180,-0.006036000,0.011785000,0.050476000,-0.000162821,0.000115773,-0.000038073,-0.002247891,0.002962442,-0.008259249,0.010652168,-0.003602547,0.999934763,0.000293458,0.005188532,0.001295066,0.000000000,0.000000000,0.000000000,0.000000000,0.014966121,0.007627861,0.075515102,0.011865359,0.000780052,-0.001382248,0.004002459,0.000935480,-0.000096719,-0.214906598,0.324191655,2.268838935,-0.001819025,-0.002865675,0.019792625,0.999797784,0.000000000,0.000000000,0.000000000,0.000000000,0.000000000,0.000000000,2.266655168,0.000000000,4.207038403
1772714580.353253841,0.014865000,0.007609000,0.075529000,-0.003221170,0.006088330,0.025136000,0.999660310,-0.006135000,0.012335000,0.050241000,-0.000335432,0.000164239,-0.000128827,-0.005743227,0.011368260,-0.010468278,0.010172216,-0.003687676,0.999845828,0.000961715,0.004488690,0.001633315,0.000000000,0.000000000,0.000000000,0.000000000,0.014967264,0.007627455,0.075515940,0.011889680,0.000811893,-0.001362666,0.004597605,0.000602962,-0.000437275,-0.214712480,0.324126486,2.268215733,-0.001817358,-0.002865063,0.019787193,0.999797896,0.000000000,0.000000000,0.000000000,0.000000000,0.000000000,0.000000000,2.266125864,0.000000000,4.207038403
1772714580.363253593,0.014848000,0.007625000,0.075532000,-0.003219740,0.006068580,0.025139980,0.999660340,-0.006133000,0.012295000,0.050249000,-0.000147747,0.000155284,-0.000283644,-0.005342056,0.017909614,-0.012073354,0.009692253,-0.003772808,0.999756891,0.001629987,0.003788830,0.001971573,0.000000000,0.000000000,0.000000000,0.000000000,0.014968408,0.007627048,0.075516779,0.011914002,0.000843734,-0.001343083,0.005192765,0.000270437,-0.000777838,-0.214518358,0.324061316,2.267592517,-0.001815691,-0.002864451,0.019781761,0.999798007,0.000000000,0.000000000,0.000000000,0.000000000,0.000000000,0.000000000,2.265596546,0.000000000,4.207038403
1772714580.373253107,0.014851000,0.007621000,0.075525000,-0.003243060,0.006166500,0.025023170,0.999662590,-0.006176000,0.012491000,0.050014000,0.000241006,0.000017852,-0.000084052,-0.004859155,0.013887222,-0.008823764,0.009212301,-0.003857937,0.999667956,0.002298244,0.003088988,0.002309822,0.000000000,0.000000000,0.000000000,0.000000000,0.014972707,0.007624243,0.075518732,0.012071286,0.000869470,-0.001319854,0.004457448,-0.000191043,-0.000514640,-0.214308756,0.323376632,2.266685648,-0.001814004,-0.002858427,0.019773865,0.999798119,0.000000000,0.000000000,0.000000000,0.000000000,0.000000000,0.000000000,2.265067241,0.000000000,4.207038403
1772714580.383253098,0.014855000,0.007617000,0.075534000,-0.003292520,0.006245500,0.025010970,0.999662250,-0.006271000,0.012652000,0.049989000,0.000451282,-0.000125369,0.000076360,-0.000284421,0.001348062,-0.003579279,0.007667969,-0.004527022,1.001167397,0.000942989,0.000095276,0.003684073,0.000000000,0.000000000,0.000000000,0.000000000,0.014977982,0.007623283,0.075522917,0.012315725,0.000868657,-0.001271021,0.002424815,-0.000555794,0.000451444,-0.213848936,0.320061784,2.264213889,-0.001810625,-0.002829386,0.019752365,0.999798643,0.000000000,0.000000000,0.000000000,0.000000000,0.000000000,0.000000000,2.263316874,0.000000000,4.207038403
1772714580.393253088,0.014862000,0.007620000,0.075530000,-0.003329930,0.006237620,0.025004730,0.999662330,-0.006346000,0.012638000,0.049976000,0.000220241,0.000108081,0.000130167,0.001842828,-0.006832079,0.001952957,0.010088645,-0.004237776,0.997574666,0.000140282,-0.000399234,-0.000099927,0.000000000,0.000000000,0.000000000,0.000000000,0.014981633,0.007622796,0.075522396,0.012402346,0.000806672,-0.001164797,0.003814438,-0.000635046,-0.001144810,-0.212716758,0.319290137,2.261589468,-0.001800945,-0.002822418,0.019729511,0.999799103,0.000000000,0.000000000,0.000000000,0.000000000,0.000000000,0.000000000,2.260775788,0.000000000,4.207038403
1772714580.403253555,0.014872000,0.007615000,0.075529000,-0.003233180,0.006158020,0.025029480,0.999662520,-0.006156000,0.012474000,0.050027000,0.000107926,0.000172844,0.000002953,0.002071405,-0.014750853,0.004142012,0.008952810,-0.003682700,0.998007132,0.001371949,-0.004927386,0.000165654,0.000000000,0.000000000,0.000000000,0.000000000,0.014978234,0.007626280,0.075521084,0.012582633,0.000759201,-0.001273968,0.003738184,-0.000104055,-0.001833729,-0.212393209,0.318589163,2.259093868,-0.001798304,-0.002816207,0.019707757,0.999799528,0.000000000,0.000000000,0.000000000,0.000000000,0.000000000,0.000000000,2.257863142,0.000000000,4.207038403
1772714580.413253546,0.014873000,0.007621000,0.075538000,-0.003247560,0.005960160,0.025070540,0.999662640,-0.006195000,0.012079000,0.050110000,-0.000322009,0.000283936,0.000005167,0.000802032,-0.018568280,0.005687386,0.008795716,-0.002333611,0.997262529,0.000536145,-0.004133850,-0.001821610,0.000000000,0.000000000,0.000000000,0.000000000,0.014976756,0.007627658,0.075517546,0.012697938,0.000746262,-0.001400586,0.002949442,0.001153934,-0.002829901,-0.212354035,0.318712064,2.257037123,-0.001797991,-0.002817240,0.019689810,0.999799884,0.000000000,0.000000000,0.000000000,0.000000000,0.000000000,0.000000000,2.256340621,0.000000000,4.207038403
1772714580.423253536,0.014849000,0.007625000,0.075530000,-0.003164840,0.005975580,0.025103410,0.999661990,-0.006028000,0.012106000,0.050177000,-0.000453944,0.000134907,0.000058333,0.000229567,-0.018763897,0.000662188,0.007760211,-0.002651036,0.996598774,0.001551744,-0.007990868,0.003367876,0.000000000,0.000000000,0.000000000,0.000000000,0.014978185,0.007626866,0.075517028,0.012789817,0.000842504,-0.001589080,0.002637817,0.001036488,-0.002912393,-0.211779699,0.319546027,2.255068684,-0.001792886,-0.002824387,0.019672636,0.999800303,0.000000000,0.000000000,0.000000000,0.000000000,0.000000000,0.000000000,2.253588258,0.000000000,4.207038403
1772714580.433253288,0.014847000,0.007633000,0.075528000,-0.003294890,0.005966130,0.025087810,0.999662020,-0.006289000,0.012094000,0.050144000,-0.000377895,-0.000042910,0.000045357,-0.000868949,-0.015847967,-0.002312808,0.009833991,-0.002376181,0.998222448,-0.001560149,-0.000870755,0.001773344,0.000000000,0.000000000,0.000000000,0.000000000,0.014981849,0.007627144,0.075516020,0.012827415,0.000938460,-0.001798035,0.003239505,0.000888655,-0.001881320,-0.211137299,0.320059011,2.252512349,-0.001787256,-0.002828712,0.019650339,0.999800533,0.000000000,0.000000000,0.000000000,0.000000000,0.000000000,0.000000000,2.252013696,0.000000000,4.207325640
1772714580.443253517,0.014857000,0.007626000,0.075532000,-0.003263570,0.005679040,0.025069680,0.999664250,-0.006241000,0.011518000,0.050110000,-0.000085470,-0.000055517,-0.000207051,-0.000292038,-0.005806505,-0.002442798,0.009036671,-0.003856418,0.998678449,0.002150114,-0.000573942,0.002064731,0.000000000,0.000000000,0.000000000,0.000000000,0.014987970,0.007627113,0.075513754,0.012922001,0.001042516,-0.001937159,0.004046318,0.001016934,-0.001478561,-0.211057286,0.321134940,2.250866293,-0.001786414,-0.002838060,0.019635962,0.999800964,0.000000000,0.000000000,0.000000000,0.000000000,0.000000000,0.000000000,2.249946946,0.000000000,4.207842473
1772714580.453253031,0.014849000,0.007616000,0.075535000,-0.003272220,0.005884530,0.025043400,0.999663690,-0.006248000,0.011929000,0.050056000,0.000143823,-0.000198524,-0.000106138,0.003554656,0.004487459,-0.001924375,0.010667226,-0.003379767,0.998215985,0.001482399,0.000616744,-0.002758378,0.000000000,0.000000000,0.000000000,0.000000000,0.014994393,0.007628102,0.075514202,0.013072383,0.001109991,-0.001993610,0.004428430,0.000095816,-0.001626916,-0.211217446,0.320471952,2.248630346,-0.001787980,-0.002832268,0.019616460,0.999801221,0.000000000,0.000000000,0.000000000,0.000000000,0.000000000,0.000000000,2.248038213,0.000000000,4.208359269
1772714580.463253498,0.014857000,0.007619000,0.075535000,-0.003182440,0.005741830,0.024983580,0.999666310,-0.006076000,0.011639000,0.049938000,0.000168590,-0.000099281,0.000000699,0.005030481,0.009290063,0.002195098,0.009186872,-0.003771015,0.997871287,0.000994786,0.002454916,0.006769833,0.000000000,0.000000000,0.000000000,0.000000000,0.014992858,0.007631174,0.075514289,0.013231656,0.001130833,-0.002059379,0.004011483,0.000519476,-0.002152414,-0.210691556,0.320236314,2.246932076,-0.001783474,-0.002830096,0.019601659,0.999801591,0.000000000,0.000000000,0.000000000,0.000000000,0.000000000,0.000000000,2.246084201,0.000000000,4.208876115
1772714580.473253965,0.014857000,0.007623000,0.075520000,-0.003190940,0.005858280,0.025087570,0.999663000,-0.006086000,0.011873000,0.050145000,-0.000097261,-0.000014646,0.000052428,0.006358548,0.011716113,0.004457876,0.008466324,-0.004101961,0.997934204,-0.001024132,-0.006899626,0.002275380,0.000000000,0.000000000,0.000000000,0.000000000,0.014986089,0.007635414,0.075511415,0.013354206,0.001161380,-0.002172975,0.002860700,-0.000011658,-0.002011051,-0.210788478,0.319305121,2.245077484,-0.001784525,-0.002821959,0.019585490,0.999801720,0.000000000,0.000000000,0.000000000,0.000000000,0.000000000,0.000000000,2.244852562,0.000000000,4.209392960
1772714580.483253479,0.014856000,0.007627000,0.075524000,-0.003163490,0.006078130,0.025125420,0.999660820,-0.006020000,0.012311000,0.050220000,-0.000091628,0.000120338,0.000171426,0.001779541,0.004104272,0.005038467,0.010169089,-0.003945961,0.999511635,-0.000712974,-0.002903451,-0.003018388,0.000000000,0.000000000,0.000000000,0.000000000,0.014984362,0.007638332,0.075509689,0.013390956,0.001149599,-0.002284455,0.003737917,-0.000722872,-0.001434222,-0.210899732,0.318524486,2.244374122,-0.001785646,-0.002815156,0.019579364,0.999801988,0.000000000,0.000000000,0.000000000,0.000000000,0.000000000,0.000000000,2.243579420,0.000000000,4.209909756
1772714580.493253708,0.014848000,0.007618000,0.075544000,-0.003154620,0.006005570,0.025091970,0.999662130,-0.006006000,0.012166000,0.050154000,0.000066006,0.000149107,0.000256721,-0.000874121,-0.010567666,0.004558103,0.010479194,-0.004620712,1.000186449,0.004229725,0.002830219,-0.001140752,0.000000000,0.000000000,0.000000000,0.000000000,0.014985174,0.007635783,0.075510457,0.013478121,0.001089809,-0.002316257,0.004777508,-0.000811667,-0.000083135,-0.210387221,0.320813551,2.242381218,-0.001780832,-0.002835010,0.019561954,0.999802437,0.000000000,0.000000000,0.000000000,0.000000000,0.000000000,0.000000000,2.241362126,0.000000000,4.210426589
1772714580.503253937,0.014852000,0.007626000,0.075532000,-0.003179640,0.005873510,0.025172270,0.999660820,-0.006062000,0.011903000,0.050315000,0.000116667,0.000067133,0.000235878,-0.001883509,-0.013423613,0.003106533,0.008238455,-0.005065151,1.001767129,-0.001890316,0.004551652,0.000297376,0.000000000,0.000000000,0.000000000,0.000000000,0.014984868,0.007631824,0.075511868,0.013637965,0.001016509,-0.002239566,0.003640653,-0.001056940,0.001419608,-0.209848611,0.321729314,2.240028200,-0.001776035,-0.002842872,0.019541420,0.999802878,0.000000000,0.000000000,0.000000000,0.000000000,0.000000000,0.000000000,2.238925007,0.000000000,4.210943422
1772714580.513254404,0.014855000,0.007621000,0.075540000,-0.003177960,0.005765110,0.025099180,0.999663290,-0.006065000,0.011686000,0.050169000,0.000227409,0.000066181,-0.000076438,-0.000280941,-0.014588127,-0.000524173,0.008795224,-0.003530428,0.999180249,0.001137635,0.000666628,0.000672465,0.000000000,0.000000000,0.000000000,0.000000000,0.014988371,0.007630798,0.075511382,0.013743324,0.000918137,-0.002074643,0.003105292,-0.000311745,0.000929692,-0.208060097,0.320740399,2.237378077,-0.001760665,-0.002833897,0.019518359,0.999803359,0.000000000,0.000000000,0.000000000,0.000000000,0.000000000,0.000000000,2.236488245,0.000000000,4.211460267
1772714580.523254633,0.014862000,0.007627000,0.075537000,-0.003207940,0.005638390,0.025141910,0.999662840,-0.006131000,0.011435000,0.050255000,0.000117308,0.000058955,-0.000246329,-0.000531890,-0.001981819,-0.003114603,0.010635047,-0.002818828,0.999336028,0.003041944,-0.004056638,0.003786840,0.000000000,0.000000000,0.000000000,0.000000000,0.014990474,0.007632151,0.075506405,0.013754856,0.000874497,-0.001931645,0.004447119,0.000945107,-0.001605938,-0.208994202,0.318863954,2.234685767,-0.001769201,-0.002817643,0.019494877,0.999803777,0.000000000,0.000000000,0.000000000,0.000000000,0.000000000,0.000000000,2.233838898,0.000000000,4.211977100
1772714580.533254623,0.014861000,0.007629000,0.075531000,-0.003179100,0.005723400,0.025148110,0.999662300,-0.006069000,0.011603000,0.050267000,-0.000072883,-0.000061908,-0.000188928,-0.000344964,0.013922172,-0.002042483,0.010668145,-0.004395985,1.000091245,0.002017233,0.000728914,0.003757698,0.000000000,0.000000000,0.000000000,0.000000000,0.014989435,0.007632222,0.075510873,0.013907202,0.000954981,-0.001953485,0.005241620,0.000042767,0.000279661,-0.208744876,0.319206846,2.232402966,-0.001767023,-0.002820557,0.019474961,0.999803984,0.000000000,0.000000000,0.000000000,0.000000000,0.000000000,0.000000000,2.231873795,0.000000000,4.212316990
1772714580.543254614,0.014859000,0.007623000,0.075529000,-0.003161830,0.005886640,0.025124500,0.999662000,-0.006026000,0.011928000,0.050219000,0.000054371,-0.000272961,0.000107051,-0.003763870,0.015393709,-0.001757519,0.010508099,-0.004725398,1.001142669,0.002723986,-0.000846644,0.003082090,0.000000000,0.000000000,0.000000000,0.000000000,0.014988493,0.007631894,0.075515623,0.014099441,0.000944476,-0.001863721,0.004711673,-0.000809396,0.000720324,-0.208232152,0.319826793,2.230996400,-0.001762479,-0.002825857,0.019462689,0.999804314,0.000000000,0.000000000,0.000000000,0.000000000,0.000000000,0.000000000,2.230663959,0.000000000,4.212316990
1772714580.553254843,0.014855000,0.007622000,0.075526000,-0.003197590,0.005967280,0.025052560,0.999663210,-0.006095000,0.012091000,0.050075000,0.000204954,-0.000221290,0.000278808,-0.006993406,0.007334564,-0.001125643,0.008754549,-0.005474053,1.000968301,0.003552790,-0.005939835,-0.004063134,0.000000000,0.000000000,0.000000000,0.000000000,0.014990809,0.007632268,0.075517571,0.014271621,0.000859903,-0.001698201,0.003997723,-0.000625524,0.001110329,-0.207385676,0.318677422,2.229709103,-0.001755321,-0.002815665,0.019451499,0.999804573,0.000000000,0.000000000,0.000000000,0.000000000,0.000000000,0.000000000,2.229024674,0.000000000,4.212316990
1772714580.563254118,0.014853000,0.007619000,0.075546000,-0.003262040,0.006055970,0.025052650,0.999662470,-0.006219000,0.012272000,0.050074000,0.000305595,-0.000068706,0.000356663,-0.007026844,-0.003468569,-0.001468119,0.010918921,-0.004567817,0.998877574,0.002245868,-0.000539937,0.001675196,0.000000000,0.000000000,0.000000000,0.000000000,0.014996333,0.007632629,0.075520974,0.014374184,0.000723616,-0.001467173,0.004652039,-0.000790857,-0.000258433,-0.206894028,0.319651130,2.226902828,-0.001750935,-0.002824035,0.019427009,0.999805113,0.000000000,0.000000000,0.000000000,0.000000000,0.000000000,0.000000000,2.225651067,0.000000000,4.212316990
1772714580.573254347,0.014864000,0.007615000,0.075538000,-0.003292130,0.005921510,0.025180890,0.999659950,-0.006284000,0.012005000,0.050331000,0.000338520,0.000165229,0.000269270,-0.005928996,-0.012613057,0.000050924,0.010494134,-0.003928237,0.997723336,0.001299751,-0.000682359,-0.000940996,0.000000000,0.000000000,0.000000000,0.000000000,0.015000465,0.007634481,0.075519553,0.014577349,0.000625108,-0.001435068,0.004975492,0.000564613,-0.001172100,-0.206418458,0.320675248,2.224132567,-0.001746680,-0.002832847,0.019402836,0.999805535,0.000000000,0.000000000,0.000000000,0.000000000,0.000000000,0.000000000,2.223429266,0.000000000,4.212316990
1772714580.583254814,0.014883000,0.007620000,0.075544000,-0.003371160,0.005710410,0.025083910,0.999663360,-0.006454000,0.011586000,0.050137000,0.000022242,0.000214569,-0.000096251,-0.002793516,-0.003161272,0.000123780,0.010067623,-0.004647673,0.997801069,0.000823179,0.001473792,-0.001389096,0.000000000,0.000000000,0.000000000,0.000000000,0.015001635,0.007632138,0.075516964,0.014729293,0.000650145,-0.001547766,0.004992593,-0.000735329,-0.002752816,-0.205779282,0.320948304,2.222038604,-0.001741109,-0.002835089,0.019384577,0.999805882,0.000000000,0.000000000,0.000000000,0.000000000,0.000000000,0.000000000,2.221286534,0.000000000,4.212316990
1772714580.593254328,0.014864000,0.007628000,0.075544000,-0.003296820,0.005752110,0.025059360,0.999663980,-0.006304000,0.011666000,0.050088000,-0.000227370,0.000212665,-0.000462568,0.003377142,0.010292395,0.001423788,0.009882033,-0.004801784,0.997898623,0.000731395,0.001384974,0.000913224,0.000000000,0.000000000,0.000000000,0.000000000,0.015000813,0.007629968,0.075514321,0.014869953,0.000588924,-0.001724843,0.003382813,-0.001122022,-0.002023682,-0.205405749,0.320610841,2.219992863,-0.001737958,-0.002832051,0.019366743,0.999806172,0.000000000,0.000000000,0.000000000,0.000000000,0.000000000,0.000000000,2.219355881,0.000000000,4.212316990
1772714580.603254318,0.014862000,0.007631000,0.075529000,-0.003257780,0.005873970,0.025109440,0.999662140,-0.006219000,0.011908000,0.050188000,-0.000304759,-0.000062199,-0.000590269,0.003633160,0.015134925,0.000292270,0.011172208,-0.004181127,0.998443065,0.004360359,0.001286827,0.000118316,0.000000000,0.000000000,0.000000000,0.000000000,0.014999866,0.007627397,0.075521249,0.014897052,0.000484510,-0.001818795,0.006160596,-0.000533686,-0.001459624,-0.204978205,0.319703800,2.218550333,-0.001734416,-0.002824043,0.019354180,0.999806354,0.000000000,0.000000000,0.000000000,0.000000000,0.000000000,0.000000000,2.218021951,0.000000000,4.212316990
1772714580.613254070,0.014857000,0.007623000,0.075531000,-0.003283810,0.006019270,0.025089840,0.999661690,-0.006264000,0.012200000,0.050148000,-0.000113151,-0.000242619,-0.000300700,0.003143480,0.014405974,-0.001499658,0.010929834,-0.003952836,0.998697692,0.003940452,0.003333491,-0.002238848,0.000000000,0.000000000,0.000000000,0.000000000,0.014984834,0.007628405,0.075521246,0.014674153,0.000574674,-0.001753786,0.004321535,0.000672450,-0.000883097,-0.202271101,0.325457906,2.219643589,-0.001709797,-0.002873806,0.019363696,0.999806181,0.000000000,0.000000000,0.000000000,0.000000000,0.000000000,0.000000000,2.217529559,0.000000000,4.212316990
1772714580.623254299,0.014850000,0.007618000,0.075519000,-0.003273490,0.006298780,0.025089400,0.999660010,-0.006229000,0.012758000,0.050146000,0.000111539,-0.000290482,-0.000106702,0.001839092,0.001094663,-0.001391454,0.008592240,-0.004442655,0.998574347,-0.000872661,0.001345671,-0.001032181,0.000000000,0.000000000,0.000000000,0.000000000,0.014969008,0.007629616,0.075520853,0.014437171,0.000675794,-0.001679826,0.002284190,-0.000756760,-0.001383833,-0.200096679,0.328407231,2.219641709,-0.001690327,-0.002899172,0.019363687,0.999806303,0.000000000,0.000000000,0.000000000,0.000000000,0.000000000,0.000000000,2.219050178,0.000000000,4.212316990
1772714580.633254290,0.014867000,0.007622000,0.075524000,-0.003206170,0.006024320,0.025142230,0.999660590,-0.006108000,0.012206000,0.050254000,0.000230886,-0.000035470,0.000065831,-0.000853062,-0.012299323,-0.005503706,0.009248379,-0.005311495,0.998986811,0.000224462,-0.002890292,0.001321244,0.000000000,0.000000000,0.000000000,0.000000000,0.014977143,0.007627577,0.075513610,0.014444426,0.000629091,-0.001761025,0.003338922,-0.001359360,-0.001628394,-0.199544924,0.327673670,2.217142167,-0.001685700,-0.002892642,0.019341902,0.999806737,0.000000000,0.000000000,0.000000000,0.000000000,0.000000000,0.000000000,2.215611597,0.000000000,4.212316990
1772714580.643254757,0.014872000,0.007609000,0.075532000,-0.003332960,0.005807960,0.025032540,0.999664210,-0.006373000,0.011779000,0.050034000,-0.000065948,0.000340171,0.000132129,0.001545001,-0.013688768,-0.005175119,0.012045131,-0.006076249,0.999952249,0.002442619,-0.004405998,-0.001191081,0.000000000,0.000000000,0.000000000,0.000000000,0.014989721,0.007627245,0.075509866,0.014493990,0.000523404,-0.001836600,0.005500398,-0.001710211,-0.000350517,-0.199641780,0.327146278,2.214762829,-0.001686694,-0.002888021,0.019321147,0.999806946,0.000000000,0.000000000,0.000000000,0.000000000,0.000000000,0.000000000,2.214231038,0.000000000,4.212316990
1772714580.653255224,0.014869000,0.007627000,0.075534000,-0.003217220,0.005850600,0.024984570,0.999665540,-0.006140000,0.011858000,0.049939000,-0.000367522,0.000391628,0.000031469,0.002746219,-0.006874582,-0.000519867,0.009827120,-0.006808368,1.001934670,0.000793928,0.002837625,0.000118508,0.000000000,0.000000000,0.000000000,0.000000000,0.015001068,0.007623368,0.075510539,0.014707340,0.000358336,-0.001809395,0.005366894,-0.002681870,0.001434568,-0.199572526,0.327633523,2.213381121,-0.001686042,-0.002892241,0.019309086,0.999807160,0.000000000,0.000000000,0.000000000,0.000000000,0.000000000,0.000000000,2.212643937,0.000000000,4.212316990
1772714580.663255215,0.014851000,0.007630000,0.075529000,-0.003222230,0.005793060,0.025022640,0.999664910,-0.006153000,0.011744000,0.050015000,-0.000433897,0.000217133,0.000052312,0.007093983,0.001009811,0.002980620,0.008244592,-0.004772924,1.000423004,0.002183354,0.002490372,-0.000903758,0.000000000,0.000000000,0.000000000,0.000000000,0.015008365,0.007622061,0.075513428,0.014904017,0.000119945,-0.001628369,0.003007206,-0.002186836,0.001715032,-0.198826595,0.328752355,2.211805926,-0.001679385,-0.002901854,0.019295344,0.999807399,0.000000000,0.000000000,0.000000000,0.000000000,0.000000000,0.000000000,2.211375741,0.000000000,4.212316990
1772714580.673255920,0.014849000,0.007635000,0.075522000,-0.003209100,0.005974010,0.025031620,0.999663660,-0.006117000,0.012105000,0.050033000,-0.000137277,-0.000159654,0.000026224,0.010411348,0.015330333,0.005244195,0.008570238,-0.003590219,1.000511938,0.000066324,0.000840581,0.002386995,0.000000000,0.000000000,0.000000000,0.000000000,0.015007743,0.007625612,0.075515280,0.014883752,-0.000056167,-0.001429038,0.002667975,-0.000011726,0.000722728,-0.198814945,0.327219894,2.210652301,-0.001679571,-0.002888464,0.019285304,0.999807903,0.000000000,0.000000000,0.000000000,0.000000000,0.000000000,0.000000000,2.209467410,0.000000000,4.212316990
1772714580.683255911,0.014851000,0.007629000,0.075529000,-0.003119700,0.006075590,0.025138430,0.999660650,-0.005932000,0.012304000,0.050247000,0.000300078,-0.000323291,0.000106002,0.012385641,0.015096582,0.007847018,0.009493315,-0.004982567,1.000002794,0.000166139,-0.000364533,0.003422227,0.000000000,0.000000000,0.000000000,0.000000000,0.015002100,0.007628631,0.075514470,0.014789899,-0.000084615,-0.001320977,0.003589045,-0.001154854,0.000352774,-0.198581098,0.326163334,2.207913731,-0.001677778,-0.002879166,0.019261436,0.999808323,0.000000000,0.000000000,0.000000000,0.000000000,0.000000000,0.000000000,2.207061384,0.000000000,4.212316990
1772714580.693255901,0.014854000,0.007614000,0.075532000,-0.003113310,0.006022370,0.025157760,0.999660510,-0.005922000,0.012198000,0.050286000,0.000421931,-0.000417852,0.000211267,0.006900209,0.005816670,0.004829952,0.009253490,-0.005829606,0.999031360,0.000397341,-0.000710021,0.001825949,0.000000000,0.000000000,0.000000000,0.000000000,0.014998428,0.007630684,0.075513281,0.014756453,-0.000121148,-0.001237392,0.003924762,-0.002016443,-0.000133518,-0.198342649,0.325423956,2.205747830,-0.001675876,-0.002872643,0.019242555,0.999808540,0.000000000,0.000000000,0.000000000,0.000000000,0.000000000,0.000000000,2.205320630,0.000000000,4.212316990
1772714580.703256369,0.014873000,0.007617000,0.075536000,-0.002963650,0.005966060,0.025111790,0.999662450,-0.005626000,0.012077000,0.050196000,0.000430925,-0.000158314,0.000065016,0.003356645,-0.006319560,0.002565928,0.010457094,-0.004929258,0.998853237,-0.001269714,0.001794021,0.000713161,0.000000000,0.000000000,0.000000000,0.000000000,0.014997529,0.007627219,0.075515497,0.014788782,-0.000271757,-0.001197238,0.005768192,-0.000480417,-0.000758274,-0.196980737,0.325504629,2.204781576,-0.001664004,-0.002873104,0.019234156,0.999808790,0.000000000,0.000000000,0.000000000,0.000000000,0.000000000,0.000000000,2.203951067,0.000000000,4.212316990
1772714580.713256359,0.014876000,0.007612000,0.075536000,-0.003057690,0.006157570,0.025111440,0.999661020,-0.005805000,0.012465000,0.050193000,0.000104176,0.000223077,-0.000179779,-0.005108810,-0.018830229,-0.001554360,0.010093214,-0.004236557,0.998829079,-0.001211222,0.002180415,0.000170713,0.000000000,0.000000000,0.000000000,0.000000000,0.014999666,0.007619847,0.075517937,0.014884514,-0.000387572,-0.001215236,0.005200741,-0.000453881,-0.001410941,-0.196235737,0.324930123,2.202907329,-0.001657647,-0.002867940,0.019217829,0.999809162,0.000000000,0.000000000,0.000000000,0.000000000,0.000000000,0.000000000,2.202097664,0.000000000,4.212316990
1772714580.723256350,0.014859000,0.007627000,0.075530000,-0.003060440,0.005937790,0.025164150,0.999661010,-0.005820000,0.012026000,0.050300000,-0.000050272,0.000216104,-0.000156313,-0.009074713,-0.019094317,-0.005915640,0.009952791,-0.003434849,0.999475861,0.003815357,0.002055103,0.001130674,0.000000000,0.000000000,0.000000000,0.000000000,0.015009666,0.007616213,0.075521133,0.015067966,-0.000416237,-0.001254415,0.003903295,-0.000627870,-0.000486026,-0.196371682,0.323931855,2.200783846,-0.001659053,-0.002859222,0.019199316,0.999809562,0.000000000,0.000000000,0.000000000,0.000000000,0.000000000,0.000000000,2.199884329,0.000000000,4.212316990
1772714580.733257294,0.014857000,0.007626000,0.075529000,-0.003161990,0.005710030,0.025107570,0.999663450,-0.006036000,0.011575000,0.050187000,-0.000098485,0.000114977,0.000155692,-0.006862069,-0.016825720,-0.006591891,0.010545230,-0.002346521,0.999536598,0.001935655,-0.000703703,-0.000344552,0.000000000,0.000000000,0.000000000,0.000000000,0.015016003,0.007613094,0.075522013,0.015121389,-0.000423728,-0.001271301,0.004697508,0.001963091,-0.000024112,-0.196545324,0.323763371,2.198326828,-0.001660658,-0.002857745,0.019177877,0.999809894,0.000000000,0.000000000,0.000000000,0.000000000,0.000000000,0.000000000,2.197695654,0.000000000,4.212316990
1772714580.743257284,0.014869000,0.007624000,0.075523000,-0.003165870,0.005611470,0.025102420,0.999664120,-0.006048000,0.011378000,0.050177000,-0.000077273,-0.000154041,0.000376787,-0.004258271,-0.018043653,-0.006579088,0.010695686,-0.002163255,0.999311425,-0.001897236,-0.002578850,-0.001424308,0.000000000,0.000000000,0.000000000,0.000000000,0.015012020,0.007618436,0.075519845,0.015184760,-0.000269673,-0.001232536,0.005299504,0.001866496,-0.000732309,-0.194629122,0.321657237,2.196818117,-0.001644329,-0.002839027,0.019164792,0.999810323,0.000000000,0.000000000,0.000000000,0.000000000,0.000000000,0.000000000,2.196491714,0.000000000,4.212316990
1772714580.753257513,0.014862000,0.007627000,0.075535000,-0.003227040,0.005641020,0.024974890,0.999666950,-0.006171000,0.011440000,0.049921000,0.000027214,-0.000205381,0.000401244,0.001141606,-0.014410120,-0.003616236,0.010628025,-0.002643363,0.999503898,-0.001521289,-0.001741500,-0.000235052,0.000000000,0.000000000,0.000000000,0.000000000,0.015011349,0.007619158,0.075519561,0.015212427,-0.000220530,-0.001236913,0.005139187,0.001186429,-0.000661986,-0.194390803,0.321393189,2.196097614,-0.001642312,-0.002836673,0.019158516,0.999810515,0.000000000,0.000000000,0.000000000,0.000000000,0.000000000,0.000000000,2.195863592,0.000000000,4.212316990
1772714580.763257504,0.014869000,0.007605000,0.075551000,-0.003100370,0.005718610,0.024996390,0.999666380,-0.005913000,0.011589000,0.049965000,-0.000092619,-0.000101107,0.000241919,-0.000571596,-0.002215663,0.000894849,0.010560366,-0.003123459,0.999696366,-0.001145351,-0.000904169,0.000954175,0.000000000,0.000000000,0.000000000,0.000000000,0.015010679,0.007619880,0.075519278,0.015240094,-0.000171388,-0.001241290,0.004950652,0.000485307,-0.000562543,-0.194495205,0.321501012,2.195486501,-0.001643220,-0.002837623,0.019153180,0.999810596,0.000000000,0.000000000,0.000000000,0.000000000,0.000000000,0.000000000,2.195235484,0.000000000,4.212316990
1772714580.773257256,0.014864000,0.007623000,0.075547000,-0.003093670,0.005570690,0.025046360,0.999665980,-0.005907000,0.011293000,0.050066000,-0.000314802,0.000095513,-0.000258936,-0.000772453,0.000587310,0.005958627,0.010492708,-0.003603543,0.999888830,-0.000769423,-0.000066859,0.002143374,0.000000000,0.000000000,0.000000000,0.000000000,0.015010008,0.007620603,0.075518994,0.015267760,-0.000122247,-0.001245667,0.004762121,-0.000215798,-0.000463102,-0.194599604,0.321608831,2.194875402,-0.001644128,-0.002838572,0.019147845,0.999810676,0.000000000,0.000000000,0.000000000,0.000000000,0.000000000,0.000000000,2.194607392,0.000000000,4.212316990
1772714580.783257246,0.014857000,0.007619000,0.075535000,-0.003175320,0.005465810,0.025092220,0.999665160,-0.006075000,0.011088000,0.050157000,-0.000359946,0.000172514,-0.000528983,-0.000948342,0.003041726,0.009121140,0.010345722,-0.003637020,1.000157647,0.000225626,-0.000994172,0.002691771,0.000000000,0.000000000,0.000000000,0.000000000,0.015009337,0.007621325,0.075518711,0.015295427,-0.000073105,-0.001250044,0.004573586,-0.000916920,-0.000363659,-0.194704005,0.321716654,2.194264289,-0.001645036,-0.002839522,0.019142509,0.999810757,0.000000000,0.000000000,0.000000000,0.000000000,0.000000000,0.000000000,2.193979284,0.000000000,4.212316990
1772714580.793256760,0.014852000,0.007626000,0.075527000,-0.003186140,0.005614390,0.025168320,0.999662380,-0.006088000,0.011386000,0.050308000,-0.000121659,0.000144425,-0.000499204,-0.000216587,-0.000953041,0.007544122,0.010092756,-0.003089893,1.000367873,0.001676548,-0.003340307,0.002167114,0.000000000,0.000000000,0.000000000,0.000000000,0.015012331,0.007622226,0.075516313,0.015374480,-0.000058823,-0.001239245,0.004584946,-0.000333458,-0.000067146,-0.194934395,0.321277946,2.193200394,-0.001647146,-0.002835717,0.019133227,0.999810861,0.000000000,0.000000000,0.000000000,0.000000000,0.000000000,0.000000000,2.192438755,0.000000000,4.212316990
1772714580.803256750,0.014853000,0.007628000,0.075525000,-0.003241120,0.005703380,0.025139460,0.999662430,-0.006194000,0.011566000,0.050249000,-0.000018862,0.000031799,-0.000099825,0.000917972,-0.001064716,0.003690657,0.009984772,-0.002938092,0.999652702,0.000713501,0.000575989,0.000844386,0.000000000,0.000000000,0.000000000,0.000000000,0.015013890,0.007624024,0.075517517,0.015449346,-0.000021738,-0.001175771,0.004779383,0.000643797,-0.000291467,-0.195239271,0.320768121,2.191595822,-0.001649931,-0.002831296,0.019119226,0.999811055,0.000000000,0.000000000,0.000000000,0.000000000,0.000000000,0.000000000,2.191052765,0.000000000,4.212316990
1772714580.813257217,0.014859000,0.007618000,0.075518000,-0.003118000,0.005635660,0.025170770,0.999662420,-0.005951000,0.011425000,0.050314000,0.000246815,-0.000134305,0.000194017,0.002704494,0.011637140,0.001406952,0.011337101,-0.003327015,0.999679589,0.001299922,0.001164283,0.000652480,0.000000000,0.000000000,0.000000000,0.000000000,0.015015423,0.007620083,0.075524894,0.015512507,0.000036471,-0.001106442,0.005059963,-0.000008223,-0.000440513,-0.195059305,0.321585754,2.190217420,-0.001648258,-0.002838381,0.019107192,0.999811386,0.000000000,0.000000000,0.000000000,0.000000000,0.000000000,0.000000000,2.189315820,0.000000000,4.212316990
1772714580.823257446,0.014858000,0.007622000,0.075538000,-0.003091480,0.005683520,0.025199350,0.999661510,-0.005895000,0.011519000,0.050371000,0.000260509,0.000124107,0.000197630,0.001851364,0.011849807,0.003173541,0.010103885,-0.004455759,0.997686815,0.003714071,-0.004057995,0.000719722,0.000000000,0.000000000,0.000000000,0.000000000,0.015017000,0.007617244,0.075531688,0.015617512,0.000065882,-0.001059350,0.004979764,-0.000665965,-0.000944303,-0.194244311,0.320547887,2.188049179,-0.001641374,-0.002829158,0.019088309,0.999811796,0.000000000,0.000000000,0.000000000,0.000000000,0.000000000,0.000000000,2.187147126,0.000000000,4.212316990
1772714580.833257437,0.014864000,0.007620000,0.075541000,-0.003139340,0.005527380,0.025128190,0.999664030,-0.005999000,0.011209000,0.050229000,0.000190793,0.000083275,0.000003885,-0.002522218,0.013653259,0.002091202,0.010829128,-0.001548434,0.997697165,0.001667586,0.000249688,0.001897113,0.000000000,0.000000000,0.000000000,0.000000000,0.015015402,0.007619752,0.075531007,0.015706853,0.000064189,-0.001139769,0.004756139,0.001085490,-0.002836681,-0.194053799,0.319527366,2.185842272,-0.001639936,-0.002820191,0.019069074,0.999812119,0.000000000,0.000000000,0.000000000,0.000000000,0.000000000,0.000000000,2.185194331,0.000000000,4.212316990
1772714580.843257904,0.014860000,0.007623000,0.075533000,-0.003156990,0.005861360,0.025220340,0.999659750,-0.006017000,0.011878000,0.050411000,-0.000048019,0.000051962,-0.000192929,-0.002773265,0.021076641,0.001808385,0.010255483,-0.003830753,0.997606706,-0.002401307,0.000068774,0.000530489,0.000000000,0.000000000,0.000000000,0.000000000,0.015012312,0.007621712,0.075525532,0.015765407,0.000155308,-0.001333135,0.004990160,0.001205409,-0.001895127,-0.193263892,0.320006719,2.184181744,-0.001633005,-0.002824218,0.019054598,0.999812496,0.000000000,0.000000000,0.000000000,0.000000000,0.000000000,0.000000000,2.183230605,0.000000000,4.212316990
1772714580.853257179,0.014865000,0.007631000,0.075520000,-0.003238550,0.006178440,0.025205110,0.999657960,-0.006164000,0.012516000,0.050378000,-0.000108547,-0.000175058,-0.000230517,-0.004289301,0.019594003,-0.003159786,0.008949944,-0.004724678,0.999516975,-0.000224973,0.001801188,0.000913656,0.000000000,0.000000000,0.000000000,0.000000000,0.015009666,0.007625454,0.075519454,0.015823724,0.000270793,-0.001498503,0.003256543,-0.001797517,-0.001468710,-0.192999464,0.319588491,2.181860139,-0.001630825,-0.002820492,0.019034354,0.999812785,0.000000000,0.000000000,0.000000000,0.000000000,0.000000000,0.000000000,2.181122970,0.000000000,4.212316990
1772714580.863257647,0.014858000,0.007627000,0.075524000,-0.003191250,0.005845820,0.025254720,0.999658860,-0.006086000,0.011849000,0.050480000,-0.000066686,-0.000366803,-0.000131993,-0.000325062,0.009215216,-0.005295814,0.010077037,-0.003987826,0.999061148,0.001369639,0.002300727,-0.000266477,0.000000000,0.000000000,0.000000000,0.000000000,0.015009643,0.007626561,0.075513728,0.015800216,0.000194955,-0.001602118,0.003839611,-0.001406079,-0.000539654,-0.193972507,0.319524420,2.179921451,-0.001639373,-0.002820067,0.019017417,0.999813164,0.000000000,0.000000000,0.000000000,0.000000000,0.000000000,0.000000000,2.179198478,0.000000000,4.212316990
1772714580.873257160,0.014860000,0.007612000,0.075526000,-0.003216940,0.006080180,0.025096300,0.999661370,-0.006127000,0.012318000,0.050161000,-0.000149145,-0.000274767,0.000136189,-0.000122765,0.003182033,-0.005117222,0.009272629,-0.002823028,1.001157409,0.004118087,0.000661184,0.002255525,0.000000000,0.000000000,0.000000000,0.000000000,0.015011435,0.007623744,0.075510641,0.015763249,0.000099699,-0.001600218,0.003767214,-0.000021058,0.000804001,-0.193474715,0.319263857,2.178096423,-0.001635118,-0.002817685,0.019001513,0.999813667,0.000000000,0.000000000,0.000000000,0.000000000,0.000000000,0.000000000,2.176944680,0.000000000,4.212316990
1772714580.883257151,0.014853000,0.007612000,0.075530000,-0.003139050,0.006094230,0.025127450,0.999660750,-0.005970000,0.012342000,0.050225000,-0.000070474,-0.000057304,0.000225233,-0.001699884,-0.007263600,-0.004281745,0.009927646,-0.001523261,1.000760504,0.000341624,0.000694063,0.000721093,0.000000000,0.000000000,0.000000000,0.000000000,0.015012661,0.007623256,0.075517794,0.015750867,0.000136587,-0.001461168,0.003763781,0.001351670,0.001529638,-0.192915806,0.317829005,2.174833202,-0.001630559,-0.002805026,0.018973074,0.999813849,0.000000000,0.000000000,0.000000000,0.000000000,0.000000000,0.000000000,2.174599660,0.000000000,4.212316990
1772714580.893258333,0.014863000,0.007610000,0.075535000,-0.003244170,0.005897960,0.025042430,0.999663730,-0.006191000,0.011955000,0.050054000,-0.000045183,0.000166142,0.000204390,-0.003323153,-0.006899674,-0.001295203,0.007715784,-0.004405270,0.995689011,0.000207144,-0.000538652,-0.001354584,0.000000000,0.000000000,0.000000000,0.000000000,0.015014515,0.007623436,0.075521761,0.015710657,0.000293403,-0.001245499,0.003437642,0.000275706,-0.002110384,-0.192082433,0.317417681,2.173985852,-0.001623377,-0.002801288,0.018965707,0.999814117,0.000000000,0.000000000,0.000000000,0.000000000,0.000000000,0.000000000,2.173541742,0.000000000,4.212316990
1772714580.903258085,0.014858000,0.007623000,0.075533000,-0.003201090,0.005929850,0.025140810,0.999661210,-0.006102000,0.012017000,0.050251000,-0.000035723,0.000293435,-0.000019367,-0.006095101,-0.006311831,-0.000982882,0.009013182,-0.003644899,0.996055331,0.004173517,0.000905945,0.000683023,0.000000000,0.000000000,0.000000000,0.000000000,0.015014716,0.007626123,0.075519569,0.015673389,0.000390123,-0.001318802,0.002416977,-0.000820430,-0.004736269,-0.191959198,0.317396629,2.172707502,-0.001622337,-0.002801065,0.018954555,0.999814479,0.000000000,0.000000000,0.000000000,0.000000000,0.000000000,0.000000000,2.171761693,0.000000000,4.212316990
1772714580.913258076,0.014852000,0.007627000,0.075526000,-0.003309410,0.006039480,0.025154800,0.999659850,-0.006313000,0.012242000,0.050277000,-0.000110781,0.000203361,-0.000004196,-0.005269293,-0.011467162,0.001380314,0.008927438,-0.001773622,0.998179922,0.001486764,0.003487889,0.000320564,0.000000000,0.000000000,0.000000000,0.000000000,0.015015442,0.007630167,0.075513145,0.015558991,0.000363326,-0.001678120,0.004398494,0.001309305,-0.002773759,-0.191996547,0.317079228,2.170340284,-0.001622773,-0.002798269,0.018933909,0.999814882,0.000000000,0.000000000,0.000000000,0.000000000,0.000000000,0.000000000,2.169452196,0.000000000,4.212316990
1772714580.923257828,0.014860000,0.007626000,0.075531000,-0.003274220,0.005810410,0.025125780,0.999662050,-0.006255000,0.011782000,0.050221000,0.000124437,-0.000117793,0.000030828,-0.002357782,-0.004687125,-0.000988856,0.009305838,-0.002631253,1.000654103,-0.000662647,-0.002606081,0.001236036,0.000000000,0.000000000,0.000000000,0.000000000,0.015012881,0.007629517,0.075510447,0.015533353,0.000443585,-0.001885956,0.003086199,0.001581766,0.000557060,-0.191372226,0.316007951,2.167890004,-0.001617562,-0.002788784,0.018912559,0.999815393,0.000000000,0.000000000,0.000000000,0.000000000,0.000000000,0.000000000,2.166986417,0.000000000,4.212316990
1772714580.933257103,0.014856000,0.007617000,0.075535000,-0.003290870,0.005819950,0.025066570,0.999663430,-0.006288000,0.011801000,0.050102000,0.000021737,-0.000129312,0.000005672,0.000164479,0.001803107,0.001233460,0.007701271,-0.003887478,1.001280440,0.000196849,-0.003508848,0.000590168,0.000000000,0.000000000,0.000000000,0.000000000,0.015011322,0.007623357,0.075509989,0.015458404,0.000593966,-0.001803237,0.002951370,-0.000750417,0.000760576,-0.190932733,0.313727969,2.165115940,-0.001614171,-0.002768779,0.018888401,0.999815676,0.000000000,0.000000000,0.000000000,0.000000000,0.000000000,0.000000000,2.164618161,0.000000000,4.212316990
1772714580.943257093,0.014854000,0.007615000,0.075528000,-0.003300790,0.005816110,0.025074670,0.999663210,-0.006308000,0.011794000,0.050119000,0.000141142,-0.000138578,-0.000077273,0.000572524,0.001141196,0.001222279,0.008108278,-0.004679241,1.000295564,0.000214412,0.002148591,-0.001504879,0.000000000,0.000000000,0.000000000,0.000000000,0.015008840,0.007620643,0.075512289,0.015383220,0.000570727,-0.001632391,0.001581706,-0.000456516,0.000386337,-0.191178636,0.314264908,2.163894963,-0.001616258,-0.002773488,0.018877734,0.999815797,0.000000000,0.000000000,0.000000000,0.000000000,0.000000000,0.000000000,2.163463440,0.000000000,4.212280684
1772714580.953257561,0.014861000,0.007618000,0.075536000,-0.003258340,0.005906400,0.025163480,0.999660590,-0.006218000,0.011973000,0.050296000,0.000125117,0.000035159,-0.000239258,0.002583390,-0.001914825,0.003858232,0.008470651,-0.005252153,1.000118899,-0.001466796,0.003822487,-0.001754248,0.000000000,0.000000000,0.000000000,0.000000000,0.015010830,0.007618343,0.075515770,0.015222744,0.000517611,-0.001502909,0.002833623,-0.001693639,0.000100386,-0.190609261,0.313961037,2.163079495,-0.001611360,-0.002770731,0.018870638,0.999816095,0.000000000,0.000000000,0.000000000,0.000000000,0.000000000,0.000000000,2.162459620,0.000000000,4.211971851
1772714580.963257551,0.014870000,0.007618000,0.075529000,-0.003242610,0.005928200,0.025128230,0.999661400,-0.006186000,0.012016000,0.050226000,0.000038772,0.000136034,-0.000116880,0.002644063,-0.000881482,0.001513440,0.008814839,-0.004381137,0.999592132,-0.000570724,0.000047120,-0.001720791,0.000000000,0.000000000,0.000000000,0.000000000,0.015008469,0.007623189,0.075517492,0.015120623,0.000385338,-0.001430765,0.003246634,-0.000799408,-0.000220571,-0.189467013,0.312364101,2.161529212,-0.001601694,-0.002756588,0.018857162,0.999816347,0.000000000,0.000000000,0.000000000,0.000000000,0.000000000,0.000000000,2.160945629,0.000000000,4.211663033
1772714580.973257542,0.014849000,0.007629000,0.075522000,-0.003299810,0.005932510,0.025196100,0.999659480,-0.006299000,0.012028000,0.050361000,0.000118609,0.000101554,-0.000003555,0.003511795,-0.001620688,-0.003214542,0.009548679,-0.003299586,0.998647233,0.002667499,-0.002554451,-0.001088301,0.000000000,0.000000000,0.000000000,0.000000000,0.015004289,0.007626535,0.075515465,0.015039059,0.000288999,-0.001375477,0.003719510,0.000406842,-0.000953800,-0.189277690,0.311344584,2.160265795,-0.001600240,-0.002747644,0.018846160,0.999816575,0.000000000,0.000000000,0.000000000,0.000000000,0.000000000,0.000000000,2.159721320,0.000000000,4.211354215
1772714580.983258009,0.014866000,0.007618000,0.075523000,-0.003218640,0.005752300,0.025114660,0.999662850,-0.006147000,0.011663000,0.050200000,0.000102525,-0.000001768,0.000119017,0.004229450,-0.003578217,-0.007476836,0.010143897,-0.003878585,0.999071048,0.003453930,0.000866645,-0.000180187,0.000000000,0.000000000,0.000000000,0.000000000,0.015005172,0.007628021,0.075516061,0.015029273,0.000331235,-0.001407935,0.004200469,-0.000427157,-0.000716586,-0.189110595,0.311731047,2.158755252,-0.001598755,-0.002750967,0.018832978,0.999816869,0.000000000,0.000000000,0.000000000,0.000000000,0.000000000,0.000000000,2.157987891,0.000000000,4.211045382
1772714580.993257999,0.014863000,0.007620000,0.075529000,-0.003206510,0.005717600,0.025085540,0.999663820,-0.006124000,0.011592000,0.050142000,0.000110859,-0.000168124,0.000108431,0.002466932,0.002332333,-0.007794489,0.010509970,-0.004295626,1.000282382,0.002552716,0.004201078,-0.002169925,0.000000000,0.000000000,0.000000000,0.000000000,0.015004716,0.007625453,0.075518131,0.015053412,0.000315390,-0.001428173,0.005270838,-0.001120699,0.000024304,-0.188139003,0.312422238,2.156762501,-0.001590212,-0.002756811,0.018815604,0.999817264,0.000000000,0.000000000,0.000000000,0.000000000,0.000000000,0.000000000,2.155929952,0.000000000,4.210736564
1772714581.003257513,0.014862000,0.007619000,0.075542000,-0.003186940,0.005968260,0.024993090,0.999664730,-0.006074000,0.012092000,0.049956000,0.000085140,-0.000079410,-0.000059965,0.001245175,0.013966030,-0.000743660,0.009292949,-0.002778266,1.000079551,0.002168187,-0.000761647,-0.001953425,0.000000000,0.000000000,0.000000000,0.000000000,0.015003513,0.007621990,0.075517117,0.015173260,0.000225866,-0.001368789,0.004229379,0.000113924,0.000298740,-0.186882747,0.311487287,2.154370291,-0.001579462,-0.002748414,0.018794776,0.999817675,0.000000000,0.000000000,0.000000000,0.000000000,0.000000000,0.000000000,2.153375206,0.000000000,4.210427760
1772714581.013257265,0.014868000,0.007618000,0.075524000,-0.003206910,0.006000930,0.025028930,0.999663570,-0.006112000,0.012159000,0.050027000,-0.000019833,-0.000059421,-0.000147222,-0.001647567,0.020835273,0.003749850,0.009123508,-0.002170787,0.998412614,0.003187866,-0.001031612,-0.000762424,0.000000000,0.000000000,0.000000000,0.000000000,0.015006010,0.007621073,0.075519484,0.015207599,0.000247103,-0.001251659,0.004424218,0.000602062,-0.001773916,-0.185959801,0.311061322,2.152255503,-0.001571530,-0.002744517,0.018776351,0.999818068,0.000000000,0.000000000,0.000000000,0.000000000,0.000000000,0.000000000,2.151524257,0.000000000,4.210118949
1772714581.023257256,0.014865000,0.007620000,0.075528000,-0.003182570,0.005899800,0.025077200,0.999663040,-0.006068000,0.011956000,0.050125000,-0.000282537,0.000122339,-0.000265385,-0.001532066,0.015209381,0.007119922,0.009500380,-0.004452850,0.998462432,0.003753920,-0.002072032,0.002791095,0.000000000,0.000000000,0.000000000,0.000000000,0.015006145,0.007623314,0.075517614,0.015217438,0.000283480,-0.001311734,0.004225829,-0.000589569,-0.001356383,-0.185024393,0.311479214,2.149674500,-0.001563362,-0.002747975,0.018753848,0.999818511,0.000000000,0.000000000,0.000000000,0.000000000,0.000000000,0.000000000,2.148670743,0.000000000,4.209810131
1772714581.033257961,0.014862000,0.007615000,0.075522000,-0.003265200,0.006224580,0.025137170,0.999659300,-0.006216000,0.012609000,0.050242000,-0.000146892,0.000179895,-0.000010781,0.003857627,0.001000222,0.007542751,0.009354346,-0.003303089,0.999446337,0.002289479,-0.003429184,0.000089716,0.000000000,0.000000000,0.000000000,0.000000000,0.015005396,0.007626219,0.075514323,0.015228468,0.000315176,-0.001421141,0.003720441,-0.000180017,-0.000363806,-0.184292721,0.311707139,2.147248021,-0.001556999,-0.002749810,0.018732693,0.999818788,0.000000000,0.000000000,0.000000000,0.000000000,0.000000000,0.000000000,2.146759507,0.000000000,4.209501291
1772714581.043257952,0.014855000,0.007627000,0.075516000,-0.003216750,0.006202150,0.025228550,0.999657290,-0.006119000,0.012563000,0.050425000,0.000034441,-0.000068629,0.000376088,0.007541990,-0.012011475,0.001971424,0.009482241,-0.003831330,0.999255828,-0.000759973,0.000501105,-0.000482515,0.000000000,0.000000000,0.000000000,0.000000000,0.015001965,0.007623322,0.075519964,0.014204507,0.000096338,-0.001348953,0.005040606,0.000922213,-0.001082115,-0.183660295,0.313248776,2.146356073,-0.001551250,-0.002763146,0.018724904,0.999818698,0.000000000,0.000000000,0.000000000,0.000000000,0.000000000,0.000000000,2.139875726,0.000000000,4.209192473
