t,px,py,pz,qx,qy,qz,qw,roll,pitch,yaw,vx,vy,vz,wx_vicon,wy_vicon,wz_vicon,imu_acc_x,imu_acc_y,imu_acc_z,imu_gyro_x,imu_gyro_y,imu_gyro_z,motor_motor_m1,motor_motor_m2,motor_motor_m3,motor_motor_m4,est_stateEstimate_x,est_stateEstimate_y,est_stateEstimate_z,est_stateEstimate_vx,est_stateEstimate_vy,est_stateEstimate_vz,est_stateEstimate_ax,est_stateEstimate_ay,est_stateEstimate_az,att_stateEstimate_roll,att_stateEstimate_pitch,att_stateEstimate_yaw,att_stateEstimate_qx,att_stateEstimate_qy,att_stateEstimate_qz,att_stateEstimate_qw,sp_ctrltarget_x,sp_ctrltarget_y,sp_ctrltarget_z,sp_ctrltarget_yaw,pid_controller_roll,pid_controller_pitch,pid_controller_yaw,pid_controller_cmd_thrust,pwr_pm_vbat
1772725411.690564871,0.015364000,0.008838000,0.071273000,0.009660840,-0.014987750,-0.002426280,-0.999838060,-0.019256000,0.030022000,0.004564000,-0.002001459,0.013051605,-0.013413183,0.319690858,-0.487499645,0.046337384,0.008529047,-0.008128547,0.998698107,0.001247739,-0.000074085,-0.001596374,0.000000000,0.000000000,0.000000000,0.000000000,0.015612705,0.008893477,0.071181715,0.027239834,0.001724122,-0.004944517,0.007989436,-0.000041253,-0.000935040,-0.464684849,0.027384422,0.040917135,-0.004055040,-0.000240420,0.000356097,0.999990702,0.000000000,0.000000000,0.000000000,0.000000000,0.000000000,0.000000000,-0.820819616,0.000000000,4.148973465
1772725411.700564384,0.015350000,0.008882000,0.071229000,0.008523800,-0.013114120,-0.002150200,-0.999875360,-0.016996000,0.026265000,0.004078000,-0.002602741,0.009834003,-0.006660496,0.297754206,-0.440952441,-0.096477693,0.009037648,-0.007741555,0.998128145,0.000008334,-0.001549745,-0.003452794,0.000000000,0.000000000,0.000000000,0.000000000,0.015619095,0.008850559,0.071215801,0.027201060,0.001463474,-0.004598564,0.009006972,0.000411869,-0.001978426,-0.464011779,0.027341698,0.038834501,-0.004049170,-0.000239972,0.000337926,0.999990730,0.000000000,0.000000000,0.000000000,0.000000000,0.000000000,0.000000000,-0.820819616,0.000000000,4.148973465
1772725411.710564375,0.015342000,0.008887000,0.071221000,0.007486200,-0.011826230,-0.001952710,-0.999900140,-0.014929000,0.023682000,0.003729000,-0.002235142,0.006057193,-0.002063755,0.239525661,-0.349569447,-0.149054313,0.008316952,-0.007174316,0.998398428,0.000029895,0.003995350,-0.003559282,0.000000000,0.000000000,0.000000000,0.000000000,0.015623200,0.008795500,0.071267246,0.027268200,0.001317104,-0.004339201,0.007919537,0.000687219,-0.001766351,-0.463188898,0.028264726,0.037064495,-0.004041991,-0.000247962,0.000322449,0.999990761,0.000000000,0.000000000,0.000000000,0.000000000,0.000000000,0.000000000,-0.820819616,0.000000000,4.148973465
1772725411.720563889,0.015298000,0.009100000,0.071113000,0.005785640,-0.009150220,-0.000964150,-0.999940930,-0.011555000,0.018312000,0.001823000,-0.001226633,0.002109986,0.000775642,0.157928164,-0.229345182,-0.134539245,0.008867669,-0.007429385,0.998444481,-0.000270567,0.004704219,-0.000279454,0.000000000,0.000000000,0.000000000,0.000000000,0.015618554,0.008828534,0.071241390,0.027272378,0.001489141,-0.004446617,0.008683348,-0.000465392,-0.001863944,-0.462912452,0.027372586,0.035665479,-0.004039584,-0.000240126,0.000310272,0.999990761,0.000000000,0.000000000,0.000000000,0.000000000,0.000000000,0.000000000,-0.820819616,0.000000000,4.148973465
1772725411.730563879,0.015270000,0.009138000,0.071114000,0.004960420,-0.008033000,-0.000049210,-0.999955430,-0.009921000,0.016066000,0.000019000,0.000094814,-0.001618805,0.002256296,0.065784303,-0.096468680,-0.075712644,0.009145883,-0.006073835,0.998845400,-0.000817792,-0.000951368,0.000781362,0.000000000,0.000000000,0.000000000,0.000000000,0.015603870,0.008888790,0.071202882,0.027194809,0.001753902,-0.004591788,0.008367860,0.002221343,-0.001241386,-0.462849973,0.025685921,0.035748843,-0.004039043,-0.000225410,0.000311059,0.999990761,0.000000000,0.000000000,0.000000000,0.000000000,0.000000000,0.000000000,-0.820819616,0.000000000,4.148973465
1772725411.740563154,0.015285000,0.009133000,0.071102000,0.004211020,-0.006883820,0.000287820,-0.999967400,-0.008427000,0.013765000,-0.000634000,0.001401225,-0.004740370,0.002776809,-0.024478932,0.032697222,0.004415503,0.009146654,-0.006411762,0.999880930,-0.000248862,-0.001029200,0.000310098,0.000000000,0.000000000,0.000000000,0.000000000,0.015577865,0.009009006,0.071135937,0.027095465,0.002252746,-0.004831668,0.008770825,0.001679473,-0.000258776,-0.463053665,0.025543889,0.036417222,-0.004040820,-0.000224195,0.000316897,0.999990761,0.000000000,0.000000000,0.000000000,0.000000000,0.000000000,0.000000000,-0.820819616,0.000000000,4.148973465
1772725411.750563622,0.015371000,0.008716000,0.071379000,0.006856140,-0.010729870,-0.000886340,-0.999918540,-0.013696000,0.021472000,0.001626000,0.002190523,-0.008031398,0.004311834,-0.110256102,0.157087954,0.071104397,0.009519332,-0.007440504,1.000050702,-0.000599370,0.000649885,0.000092866,0.000000000,0.000000000,0.000000000,0.000000000,0.015558781,0.009079226,0.071101457,0.027016974,0.002658109,-0.004870045,0.008953421,0.000513631,0.000049142,-0.462978693,0.026281229,0.036503163,-0.004040163,-0.000230632,0.000317621,0.999990761,0.000000000,0.000000000,0.000000000,0.000000000,0.000000000,0.000000000,-0.820819616,0.000000000,4.148973465
1772725411.760563135,0.015359000,0.008822000,0.071275000,0.006899460,-0.010777040,-0.001242440,-0.999917350,-0.013775000,0.021571000,0.002337000,0.002157170,-0.008043811,0.003960202,-0.150384918,0.222384565,0.113150627,0.009843824,-0.009469196,0.997306100,-0.003665556,0.004825319,0.000807884,0.000000000,0.000000000,0.000000000,0.000000000,0.015560777,0.009119035,0.071072953,0.027013942,0.002801752,-0.004735837,0.009302285,-0.001517565,-0.002505542,-0.462482322,0.026782074,0.035698476,-0.004035832,-0.000234973,0.000310582,0.999990761,0.000000000,0.000000000,0.000000000,0.000000000,0.000000000,0.000000000,-0.820819616,0.000000000,4.148973465
1772725411.770562887,0.015360000,0.008854000,0.071255000,0.006939940,-0.010847630,-0.001606640,-0.999915790,-0.013848000,0.021717000,0.003063000,0.001143552,-0.003399246,0.001158878,-0.117092081,0.177897221,0.108494251,0.009255645,-0.009855675,0.995993753,-0.001834859,0.003736402,0.000724646,0.000000000,0.000000000,0.000000000,0.000000000,0.015557814,0.009133678,0.071075338,0.027030784,0.002771395,-0.004568070,0.008736749,-0.001848181,-0.003509694,-0.463156655,0.025993969,0.034831044,-0.004041720,-0.000228067,0.000303039,0.999990761,0.000000000,0.000000000,0.000000000,0.000000000,0.000000000,0.000000000,-0.820819616,0.000000000,4.149110589
1772725411.780562878,0.015370000,0.008854000,0.071223000,0.006728870,-0.010652680,-0.001914990,-0.999918780,-0.013419000,0.021331000,0.003687000,-0.000295785,0.000851263,-0.000638734,-0.065492368,0.108366837,0.064713583,0.008647791,-0.008974871,0.996011322,0.001161357,0.000432193,-0.000292221,0.000000000,0.000000000,0.000000000,0.000000000,0.015554292,0.009136166,0.071073678,0.027053255,0.002438955,-0.004747015,0.008284222,-0.001259386,-0.004066126,-0.463835474,0.024770589,0.034273625,-0.004047648,-0.000217373,0.000298216,0.999990761,0.000000000,0.000000000,0.000000000,0.000000000,0.000000000,0.000000000,-0.820819616,0.000000000,4.149601449
1772725411.790562630,0.015377000,0.008683000,0.071384000,0.008574290,-0.013421240,-0.002493160,-0.999870060,-0.017086000,0.026885000,0.004757000,-0.000739900,0.003238873,-0.001924574,-0.001238149,0.016606286,0.024888298,0.009131147,-0.009031766,0.996435042,-0.000219620,0.001963804,-0.002127767,0.000000000,0.000000000,0.000000000,0.000000000,0.015558282,0.009105526,0.071087576,0.027027831,0.002113394,-0.004865912,0.008671293,-0.001087589,-0.003318059,-0.463221073,0.025210562,0.034275678,-0.004042285,-0.000221211,0.000298220,0.999990761,0.000000000,0.000000000,0.000000000,0.000000000,0.000000000,0.000000000,-0.820819616,0.000000000,4.150092297
1772725411.800561905,0.015360000,0.008841000,0.071251000,0.007828590,-0.012391450,-0.002377780,-0.999889750,-0.015602000,0.024820000,0.004562000,-0.000328050,0.001251050,-0.000480614,0.012867425,-0.003545476,0.009570341,0.010828760,-0.008399149,0.997858711,-0.002382121,0.002050382,-0.003061271,0.000000000,0.000000000,0.000000000,0.000000000,0.015590139,0.008921555,0.071205595,0.027164836,0.001348631,-0.004531328,0.010657798,-0.000374284,-0.001919592,-0.463309854,0.024756799,0.034133846,-0.004043061,-0.000217247,0.000296998,0.999990761,0.000000000,0.000000000,0.000000000,0.000000000,0.000000000,0.000000000,-0.820819616,0.000000000,4.150583121
1772725411.810561895,0.015354000,0.008875000,0.071236000,0.007379990,-0.011862910,-0.002361130,-0.999899610,-0.014707000,0.023761000,0.004548000,-0.000649457,0.002422108,-0.001524652,0.052664872,-0.058446758,-0.018127491,0.011894633,-0.007609561,0.998430277,-0.002935428,0.001298514,-0.002363216,0.000000000,0.000000000,0.000000000,0.000000000,0.015609537,0.008886601,0.071208044,0.027321332,0.001158707,-0.004551698,0.011423135,0.000268685,-0.001610086,-0.463925482,0.024056746,0.033664731,-0.004048437,-0.000211123,0.000292928,0.999990761,0.000000000,0.000000000,0.000000000,0.000000000,0.000000000,0.000000000,-0.820819616,0.000000000,4.151073981
1772725411.820561409,0.015338000,0.008884000,0.071255000,0.007315120,-0.011749300,-0.002003420,-0.999902210,-0.014586000,0.023528000,0.003836000,-0.000596562,0.003639359,-0.002901654,0.104030967,-0.134550615,-0.037105859,0.009581147,-0.008505815,0.997899229,0.001060939,0.001691299,-0.002058387,0.000000000,0.000000000,0.000000000,0.000000000,0.015622142,0.008875946,0.071199149,0.027590803,0.001125358,-0.004568021,0.009419000,0.000020960,-0.002230392,-0.464833565,0.024183978,0.033290759,-0.004056361,-0.000212222,0.000289658,0.999990716,0.000000000,0.000000000,0.000000000,0.000000000,0.000000000,0.000000000,-0.820819616,0.000000000,4.151564817
1772725411.830561161,0.015361000,0.008893000,0.071207000,0.006524390,-0.010732890,-0.002138950,-0.999918830,-0.013005000,0.021494000,0.004138000,-0.000129973,0.000238403,-0.000551671,0.071243892,-0.089635348,-0.030909500,0.007350131,-0.008555672,0.997552600,-0.001710383,0.001158700,-0.001375375,0.000000000,0.000000000,0.000000000,0.000000000,0.015626705,0.008877201,0.071193727,0.027792536,0.001141990,-0.004578812,0.006878125,-0.000698752,-0.002878551,-0.464689857,0.023478425,0.032820114,-0.004055110,-0.000206048,0.000285576,0.999990702,0.000000000,0.000000000,0.000000000,0.000000000,0.000000000,0.000000000,-0.820819616,0.000000000,4.152055665
1772725411.840561152,0.015345000,0.008883000,0.071224000,0.006364870,-0.010586270,-0.001886540,-0.999921930,-0.012692000,0.021196000,0.003639000,0.000384402,-0.003620555,0.002642349,-0.020142250,0.037282055,-0.007032259,0.008840176,-0.009234521,0.996316686,0.000897032,-0.001498377,-0.000322155,0.000000000,0.000000000,0.000000000,0.000000000,0.015627797,0.008881744,0.071192002,0.027793678,0.001132768,-0.004624324,0.008196291,-0.000964339,-0.003974068,-0.464624175,0.022801165,0.033013856,-0.004054538,-0.000200144,0.000287291,0.999990702,0.000000000,0.000000000,0.000000000,0.000000000,0.000000000,0.000000000,-0.820819616,0.000000000,4.152546525
1772725411.850561142,0.015339000,0.008870000,0.071234000,0.006514690,-0.010935650,-0.001669770,-0.999917590,-0.012995000,0.021893000,0.003198000,0.000572087,-0.004437922,0.002999342,-0.074695562,0.119138973,0.015474791,0.009271478,-0.008632072,0.997673076,-0.001104516,0.001608848,-0.001308641,0.000000000,0.000000000,0.000000000,0.000000000,0.015630141,0.008885133,0.071182534,0.027730781,0.001078881,-0.004760552,0.009250231,-0.000354831,-0.002218144,-0.463924816,0.023223767,0.033075994,-0.004048434,-0.000203833,0.000287819,0.999990732,0.000000000,0.000000000,0.000000000,0.000000000,0.000000000,0.000000000,-0.820819616,0.000000000,4.153037384
1772725411.860560894,0.015357000,0.008868000,0.071225000,0.006405170,-0.010619500,-0.001862370,-0.999921360,-0.012773000,0.021263000,0.003589000,0.000203516,-0.002173409,0.001739357,-0.085284765,0.132735922,0.024110392,0.008530398,-0.010178581,0.999261329,0.000578187,-0.003433978,-0.006136648,0.000000000,0.000000000,0.000000000,0.000000000,0.015630007,0.008885485,0.071172321,0.027779001,0.001001786,-0.004879587,0.007928740,-0.002541126,-0.000689485,-0.463571880,0.022874992,0.032185676,-0.004045356,-0.000200757,0.000280063,0.999990761,0.000000000,0.000000000,0.000000000,0.000000000,0.000000000,0.000000000,-0.820819616,0.000000000,4.153528232
1772725411.870560884,0.015364000,0.008663000,0.071415000,0.008582670,-0.013814370,-0.002255850,-0.999865200,-0.017108000,0.027667000,0.004276000,-0.000896737,0.002029955,-0.000390463,-0.054374774,0.072096238,-0.003658094,0.007848130,-0.009178083,0.998103139,-0.001560433,-0.001079440,-0.006089008,0.000000000,0.000000000,0.000000000,0.000000000,0.015625526,0.008885894,0.071174574,0.027794953,0.000889932,-0.004801630,0.007548808,-0.001343161,-0.001750767,-0.462765151,0.023526875,0.030107294,-0.004038319,-0.000206370,0.000261904,0.999990788,0.000000000,0.000000000,0.000000000,0.000000000,0.000000000,0.000000000,-0.820819616,0.000000000,4.154019092
1772725411.880560637,0.015356000,0.008832000,0.071268000,0.007924640,-0.012887680,-0.002161160,-0.999883210,-0.015798000,0.025809000,0.004119000,-0.001348039,0.006304377,-0.003632968,0.036753755,-0.070607734,-0.039026149,0.009261207,-0.009703831,0.995811383,-0.002004780,-0.000464541,-0.000898281,0.000000000,0.000000000,0.000000000,0.000000000,0.015619562,0.008866324,0.071205202,0.027746952,0.000658898,-0.004577303,0.008607403,-0.001618197,-0.004384870,-0.462585736,0.023994894,0.028294514,-0.004036755,-0.000210390,0.000246069,0.999990799,0.000000000,0.000000000,0.000000000,0.000000000,0.000000000,0.000000000,-0.820819616,0.000000000,4.154252052
1772725411.890560627,0.015335000,0.008870000,0.071241000,0.007525520,-0.012482600,-0.002000170,-0.999891770,-0.015005000,0.024995000,0.003813000,-0.001787123,0.008983828,-0.005277996,0.128038190,-0.207209109,-0.086064574,0.009717960,-0.009498463,0.995487715,-0.001472022,0.000300214,0.000403600,0.000000000,0.000000000,0.000000000,0.000000000,0.015628391,0.008788441,0.071279561,0.027785376,0.000342179,-0.004335449,0.009149244,-0.001552983,-0.004228528,-0.462804438,0.023944343,0.027773923,-0.004038665,-0.000209931,0.000241527,0.999990778,0.000000000,0.000000000,0.000000000,0.000000000,0.000000000,0.000000000,-0.820819616,0.000000000,4.154252052
1772725411.900560379,0.015292000,0.009105000,0.071114000,0.006132120,-0.009997840,-0.001144830,-0.999930560,-0.012243000,0.020010000,0.002167000,-0.001736637,0.009137305,-0.005371528,0.189757688,-0.289120835,-0.119638588,0.008790815,-0.008439700,0.996239300,0.000600103,-0.000931693,-0.001876842,0.000000000,0.000000000,0.000000000,0.000000000,0.015624207,0.008832080,0.071245014,0.027895089,0.000397643,-0.004761617,0.008535716,-0.000098562,-0.003901548,-0.462763294,0.023733117,0.028031629,-0.004038306,-0.000208097,0.000243783,0.999990806,0.000000000,0.000000000,0.000000000,0.000000000,0.000000000,0.000000000,-0.820819616,0.000000000,4.154252052
1772725411.910559893,0.015271000,0.009134000,0.071112000,0.005335610,-0.008561030,-0.000239080,-0.999949090,-0.010668000,0.017125000,0.000387000,-0.001483354,0.009079671,-0.005555250,0.239362772,-0.357277383,-0.134131173,0.008043362,-0.007690829,0.997977495,0.000475646,-0.000646143,0.000200140,0.000000000,0.000000000,0.000000000,0.000000000,0.015600233,0.008947976,0.071166164,0.027868055,0.000779822,-0.005263523,0.007633209,0.000537862,-0.001945583,-0.462665564,0.022900813,0.027306950,-0.004037456,-0.000200808,0.000237489,0.999990774,0.000000000,0.000000000,0.000000000,0.000000000,0.000000000,0.000000000,-0.820819616,0.000000000,4.154252052
1772725411.920559645,0.015302000,0.009130000,0.071088000,0.004248170,-0.007236890,0.000022570,-0.999964790,-0.008497000,0.014474000,-0.000107000,-0.000448155,0.000943629,0.000281430,0.133350101,-0.187834845,-0.095527779,0.007662090,-0.006767795,0.998996618,0.000038646,0.000393791,0.000284307,0.000000000,0.000000000,0.000000000,0.000000000,0.015616946,0.008832443,0.071244461,0.027937286,0.000436238,-0.005004447,0.007317540,0.001254543,-0.000754884,-0.462097406,0.022505083,0.027384463,-0.004032499,-0.000197356,0.000238180,0.999990821,0.000000000,0.000000000,0.000000000,0.000000000,0.000000000,0.000000000,-0.820819616,0.000000000,4.154252052
1772725411.930560112,0.015292000,0.009123000,0.071123000,0.003981450,-0.006960580,0.000383690,-0.999967780,-0.007969000,0.013918000,-0.000823000,0.000925409,-0.004885902,0.003238387,0.020182961,-0.006153299,-0.024367418,0.008240872,-0.007515078,0.996707648,0.000591147,-0.002312517,-0.001163709,0.000000000,0.000000000,0.000000000,0.000000000,0.015645209,0.008729890,0.071313744,0.028021742,0.000246956,-0.004550268,0.007848791,0.000342416,-0.003404395,-0.461368216,0.022367304,0.028038364,-0.004026135,-0.000196175,0.000243893,0.999990841,0.000000000,0.000000000,0.000000000,0.000000000,0.000000000,0.000000000,-0.820819616,0.000000000,4.154252052
1772725411.940559864,0.015289000,0.009113000,0.071118000,0.003772620,-0.006843660,0.000465730,-0.999969360,-0.007552000,0.013684000,-0.000983000,0.001934132,-0.008876213,0.004871761,-0.089694580,0.162867225,0.057892115,0.009421556,-0.007940764,0.997098403,-0.000530003,-0.001422249,-0.001254596,0.000000000,0.000000000,0.000000000,0.000000000,0.015649324,0.008702265,0.071331016,0.028048089,0.000371870,-0.004498097,0.008789025,0.000144747,-0.002982233,-0.460387869,0.022771868,0.027508632,-0.004017580,-0.000199685,0.000239258,0.999990880,0.000000000,0.000000000,0.000000000,0.000000000,0.000000000,0.000000000,-0.820819616,0.000000000,4.154252052
1772725411.950560093,0.015289000,0.009118000,0.071104000,0.003656150,-0.006586540,0.000416630,-0.999971540,-0.007318000,0.013170000,-0.000881000,0.001980421,-0.008296084,0.004283493,-0.158100470,0.245287395,0.106872648,0.009815994,-0.006924670,0.998621424,-0.000724848,0.000788580,-0.002150517,0.000000000,0.000000000,0.000000000,0.000000000,0.015642834,0.008774493,0.071262178,0.028077244,0.000694660,-0.004949460,0.009446241,0.001018852,-0.000878812,-0.460254218,0.022941771,0.026963205,-0.004016414,-0.000201148,0.000234492,0.999990880,0.000000000,0.000000000,0.000000000,0.000000000,0.000000000,0.000000000,-0.820819616,0.000000000,4.154252052
1772725411.960560083,0.015357000,0.008703000,0.071384000,0.006857980,-0.011544270,-0.000956320,-0.999909390,-0.013697000,0.023102000,0.001755000,0.001766610,-0.006695325,0.003322828,-0.177863902,0.254128354,0.128184124,0.009697096,-0.006166620,0.998426752,-0.000618330,0.000528012,-0.002502660,0.000000000,0.000000000,0.000000000,0.000000000,0.015635260,0.008826599,0.071224244,0.028142035,0.000948227,-0.005110824,0.009408928,0.001795578,-0.001630916,-0.460157990,0.022832698,0.026161380,-0.004015575,-0.000200168,0.000227499,0.999990880,0.000000000,0.000000000,0.000000000,0.000000000,0.000000000,0.000000000,-0.820819616,0.000000000,4.154252052
1772725411.970559835,0.015376000,0.008817000,0.071255000,0.006764640,-0.011324970,-0.001684800,-0.999911570,-0.013494000,0.022673000,0.003217000,0.001557888,-0.003855248,0.001275895,-0.137538268,0.182462553,0.126505449,0.009254901,-0.006145639,0.996298399,-0.000399866,-0.002959732,-0.002676962,0.000000000,0.000000000,0.000000000,0.000000000,0.015628826,0.008852856,0.071209701,0.028203792,0.001171960,-0.005085528,0.009083660,0.001731937,-0.003272708,-0.460026021,0.022235055,0.025436893,-0.004014427,-0.000194927,0.000221198,0.999990880,0.000000000,0.000000000,0.000000000,0.000000000,0.000000000,0.000000000,-0.820819616,0.000000000,4.154252052
1772725411.980559826,0.015370000,0.008862000,0.071221000,0.006898000,-0.011334000,-0.002081750,-0.999909810,-0.013752000,0.022697000,0.004008000,0.000819698,-0.000394017,-0.000784325,-0.071083576,0.074147712,0.096295682,0.008927856,-0.009701341,0.997326610,-0.002042325,-0.000840060,-0.003961587,0.000000000,0.000000000,0.000000000,0.000000000,0.015625609,0.008872284,0.071193888,0.028251930,0.001371387,-0.005157856,0.008845984,-0.001672037,-0.002473900,-0.460000991,0.022440696,0.024687479,-0.004014209,-0.000196695,0.000214651,0.999990880,0.000000000,0.000000000,0.000000000,0.000000000,0.000000000,0.000000000,-0.820819616,0.000000000,4.154252052
1772725411.990560055,0.015355000,0.008872000,0.071241000,0.007210250,-0.011550980,-0.002123900,-0.999905030,-0.014374000,0.023132000,0.004082000,-0.000384480,0.003599906,-0.003164416,0.021244523,-0.058344961,0.038410728,0.008304065,-0.010061912,0.997215167,-0.002465151,0.001981117,-0.000564908,0.000000000,0.000000000,0.000000000,0.000000000,0.015625353,0.008884069,0.071179414,0.028280174,0.001485276,-0.005298539,0.008052888,-0.001619250,-0.002816042,-0.460308699,0.022287927,0.023898616,-0.004016896,-0.000195335,0.000207772,0.999990880,0.000000000,0.000000000,0.000000000,0.000000000,0.000000000,0.000000000,-0.820819616,0.000000000,4.153978652
1772725412.000560045,0.015363000,0.008879000,0.071225000,0.006883880,-0.011065480,-0.002413030,-0.999912170,-0.013717000,0.022164000,0.004674000,-0.000849671,0.002285725,-0.001168746,0.028447723,-0.061576721,-0.003513095,0.008336580,-0.010538682,0.997170204,-0.002503438,0.002117959,0.002777843,0.000000000,0.000000000,0.000000000,0.000000000,0.015625045,0.008887764,0.071176542,0.028273258,0.001345471,-0.005343780,0.008022958,-0.002141142,-0.002853672,-0.460712370,0.021580749,0.023502322,-0.004020421,-0.000189151,0.000204337,0.999990880,0.000000000,0.000000000,0.000000000,0.000000000,0.000000000,0.000000000,-0.820819616,0.000000000,4.153520934
1772725412.010560513,0.015361000,0.008874000,0.071207000,0.006797860,-0.010793460,-0.002393540,-0.999915780,-0.013546000,0.021619000,0.004641000,-0.000026923,-0.004027549,0.003758453,-0.057515691,0.086999444,0.000825520,0.008828376,-0.010566884,0.996971311,-0.001059495,-0.002310762,0.001096678,0.000000000,0.000000000,0.000000000,0.000000000,0.015621301,0.008882934,0.071172850,0.028178493,0.001161320,-0.005411567,0.008228745,-0.001994459,-0.003064146,-0.461141131,0.020094093,0.024586356,-0.004024163,-0.000176216,0.000213849,0.999990880,0.000000000,0.000000000,0.000000000,0.000000000,0.000000000,0.000000000,-0.820819616,0.000000000,4.153063193
1772725412.020560741,0.015357000,0.008877000,0.071210000,0.006820480,-0.010887920,-0.002293120,-0.999914830,-0.013594000,0.021807000,0.004438000,-0.000339880,-0.000573000,0.001337258,-0.033636765,0.065645107,-0.014021103,0.008399594,-0.008648177,0.996254613,0.000607189,-0.004600098,-0.003617579,0.000000000,0.000000000,0.000000000,0.000000000,0.015629440,0.008783280,0.071265554,0.028236939,0.000576326,-0.005042480,0.008034872,-0.001029938,-0.003492372,-0.461762023,0.019498055,0.026784812,-0.004029579,-0.000171093,0.000233054,0.999990877,0.000000000,0.000000000,0.000000000,0.000000000,0.000000000,0.000000000,-0.820819616,0.000000000,4.152605464
1772725412.030560732,0.015335000,0.008876000,0.071250000,0.007004480,-0.011398450,-0.001892280,-0.999908710,-0.013969000,0.022823000,0.003625000,-0.000824671,0.001218999,0.000241278,-0.014701655,0.048550528,-0.026565597,0.008368927,-0.008283305,0.996764341,-0.001091550,-0.000550855,-0.000632583,0.000000000,0.000000000,0.000000000,0.000000000,0.015631456,0.008806937,0.071250582,0.028236981,0.000580986,-0.005210657,0.008055446,-0.000630059,-0.003162940,-0.461766129,0.020110463,0.025914718,-0.004029615,-0.000176407,0.000225439,0.999990824,0.000000000,0.000000000,0.000000000,0.000000000,0.000000000,0.000000000,-0.820819616,0.000000000,4.152147746
1772725412.040560722,0.015368000,0.008679000,0.071419000,0.008900510,-0.014217110,-0.002372400,-0.999856500,-0.017739000,0.028476000,0.004493000,-0.000475428,0.000552603,0.000641473,-0.018799413,0.060134009,-0.028549698,0.008760921,-0.007843868,0.998184113,0.001025995,0.002107395,-0.003003708,0.000000000,0.000000000,0.000000000,0.000000000,0.015632013,0.008841136,0.071225715,0.028208394,0.000673176,-0.005415209,0.008311488,0.000528207,-0.001945044,-0.461960789,0.020191785,0.025436634,-0.004031314,-0.000177100,0.000221264,0.999990821,0.000000000,0.000000000,0.000000000,0.000000000,0.000000000,0.000000000,-0.820819616,0.000000000,4.151690027
1772725412.050560713,0.015357000,0.008834000,0.071278000,0.007996440,-0.013120120,-0.002251590,-0.999879420,-0.015938000,0.026276000,0.004294000,0.000355342,-0.002671506,0.002642097,-0.068994380,0.127349215,-0.007132579,0.009037481,-0.005850676,0.998503892,0.003211267,-0.000416804,-0.003171662,0.000000000,0.000000000,0.000000000,0.000000000,0.015628101,0.008860929,0.071206917,0.028173430,0.000746037,-0.005491064,0.008567439,0.002331866,-0.001283631,-0.461922328,0.019333059,0.025421123,-0.004030981,-0.000169606,0.000221159,0.999990821,0.000000000,0.000000000,0.000000000,0.000000000,0.000000000,0.000000000,-0.820819616,0.000000000,4.151232309
1772725412.060560703,0.015300000,0.009091000,0.071113000,0.006257290,-0.010532900,-0.001447230,-0.999923900,-0.012486000,0.021084000,0.002763000,0.000892483,-0.003929394,0.002435259,-0.100238005,0.155577837,0.015467661,0.008894861,-0.005199014,0.998073205,-0.001511864,0.002154158,-0.002185767,0.000000000,0.000000000,0.000000000,0.000000000,0.015626810,0.008844771,0.071216420,0.028178524,0.000773562,-0.005393774,0.008790564,0.003255060,-0.001846030,-0.461453217,0.019257173,0.025064048,-0.004026888,-0.000168930,0.000218046,0.999990845,0.000000000,0.000000000,0.000000000,0.000000000,0.000000000,0.000000000,-0.820819616,0.000000000,4.150774590
1772725412.070560217,0.015352000,0.008739000,0.071353000,0.008204300,-0.013586770,-0.001936640,-0.999872160,-0.016361000,0.027205000,0.003651000,0.000987705,-0.003165796,0.001208859,-0.095987175,0.130492162,0.025221288,0.008816134,-0.006777379,0.996857782,-0.003465442,0.002158247,-0.002377500,0.000000000,0.000000000,0.000000000,0.000000000,0.015631760,0.008779741,0.071266998,0.028254319,0.000780156,-0.005095207,0.008682917,0.001495857,-0.002973395,-0.461245727,0.019010262,0.024673251,-0.004025078,-0.000166761,0.000214645,0.999990880,0.000000000,0.000000000,0.000000000,0.000000000,0.000000000,0.000000000,-0.820819616,0.000000000,4.150316894
1772725412.080560207,0.015401000,0.008636000,0.071416000,0.009527790,-0.015423580,-0.002319690,-0.999832960,-0.018991000,0.030891000,0.004347000,0.000521757,-0.001565852,0.000372514,-0.069790128,0.070272814,0.018945553,0.009549208,-0.008563104,0.996276675,-0.001279968,0.001678252,-0.002444986,0.000000000,0.000000000,0.000000000,0.000000000,0.015621718,0.008807229,0.071237255,0.028261293,0.001178004,-0.005199915,0.009100949,-0.000361396,-0.003501567,-0.461612811,0.018036632,0.024189126,-0.004028284,-0.000158249,0.000210454,0.999990880,0.000000000,0.000000000,0.000000000,0.000000000,0.000000000,0.000000000,-0.820819616,0.000000000,4.149859175
1772725412.090560436,0.015384000,0.008617000,0.071442000,0.010669830,-0.016745460,-0.002630590,-0.999799390,-0.021261000,0.033547000,0.004906000,0.000286209,-0.000392716,-0.000303827,-0.023671885,-0.001185694,0.021182253,0.010413685,-0.008648435,0.996967769,0.001757184,0.002863982,-0.000632521,0.000000000,0.000000000,0.000000000,0.000000000,0.015633742,0.008754273,0.071287704,0.028361958,0.001038677,-0.005108614,0.009691688,-0.000758557,-0.003354636,-0.461117214,0.017581239,0.022691627,-0.004023962,-0.000154221,0.000197403,0.999990884,0.000000000,0.000000000,0.000000000,0.000000000,0.000000000,0.000000000,-0.820819616,0.000000000,4.149401446
1772725412.100560427,0.015364000,0.008835000,0.071238000,0.008931550,-0.014068800,-0.002475630,-0.999858070,-0.017799000,0.028182000,0.004701000,-0.000408178,0.004137844,-0.003560609,0.086795176,-0.152680977,0.002701441,0.008881174,-0.007744319,0.996637327,-0.000705781,0.002238258,0.000571948,0.000000000,0.000000000,0.000000000,0.000000000,0.015629443,0.008787989,0.071269932,0.028497914,0.001114990,-0.005261800,0.009148016,0.000143904,-0.003551342,-0.460034009,0.016267525,0.021915862,-0.004014513,-0.000142728,0.000190680,0.999990938,0.000000000,0.000000000,0.000000000,0.000000000,0.000000000,0.000000000,-0.820819616,0.000000000,4.149005359
1772725412.110560656,0.015352000,0.008882000,0.071226000,0.008018770,-0.012533370,-0.002148560,-0.999886990,-0.015988000,0.025101000,0.004097000,-0.001409986,0.008657312,-0.006825803,0.209535554,-0.324383318,-0.030589257,0.008351912,-0.007459331,0.995897700,-0.003129897,0.003608032,-0.001030289,0.000000000,0.000000000,0.000000000,0.000000000,0.015630101,0.008833271,0.071229905,0.028596952,0.001272620,-0.005510521,0.008151757,0.000740708,-0.004022013,-0.460104850,0.016086185,0.022110843,-0.004015131,-0.000141152,0.000192388,0.999990940,0.000000000,0.000000000,0.000000000,0.000000000,0.000000000,0.000000000,-0.820819616,0.000000000,4.149496283
1772725412.120560646,0.015342000,0.008890000,0.071232000,0.007351960,-0.011444630,-0.002039890,-0.999905400,-0.014660000,0.022919000,0.003912000,-0.000834305,0.002582967,-0.002041125,0.161458290,-0.239595136,-0.029425465,0.009196190,-0.009181286,0.995563421,0.001918719,-0.000403864,0.000189008,0.000000000,0.000000000,0.000000000,0.000000000,0.015631564,0.008868516,0.071202234,0.028592766,0.001444917,-0.005754441,0.008766102,-0.000649022,-0.004068950,-0.460689352,0.014207781,0.022147565,-0.004020235,-0.000124762,0.000192774,0.999990888,0.000000000,0.000000000,0.000000000,0.000000000,0.000000000,0.000000000,-0.820819616,0.000000000,4.149987195
1772725412.130559683,0.015350000,0.008887000,0.071208000,0.006466890,-0.010655690,-0.002132480,-0.999920040,-0.012891000,0.021339000,0.004128000,0.000045882,-0.002128732,0.001776692,0.062552793,-0.083643081,-0.015023715,0.008993009,-0.007790884,0.997287923,0.004909549,-0.002893782,-0.001351935,0.000000000,0.000000000,0.000000000,0.000000000,0.015632143,0.008884467,0.071186278,0.028604173,0.001447898,-0.005994781,0.008701520,0.000438591,-0.003261292,-0.460435522,0.013758392,0.022455069,-0.004018020,-0.000120851,0.000195473,0.999990880,0.000000000,0.000000000,0.000000000,0.000000000,0.000000000,0.000000000,-0.820819616,0.000000000,4.150478060
1772725412.140559912,0.015350000,0.008878000,0.071225000,0.006443310,-0.010403270,-0.001963630,-0.999923200,-0.012848000,0.020832000,0.003794000,0.000420144,-0.004041632,0.003634638,-0.028146667,0.052782541,0.002800756,0.008922926,-0.006953315,0.997580949,0.000264298,0.000356688,0.003253301,0.000000000,0.000000000,0.000000000,0.000000000,0.015610966,0.008981196,0.071117522,0.028526185,0.001744200,-0.006358627,0.008892941,0.001176690,-0.002442485,-0.458129436,0.015074387,0.021226722,-0.003997895,-0.000132288,0.000184711,0.999990998,0.000000000,0.000000000,0.000000000,0.000000000,0.000000000,0.000000000,-0.820819616,0.000000000,4.150968983
1772725412.150559902,0.015342000,0.008865000,0.071220000,0.006315590,-0.010045740,-0.001916250,-0.999927760,-0.012595000,0.020116000,0.003706000,0.000244872,-0.000872922,0.000946096,-0.022037783,0.040657682,0.004511851,0.008658923,-0.006237172,0.998557131,-0.001435744,-0.000309139,0.000660543,0.000000000,0.000000000,0.000000000,0.000000000,0.015620346,0.008886813,0.071188502,0.028592199,0.001456556,-0.006041925,0.008619580,0.001649407,-0.001653780,-0.457682894,0.014787878,0.021790064,-0.003993997,-0.000129807,0.000189637,0.999991000,0.000000000,0.000000000,0.000000000,0.000000000,0.000000000,0.000000000,-0.820819616,0.000000000,4.151459895
1772725412.160559893,0.015363000,0.008665000,0.071417000,0.008333990,-0.013171490,-0.002157120,-0.999876190,-0.016616000,0.026379000,0.004096000,0.000324184,-0.001075933,0.001421311,-0.046233089,0.064992969,0.008989237,0.008396088,-0.008863236,0.997631566,-0.001373686,0.002134828,0.006005206,0.000000000,0.000000000,0.000000000,0.000000000,0.015623262,0.008857526,0.071209265,0.028622432,0.001504662,-0.005863999,0.007923027,-0.000244722,-0.001973175,-0.458030383,0.015184354,0.021121364,-0.003997030,-0.000133244,0.000183787,0.999991000,0.000000000,0.000000000,0.000000000,0.000000000,0.000000000,0.000000000,-0.820819616,0.000000000,4.151950807
1772725412.170559883,0.015358000,0.008841000,0.071271000,0.007474230,-0.012045460,-0.002168020,-0.999897170,-0.014900000,0.024123000,0.004157000,-0.000108217,0.000181605,0.000125952,-0.036296475,0.045866950,0.007802304,0.009222139,-0.009113889,1.001449452,-0.005674618,0.002045068,0.002452001,0.000000000,0.000000000,0.000000000,0.000000000,0.015627004,0.008863435,0.071197395,0.028607832,0.001536538,-0.005867480,0.008663474,-0.001370986,0.000700696,-0.458129339,0.015618197,0.022316839,-0.003997892,-0.000137072,0.000194205,0.999991000,0.000000000,0.000000000,0.000000000,0.000000000,0.000000000,0.000000000,-0.820819616,0.000000000,4.152441719
1772725412.180559874,0.015357000,0.008879000,0.071244000,0.006952250,-0.011200600,-0.002136460,-0.999910820,-0.013859000,0.022431000,0.004118000,0.000019911,-0.000783936,0.000302467,-0.044820211,0.060959787,0.016273334,0.008508127,-0.010048148,1.001843769,-0.000502295,0.004343386,0.001431786,0.000000000,0.000000000,0.000000000,0.000000000,0.015630485,0.008871570,0.071187471,0.028622619,0.001462813,-0.005715068,0.008922651,-0.002221138,0.002180328,-0.458934829,0.015712052,0.023168697,-0.004004920,-0.000137922,0.000201634,0.999990960,0.000000000,0.000000000,0.000000000,0.000000000,0.000000000,0.000000000,-0.820819616,0.000000000,4.152932631
1772725412.190559626,0.015343000,0.008882000,0.071226000,0.006840690,-0.010838010,-0.002079740,-0.999915710,-0.013639000,0.021704000,0.004012000,-0.000118357,-0.001294737,0.000819154,-0.066624990,0.086653462,0.012944415,0.006403957,-0.008049490,0.998638530,-0.000844914,0.002473324,-0.003675025,0.000000000,0.000000000,0.000000000,0.000000000,0.015630242,0.008877842,0.071182657,0.028621310,0.001340452,-0.005423642,0.005730304,-0.000147127,-0.001336061,-0.459112261,0.014144977,0.023790349,-0.004006470,-0.000124269,0.000207114,0.999990940,0.000000000,0.000000000,0.000000000,0.000000000,0.000000000,0.000000000,-0.820819616,0.000000000,4.153423531
1772725412.200559616,0.015366000,0.008678000,0.071392000,0.008729210,-0.013549180,-0.002445900,-0.999867110,-0.017397000,0.027141000,0.004656000,-0.000179274,-0.001204799,0.000577196,-0.067234803,0.084765078,0.010551091,0.006678394,-0.006797638,0.998823662,-0.001582295,0.002926761,-0.002437820,0.000000000,0.000000000,0.000000000,0.000000000,0.015627790,0.008883360,0.071177408,0.028526408,0.001245410,-0.005185118,0.006368329,0.001089952,-0.000975988,-0.459136714,0.012905282,0.023307661,-0.004006686,-0.000113434,0.000202945,0.999990940,0.000000000,0.000000000,0.000000000,0.000000000,0.000000000,0.000000000,-0.820819616,0.000000000,4.153914443
1772725412.210559130,0.015335000,0.008828000,0.071253000,0.008059570,-0.012655300,-0.002214130,-0.999884990,-0.016067000,0.025346000,0.004225000,0.000041706,-0.001411190,0.001272068,-0.068331052,0.093518392,0.008182321,0.007494890,-0.006482759,0.999011748,-0.000073788,0.004663028,-0.002195070,0.000000000,0.000000000,0.000000000,0.000000000,0.015627077,0.008885944,0.071171006,0.028294136,0.001288166,-0.005145536,0.007079058,0.001165825,-0.000650854,-0.459268957,0.012581528,0.022342692,-0.004007842,-0.000110575,0.000194535,0.999990940,0.000000000,0.000000000,0.000000000,0.000000000,0.000000000,0.000000000,-0.820819616,0.000000000,4.154252052
1772725412.220558882,0.015370000,0.008686000,0.071390000,0.009369100,-0.014433420,-0.002551380,-0.999848680,-0.018671000,0.028914000,0.004834000,0.000343843,0.000670416,-0.000435179,-0.013313770,0.022942125,0.001820891,0.008202589,-0.006621310,0.997348295,0.002651039,0.004281840,-0.002053834,0.000000000,0.000000000,0.000000000,0.000000000,0.015631074,0.008889605,0.071162754,0.028154316,0.001429770,-0.005041931,0.008057014,0.001018806,-0.002014089,-0.459330323,0.012539680,0.021407255,-0.004008379,-0.000110177,0.000186373,0.999990940,0.000000000,0.000000000,0.000000000,0.000000000,0.000000000,0.000000000,-0.820819616,0.000000000,4.154252052
1772725412.230558634,0.015344000,0.008830000,0.071290000,0.008623670,-0.013443480,-0.002230980,-0.999869960,-0.017192000,0.026925000,0.004231000,-0.000253400,0.005940041,-0.004298042,0.106499743,-0.149863143,-0.027669161,0.009077142,-0.006726414,0.995215412,0.002811008,-0.000341825,0.001531153,0.000000000,0.000000000,0.000000000,0.000000000,0.015638754,0.008793108,0.071251485,0.028142371,0.001225807,-0.004530722,0.009024698,0.001050686,-0.004414703,-0.458798324,0.011980971,0.019982604,-0.004003738,-0.000105251,0.000173961,0.999990943,0.000000000,0.000000000,0.000000000,0.000000000,0.000000000,0.000000000,-0.820819616,0.000000000,4.154252052
1772725412.240558624,0.015355000,0.008883000,0.071221000,0.007556300,-0.011880940,-0.002232260,-0.999898380,-0.015063000,0.023795000,0.004286000,-0.000444445,0.005456377,-0.004018904,0.149591972,-0.219739354,-0.040811638,0.009500827,-0.006633585,0.996974599,-0.000033694,-0.000713707,-0.001491316,0.000000000,0.000000000,0.000000000,0.000000000,0.015648605,0.008732384,0.071310872,0.028254371,0.001154796,-0.004454627,0.009255361,0.001602588,-0.003749998,-0.458103926,0.012674100,0.020819562,-0.003997677,-0.000111328,0.000181241,0.999990996,0.000000000,0.000000000,0.000000000,0.000000000,0.000000000,0.000000000,-0.820819616,0.000000000,4.154252052
1772725412.250558615,0.015354000,0.008889000,0.071234000,0.007073110,-0.011207810,-0.002009960,-0.999910150,-0.014104000,0.022444000,0.003862000,-0.000364996,0.001785297,-0.001130324,0.100802115,-0.149521527,-0.036115965,0.009784341,-0.004823070,0.999155114,-0.002429640,0.001017592,0.000129415,0.000000000,0.000000000,0.000000000,0.000000000,0.015629697,0.008828251,0.071260474,0.028257408,0.001627176,-0.004858027,0.009480682,0.002937951,-0.001449674,-0.457935449,0.012259032,0.021100036,-0.003996207,-0.000107715,0.000183703,0.999991000,0.000000000,0.000000000,0.000000000,0.000000000,0.000000000,0.000000000,-0.820819616,0.000000000,4.154252052
1772725412.260558367,0.015354000,0.008882000,0.071227000,0.006761850,-0.010782330,-0.001818260,-0.999917350,-0.013487000,0.021589000,0.003491000,-0.000419134,0.000351826,-0.000464589,0.063114116,-0.087256712,-0.024324191,0.010090558,-0.008628085,0.998479132,0.000414612,0.005733300,0.004731726,0.000000000,0.000000000,0.000000000,0.000000000,0.015600407,0.008959364,0.071186060,0.028218720,0.002276736,-0.005194271,0.009710102,-0.000106195,-0.000702409,-0.458364641,0.011023623,0.021750709,-0.003999953,-0.000096958,0.000189424,0.999990962,0.000000000,0.000000000,0.000000000,0.000000000,0.000000000,0.000000000,-0.820819616,0.000000000,4.154252052
1772725412.270557880,0.015306000,0.009087000,0.071093000,0.005144700,-0.008304960,-0.001236560,-0.999951510,-0.010270000,0.016623000,0.002388000,0.000165288,-0.002597963,0.001845456,-0.010411263,0.024413792,-0.000118166,0.008538975,-0.009018041,0.996641801,-0.000743936,0.001929540,0.000306777,0.000000000,0.000000000,0.000000000,0.000000000,0.015582691,0.009037565,0.071136019,0.028228518,0.002667496,-0.005311039,0.008649427,-0.001382984,-0.003242425,-0.458524024,0.009199534,0.023106794,-0.004001346,-0.000081087,0.000201322,0.999990940,0.000000000,0.000000000,0.000000000,0.000000000,0.000000000,0.000000000,-0.820819616,0.000000000,4.154252052
1772725412.280557632,0.015360000,0.008719000,0.071360000,0.007492330,-0.011723350,-0.001925670,-0.999901360,-0.014943000,0.023475000,0.003676000,0.000189744,-0.002182092,0.001505285,-0.030404030,0.058254263,0.011583736,0.008136877,-0.008675669,0.997166397,-0.000374176,-0.001096910,-0.002666265,0.000000000,0.000000000,0.000000000,0.000000000,0.015580484,0.009066523,0.071100536,0.028257962,0.002657687,-0.005418156,0.008157883,-0.000721134,-0.002797794,-0.458272064,0.008293359,0.023912839,-0.003999149,-0.000073207,0.000208388,0.999990964,0.000000000,0.000000000,0.000000000,0.000000000,0.000000000,0.000000000,-0.820819616,0.000000000,4.154252052
1772725412.290557146,0.015345000,0.008832000,0.071272000,0.007392350,-0.011856170,-0.001900410,-0.999900580,-0.014743000,0.023740000,0.003626000,0.000313637,-0.001434053,0.000598563,-0.023462182,0.053020219,0.020030989,0.008898929,-0.008919890,0.997721411,-0.002958368,-0.001310293,-0.002633336,0.000000000,0.000000000,0.000000000,0.000000000,0.015572788,0.009105443,0.071068713,0.028136905,0.002597267,-0.005640913,0.008749233,-0.000439518,-0.001846701,-0.458049534,0.008901062,0.023430462,-0.003997206,-0.000078493,0.000204157,0.999991000,0.000000000,0.000000000,0.000000000,0.000000000,0.000000000,0.000000000,-0.820819616,0.000000000,4.154252052
1772725412.300556898,0.015356000,0.008864000,0.071227000,0.006769310,-0.011092870,-0.002057720,-0.999913440,-0.013496000,0.022214000,0.003966000,0.000289744,0.000817755,-0.001368203,0.018188173,-0.017227981,0.011368166,0.009735380,-0.008467940,0.997029632,-0.001982795,-0.000669311,-0.002723873,0.000000000,0.000000000,0.000000000,0.000000000,0.015572175,0.009089085,0.071086437,0.028061738,0.002409300,-0.005522996,0.009278130,-0.000361371,-0.003117703,-0.458275402,0.009625170,0.022537748,-0.003999176,-0.000084781,0.000196341,0.999990982,0.000000000,0.000000000,0.000000000,0.000000000,0.000000000,0.000000000,-0.820819616,0.000000000,4.154252052
1772725412.310556650,0.015356000,0.008866000,0.071235000,0.006724050,-0.010928500,-0.001961580,-0.999915750,-0.013408000,0.021883000,0.003777000,0.000166647,0.001237919,-0.001704353,0.039798119,-0.064524600,0.001172957,0.010224896,-0.007177534,0.996878002,-0.001971542,-0.001525409,-0.003331535,0.000000000,0.000000000,0.000000000,0.000000000,0.015608546,0.008899676,0.071217226,0.028250005,0.001615719,-0.004904759,0.010012994,0.000876006,-0.003753139,-0.458033235,0.009726833,0.021473925,-0.003997064,-0.000085631,0.000187054,0.999990956,0.000000000,0.000000000,0.000000000,0.000000000,0.000000000,0.000000000,-0.820819616,0.000000000,4.154252052
1772725412.320556641,0.015346000,0.008877000,0.071225000,0.006472020,-0.010493440,-0.001913660,-0.999922170,-0.012906000,0.021012000,0.003692000,0.000440463,-0.001719776,0.000930751,-0.013196104,-0.004085688,0.011814051,0.010893927,-0.006659217,0.998245115,-0.003968762,-0.003611515,-0.001968250,0.000000000,0.000000000,0.000000000,0.000000000,0.015633470,0.008778204,0.071301741,0.028465115,0.001197152,-0.004626744,0.010736792,0.001428297,-0.002117857,-0.457420263,0.009697562,0.020139535,-0.003991716,-0.000085328,0.000175411,0.999991000,0.000000000,0.000000000,0.000000000,0.000000000,0.000000000,0.000000000,-0.820819616,0.000000000,4.154108360
1772725412.330557108,0.015348000,0.008876000,0.071214000,0.006565840,-0.010612740,-0.001902520,-0.999920320,-0.013094000,0.021250000,0.003666000,0.000867075,-0.005455813,0.004357638,-0.117013992,0.139105268,0.035455222,0.010573406,-0.007305971,0.998860434,-0.003150272,-0.002260585,0.001605061,0.000000000,0.000000000,0.000000000,0.000000000,0.015609150,0.008909374,0.071215355,0.028532315,0.001803161,-0.005126411,0.010089523,0.000682765,-0.001314492,-0.457795696,0.010126334,0.019004037,-0.003994992,-0.000089031,0.000165487,0.999991000,0.000000000,0.000000000,0.000000000,0.000000000,0.000000000,0.000000000,-0.820819616,0.000000000,4.153626378
1772725412.340556860,0.015361000,0.008880000,0.071202000,0.006478650,-0.010004480,-0.001933300,-0.999927100,-0.012921000,0.020034000,0.003737000,-0.000183062,-0.001380324,0.002690251,-0.133627317,0.163650551,0.009383611,0.008639791,-0.008220749,0.996811868,-0.001077196,0.003605590,0.004263794,0.000000000,0.000000000,0.000000000,0.000000000,0.015588944,0.009035899,0.071121473,0.028641838,0.002351120,-0.005403221,0.008732481,0.000217681,-0.002889451,-0.458499192,0.010513362,0.018275818,-0.004001131,-0.000092384,0.000159118,0.999991000,0.000000000,0.000000000,0.000000000,0.000000000,0.000000000,0.000000000,-0.820819616,0.000000000,4.153144431
1772725412.350557089,0.015373000,0.008671000,0.071396000,0.008519800,-0.013028600,-0.002375860,-0.999876000,-0.016982000,0.026097000,0.004531000,-0.000887841,0.002560298,0.000090637,-0.083662831,0.103481183,-0.023876281,0.008645280,-0.007829402,0.996232877,-0.000150605,0.002365977,-0.000361609,0.000000000,0.000000000,0.000000000,0.000000000,0.015573968,0.009105208,0.071070985,0.028549681,0.002519143,-0.005586449,0.008491320,0.000103000,-0.003273867,-0.458380412,0.009059000,0.018942933,-0.004000096,-0.000079715,0.000164991,0.999991008,0.000000000,0.000000000,0.000000000,0.000000000,0.000000000,0.000000000,-0.820819616,0.000000000,4.152662461
1772725412.360557079,0.015388000,0.008634000,0.071437000,0.010018980,-0.015215290,-0.002709130,-0.999830370,-0.019963000,0.030484000,0.005115000,-0.001515114,0.006415566,-0.003031705,0.012388666,-0.018018512,-0.062953437,0.008351791,-0.007486265,0.998378955,-0.002786262,0.000407373,-0.003651546,0.000000000,0.000000000,0.000000000,0.000000000,0.015568276,0.009136516,0.071050319,0.028415087,0.002564516,-0.005797816,0.008193351,0.000715682,-0.001633881,-0.457560238,0.007946081,0.017723077,-0.003992941,-0.000069960,0.000154385,0.999991043,0.000000000,0.000000000,0.000000000,0.000000000,0.000000000,0.000000000,-0.820819616,0.000000000,4.152180502
1772725412.370556831,0.015308000,0.009050000,0.071166000,0.007856050,-0.012016140,-0.001552930,-0.999895740,-0.015678000,0.024056000,0.002918000,-0.002480694,0.011485753,-0.007172229,0.165455852,-0.222393303,-0.113832768,0.008194145,-0.007170145,0.998808959,-0.003347913,0.001883514,0.001126870,0.000000000,0.000000000,0.000000000,0.000000000,0.015567956,0.009142859,0.071043199,0.028317212,0.002508543,-0.005816544,0.007843981,0.000812125,-0.000815755,-0.457978674,0.007731893,0.016296855,-0.003996593,-0.000068041,0.000141946,0.999991000,0.000000000,0.000000000,0.000000000,0.000000000,0.000000000,0.000000000,-0.820819616,0.000000000,4.151698555
1772725412.380556822,0.015275000,0.009137000,0.071128000,0.006697760,-0.010294540,-0.000384370,-0.999924500,-0.013390000,0.020594000,0.000631000,-0.002037065,0.009913840,-0.006959234,0.244823823,-0.328972069,-0.129383835,0.009137230,-0.007346355,0.997804467,-0.002165972,0.001494980,0.004840291,0.000000000,0.000000000,0.000000000,0.000000000,0.015567099,0.009141485,0.071053376,0.028187382,0.002515233,-0.005633568,0.008759971,0.000994967,-0.001617155,-0.458140316,0.007501621,0.017074105,-0.003998004,-0.000066059,0.000148737,0.999991000,0.000000000,0.000000000,0.000000000,0.000000000,0.000000000,0.000000000,-0.820819616,0.000000000,4.151216596
1772725412.390556335,0.015307000,0.009053000,0.071126000,0.005721450,-0.009280400,-0.000507920,-0.999940440,-0.011435000,0.018567000,0.000910000,0.000074242,0.000075253,-0.000822106,0.167830595,-0.218796571,-0.070582550,0.010256139,-0.007619360,0.996792387,-0.001359839,0.000966438,0.004566868,0.000000000,0.000000000,0.000000000,0.000000000,0.015568889,0.009141081,0.071062792,0.028053746,0.002487783,-0.005423993,0.009974061,0.000469252,-0.003022731,-0.458410169,0.006957673,0.019075523,-0.004000358,-0.000061383,0.000166221,0.999990998,0.000000000,0.000000000,0.000000000,0.000000000,0.000000000,0.000000000,-0.820819616,0.000000000,4.150734660
1772725412.400556326,0.015294000,0.009118000,0.071084000,0.004618140,-0.007776080,-0.000130940,-0.999959090,-0.009235000,0.015553000,0.000190000,0.001606897,-0.008810129,0.005700413,-0.008678071,0.028942672,0.012180838,0.009977585,-0.009189518,0.996902365,-0.002029000,0.001630333,0.001173090,0.000000000,0.000000000,0.000000000,0.000000000,0.015560858,0.009135696,0.071069388,0.028048783,0.002479935,-0.005404098,0.009798707,-0.001056088,-0.003445425,-0.458858060,0.006725519,0.021114133,-0.004004267,-0.000059429,0.000184019,0.999990944,0.000000000,0.000000000,0.000000000,0.000000000,0.000000000,0.000000000,-0.820819616,0.000000000,4.150252702
1772725412.410557032,0.015284000,0.009120000,0.071110000,0.004107240,-0.006987340,0.000266370,-0.999967120,-0.008219000,0.013972000,-0.000590000,0.002057791,-0.010223903,0.006974540,-0.140471841,0.204337574,0.075019509,0.009260603,-0.007841376,0.996804743,-0.001698066,0.001020655,-0.001005641,0.000000000,0.000000000,0.000000000,0.000000000,0.015559127,0.009134410,0.071068404,0.028092994,0.002393988,-0.005460105,0.008809425,-0.000291890,-0.003040940,-0.458985838,0.006562628,0.021680720,-0.004005382,-0.000058027,0.000188969,0.999990940,0.000000000,0.000000000,0.000000000,0.000000000,0.000000000,0.000000000,-0.820819616,0.000000000,4.149770708
1772725412.420557261,0.015368000,0.008704000,0.071387000,0.006901700,-0.010983800,-0.000952860,-0.999915400,-0.013785000,0.021981000,0.001754000,0.000734111,-0.003335726,0.002508996,-0.128078586,0.172886736,0.075612315,0.009207608,-0.007949429,0.996972648,-0.002407647,0.002353898,-0.001488269,0.000000000,0.000000000,0.000000000,0.000000000,0.015561232,0.009136865,0.071062953,0.028132268,0.002259871,-0.005546980,0.009179151,0.000157101,-0.003120220,-0.459611033,0.005694309,0.021370871,-0.004010839,-0.000050440,0.000186295,0.999990916,0.000000000,0.000000000,0.000000000,0.000000000,0.000000000,0.000000000,-0.820819616,0.000000000,4.149288738
1772725412.430557489,0.015388000,0.008613000,0.071451000,0.008894560,-0.013976540,-0.002029760,-0.999860700,-0.017738000,0.027989000,0.003812000,-0.000616823,0.002917310,-0.001587395,-0.053921801,0.062868393,0.036254208,0.009305669,-0.009011557,0.997805184,-0.003281274,0.001275917,-0.000726164,0.000000000,0.000000000,0.000000000,0.000000000,0.015559640,0.009126778,0.071068679,0.028104675,0.002171130,-0.005551500,0.009608905,-0.000922645,-0.002220356,-0.460689343,0.004843237,0.020568366,-0.004020251,-0.000042987,0.000179321,0.999990880,0.000000000,0.000000000,0.000000000,0.000000000,0.000000000,0.000000000,-0.820819616,0.000000000,4.149156996
1772725412.440557480,0.015306000,0.009033000,0.071171000,0.007332590,-0.011311610,-0.001261080,-0.999908340,-0.014640000,0.022642000,0.002357000,-0.001280129,0.007224385,-0.005326035,0.067653363,-0.105501225,-0.002031762,0.009561586,-0.009681212,0.997014232,-0.002173881,-0.000165670,-0.000647076,0.000000000,0.000000000,0.000000000,0.000000000,0.015596396,0.009030695,0.071109532,0.028248725,0.001775127,-0.005408444,0.009659856,-0.001492248,-0.003286871,-0.461607443,0.004942108,0.019755574,-0.004028263,-0.000043822,0.000172225,0.999990880,0.000000000,0.000000000,0.000000000,0.000000000,0.000000000,0.000000000,-0.820819616,0.000000000,4.149687624
1772725412.450557947,0.015292000,0.009139000,0.071081000,0.005741350,-0.009084840,-0.000952160,-0.999941800,-0.011467000,0.018181000,0.001800000,-0.001887376,0.010131459,-0.007337128,0.179769286,-0.269308097,-0.054409619,0.010461626,-0.008640605,0.993729094,-0.000308676,-0.000270950,-0.001599975,0.000000000,0.000000000,0.000000000,0.000000000,0.015615969,0.008958743,0.071154365,0.028380594,0.001343104,-0.005145035,0.010330378,-0.000368982,-0.006021517,-0.461440690,0.005904266,0.018790955,-0.004026807,-0.000052184,0.000163773,0.999990884,0.000000000,0.000000000,0.000000000,0.000000000,0.000000000,0.000000000,-0.820819616,0.000000000,4.150218277
1772725412.460557938,0.015283000,0.009145000,0.071077000,0.004643760,-0.007624650,-0.000588960,-0.999959980,-0.009279000,0.015255000,0.001107000,-0.001471893,0.008577339,-0.005807232,0.222057913,-0.331913493,-0.089812851,0.011011590,-0.006370479,0.994714475,-0.001826787,0.000292872,-0.000707723,0.000000000,0.000000000,0.000000000,0.000000000,0.015629713,0.008912120,0.071174104,0.028520774,0.001034923,-0.005310585,0.010777894,0.001681294,-0.005627022,-0.460663074,0.005565040,0.018830038,-0.004020021,-0.000049224,0.000164126,0.999990940,0.000000000,0.000000000,0.000000000,0.000000000,0.000000000,0.000000000,-0.820819616,0.000000000,4.150748905
1772725412.470557928,0.015286000,0.009140000,0.071088000,0.004221910,-0.007009820,-0.000196270,-0.999966500,-0.008442000,0.014021000,0.000333000,-0.000275097,0.000892969,-0.000192774,0.128454800,-0.197649636,-0.073929654,0.009369993,-0.005668444,0.998274395,0.001614084,0.002151143,0.000059629,0.000000000,0.000000000,0.000000000,0.000000000,0.015628364,0.008885148,0.071181867,0.028759347,0.001030237,-0.005668697,0.009472201,0.002297844,-0.002335750,-0.460710478,0.004922766,0.017867669,-0.004020436,-0.000043586,0.000155751,0.999990940,0.000000000,0.000000000,0.000000000,0.000000000,0.000000000,0.000000000,-0.820819616,0.000000000,4.151279533
1772725412.480557919,0.015293000,0.009126000,0.071089000,0.003844870,-0.006228730,-0.000111390,-0.999973200,-0.007689000,0.012458000,0.000175000,0.000580809,-0.003254510,0.002732617,0.022594636,-0.037188347,-0.041706961,0.008246730,-0.005572533,0.998581919,0.001081530,-0.000137521,-0.001604303,0.000000000,0.000000000,0.000000000,0.000000000,0.015637785,0.008781384,0.071268411,0.028994759,0.000961440,-0.005368255,0.008776518,0.002016868,-0.001313169,-0.460472692,0.003853691,0.017616779,-0.004018362,-0.000034247,0.000153599,0.999990940,0.000000000,0.000000000,0.000000000,0.000000000,0.000000000,0.000000000,-0.820819616,0.000000000,4.151810161
1772725412.490558386,0.015292000,0.009115000,0.071121000,0.004083640,-0.006390430,0.000190590,-0.999971220,-0.008170000,0.012779000,-0.000433000,-0.000368940,-0.000153419,0.000950370,-0.007342665,0.003985136,-0.044513745,0.008416412,-0.004883348,0.997018459,-0.002364781,0.000796742,-0.000606707,0.000000000,0.000000000,0.000000000,0.000000000,0.015649615,0.008719357,0.071322927,0.029103727,0.000968400,-0.004979074,0.008502206,0.002485430,-0.002655300,-0.459766407,0.004425975,0.017764369,-0.004012198,-0.000039246,0.000154867,0.999990940,0.000000000,0.000000000,0.000000000,0.000000000,0.000000000,0.000000000,-0.820819616,0.000000000,4.152340815
1772725412.500558376,0.015299000,0.009117000,0.071124000,0.004089540,-0.006557310,0.000348800,-0.999970080,-0.008184000,0.013112000,-0.000751000,-0.000137704,-0.000172727,0.000269212,-0.022581187,0.023276339,-0.028451220,0.008941537,-0.005522623,0.995833832,-0.002418191,0.003727334,0.000504118,0.000000000,0.000000000,0.000000000,0.000000000,0.015946135,0.008723466,0.071279895,0.029949274,0.001244772,-0.005156757,0.008709501,0.002153602,-0.004317101,-0.460067032,0.005081305,0.017492055,-0.004014821,-0.000044955,0.000152468,0.999990940,0.000000000,0.000000000,0.000000000,0.000000000,0.000000000,0.000000000,-0.820819616,0.000000000,4.152871443
1772725412.510558367,0.015271000,0.009100000,0.071133000,0.004482490,-0.007128030,0.000434270,-0.999964450,-0.008972000,0.014252000,-0.000933000,0.000496815,-0.002141358,0.001056081,-0.043700740,0.056893386,0.003804651,0.009568234,-0.007343619,0.995659961,-0.001302377,0.003189330,-0.000594166,0.000000000,0.000000000,0.000000000,0.000000000,0.015857797,0.008751869,0.071288997,0.029823389,0.001725965,-0.005279016,0.009633333,0.000494075,-0.004229831,-0.460930443,0.003623194,0.018157527,-0.004022357,-0.000032255,0.000158326,0.999990916,0.000000000,0.000000000,0.000000000,0.000000000,0.000000000,0.000000000,-0.820819616,0.000000000,4.153402071
1772725412.520559072,0.015298000,0.009118000,0.071104000,0.004238870,-0.006928350,0.000355360,-0.999966950,-0.008483000,0.013854000,-0.000770000,0.001413638,-0.004391690,0.002088386,-0.064782909,0.097532881,0.046807595,0.009872980,-0.007839891,0.997320028,-0.000324970,0.001610320,0.000349110,0.000000000,0.000000000,0.000000000,0.000000000,0.015631933,0.008868531,0.071247400,0.029331403,0.002380202,-0.005650210,0.010084128,0.000522307,-0.003175872,-0.464909969,0.003183730,0.017787134,-0.004057085,-0.000028413,0.000155108,0.999990800,0.000000000,0.000000000,0.000000000,0.000000000,0.000000000,0.000000000,-0.820819616,0.000000000,4.153932737
1772725412.530558825,0.015276000,0.009114000,0.071120000,0.004481350,-0.007014460,0.000388800,-0.999965280,-0.008969000,0.014025000,-0.000841000,0.001839609,-0.005000646,0.001802644,-0.060493058,0.096746687,0.089035270,0.008598343,-0.008013488,0.997334044,-0.001199250,0.000970147,-0.002226037,0.000000000,0.000000000,0.000000000,0.000000000,0.015640970,0.008819104,0.071275988,0.029492244,0.002258677,-0.005636549,0.008459209,0.000176791,-0.002968039,-0.468252968,0.003529993,0.017560750,-0.004086258,-0.000031431,0.000153119,0.999990642,0.000000000,0.000000000,0.000000000,0.000000000,0.000000000,0.000000000,-0.820819616,0.000000000,4.154075533
1772725412.540558815,0.015361000,0.008911000,0.071204000,0.005403810,-0.008243880,-0.000577620,-0.999951250,-0.010799000,0.016494000,0.001066000,0.001793028,-0.006155231,0.002856452,-0.088018477,0.149502379,0.112081751,0.007133277,-0.008997112,0.996709562,-0.002066894,0.001127408,-0.003205660,0.000000000,0.000000000,0.000000000,0.000000000,0.015644938,0.008841618,0.071236753,0.029614948,0.002361827,-0.005790855,0.007190362,-0.001044047,-0.003392310,-0.468131580,0.003102569,0.016968941,-0.004085199,-0.000027680,0.000147970,0.999990642,0.000000000,0.000000000,0.000000000,0.000000000,0.000000000,0.000000000,-0.820819616,0.000000000,4.153632246
1772725412.550559521,0.015362000,0.008865000,0.071253000,0.006047690,-0.009612960,-0.001317010,-0.999934640,-0.012072000,0.019242000,0.002518000,0.001562336,-0.007142373,0.004184289,-0.136943261,0.231431946,0.121711412,0.006604468,-0.009798290,0.997342021,-0.002416577,0.000140539,0.000365429,0.000000000,0.000000000,0.000000000,0.000000000,0.015642063,0.008868486,0.071208273,0.029496450,0.002417255,-0.005975365,0.006483546,-0.001102428,-0.002900062,-0.467828115,0.002008918,0.016396793,-0.004082553,-0.000018115,0.000143016,0.999990646,0.000000000,0.000000000,0.000000000,0.000000000,0.000000000,0.000000000,-0.820819616,0.000000000,4.153188928
1772725412.560559511,0.015365000,0.008861000,0.071240000,0.006266760,-0.010277260,-0.001843990,-0.999925850,-0.012498000,0.020578000,0.003560000,0.000802254,-0.007287614,0.005103870,-0.194218454,0.319952900,0.114131007,0.006972145,-0.008023812,0.998212367,-0.003993323,-0.002266904,0.001316491,0.000000000,0.000000000,0.000000000,0.000000000,0.015638275,0.008885395,0.071192337,0.029286931,0.002293649,-0.006103893,0.006821452,0.000198356,-0.001796799,-0.467525166,0.001138614,0.016065505,-0.004079910,-0.000010508,0.000140156,0.999990701,0.000000000,0.000000000,0.000000000,0.000000000,0.000000000,0.000000000,-0.820819616,0.000000000,4.152745642
1772725412.570559502,0.015347000,0.008859000,0.071233000,0.006753400,-0.011020790,-0.002146860,-0.999914160,-0.013462000,0.022070000,0.004146000,0.000805809,-0.008386624,0.006658243,-0.263824333,0.428025772,0.106059057,0.009702246,-0.007486374,0.997464957,0.000707959,0.001484635,-0.000895859,0.000000000,0.000000000,0.000000000,0.000000000,0.015641292,0.008815273,0.071251384,0.029117316,0.002013070,-0.005783595,0.009277016,0.000266256,-0.002311846,-0.468391118,0.001622161,0.015984093,-0.004087467,-0.000014726,0.000139428,0.999990650,0.000000000,0.000000000,0.000000000,0.000000000,0.000000000,0.000000000,-0.820819616,0.000000000,4.152302356
1772725412.580559969,0.015363000,0.008681000,0.071395000,0.008962590,-0.014490760,-0.002509330,-0.999851690,-0.017858000,0.029026000,0.004760000,-0.000319231,-0.002500061,0.003300100,-0.232397498,0.368683046,0.057383224,0.010332533,-0.006648839,0.997351078,0.000672785,0.001528116,0.001062962,0.000000000,0.000000000,0.000000000,0.000000000,0.015642889,0.008815363,0.071248065,0.029116164,0.002029350,-0.005761038,0.010106402,0.001328286,-0.002532887,-0.468078216,0.000546812,0.016063789,-0.004084737,-0.000005344,0.000140162,0.999990642,0.000000000,0.000000000,0.000000000,0.000000000,0.000000000,0.000000000,-0.820819616,0.000000000,4.151859048
1772725412.590559959,0.015379000,0.008640000,0.071433000,0.010352060,-0.016372870,-0.002949140,-0.999808010,-0.020616000,0.032806000,0.005561000,-0.000134518,-0.000535140,0.001851789,-0.185599305,0.280554937,0.020628989,0.007876893,-0.006686246,0.997512005,-0.000267461,0.006402437,-0.004147206,0.000000000,0.000000000,0.000000000,0.000000000,0.015640017,0.008846166,0.071217486,0.029206145,0.002209674,-0.005882631,0.008055750,0.001245553,-0.002501612,-0.467215862,0.000375810,0.016105031,-0.004077212,-0.000003853,0.000140528,0.999990685,0.000000000,0.000000000,0.000000000,0.000000000,0.000000000,0.000000000,-0.820819616,0.000000000,4.151415762
