t,px,py,pz,qx,qy,qz,qw,roll,pitch,yaw,vx,vy,vz,wx_vicon,wy_vicon,wz_vicon,imu_acc_x,imu_acc_y,imu_acc_z,imu_gyro_x,imu_gyro_y,imu_gyro_z,motor_motor_m1,motor_motor_m2,motor_motor_m3,motor_motor_m4,est_stateEstimate_x,est_stateEstimate_y,est_stateEstimate_z,est_stateEstimate_vx,est_stateEstimate_vy,est_stateEstimate_vz,est_stateEstimate_ax,est_stateEstimate_ay,est_stateEstimate_az,att_stateEstimate_roll,att_stateEstimate_pitch,att_stateEstimate_yaw,att_stateEstimate_qx,att_stateEstimate_qy,att_stateEstimate_qz,att_stateEstimate_qw,sp_ctrltarget_x,sp_ctrltarget_y,sp_ctrltarget_z,sp_ctrltarget_yaw,pid_controller_roll,pid_controller_pitch,pid_controller_yaw,pid_controller_cmd_thrust,pwr_pm_vbat
1772714827.275245905,0.014809000,0.007582000,0.075237000,-0.003395710,0.007699910,0.028746470,0.999551310,-0.006346000,0.015589000,0.057453000,0.002133782,-0.002149944,-0.001495339,0.034262278,-0.008192089,0.017164417,0.010252394,-0.004337833,0.999317803,0.002739970,-0.000435700,0.002621737,0.000000000,0.000000000,0.000000000,0.000000000,0.014974281,0.007599114,0.075224400,0.017462337,0.002761752,-0.001229296,0.005589362,0.000760375,-0.000693081,-0.248620110,0.233173301,2.641344854,-0.002122136,-0.002084282,0.023043503,0.999729161,0.000000000,0.000000000,0.000000000,0.000000000,0.000000000,0.000000000,2.640215505,0.000000000,4.179054900
1772714827.285245895,0.014792000,0.007552000,0.075255000,-0.003371590,0.007091290,0.028547830,0.999561590,-0.006336000,0.014369000,0.057060000,0.000371776,-0.000798777,-0.000103963,0.002204170,0.014787418,0.005288643,0.009956785,-0.003880272,0.999609219,0.000348434,-0.000878116,0.002784955,0.000000000,0.000000000,0.000000000,0.000000000,0.014972958,0.007594144,0.075234690,0.017622084,0.002706224,-0.001125620,0.006006258,0.000055503,-0.000080849,-0.248376002,0.232866485,2.645035797,-0.002120002,-0.002081624,0.023075713,0.999728487,0.000000000,0.000000000,0.000000000,0.000000000,0.000000000,0.000000000,2.643611661,0.000000000,4.178743226
1772714827.295246363,0.014833000,0.007563000,0.075227000,-0.003339640,0.007689590,0.028808980,0.999549780,-0.006234000,0.015565000,0.057579000,-0.000520183,0.000028963,0.000495805,-0.013028850,0.024280348,0.000320559,0.009752224,-0.003259833,0.999814852,0.000294856,-0.002939400,0.001211712,0.000000000,0.000000000,0.000000000,0.000000000,0.014981812,0.007600963,0.075233826,0.017774903,0.002728176,-0.001154755,0.005998703,0.000382711,-0.000093222,-0.248693493,0.232687085,2.646616779,-0.002122779,-0.002080152,0.023089503,0.999727991,0.000000000,0.000000000,0.000000000,0.000000000,0.000000000,0.000000000,2.646477688,0.000000000,4.178431536
1772714827.305246353,0.014810000,0.007577000,0.075228000,-0.003449980,0.008340830,0.028895570,0.999541680,-0.006416000,0.016874000,0.057747000,-0.000756780,0.000433275,0.000524942,-0.015728358,0.023374580,0.000169851,0.009779430,-0.003000586,0.999704831,-0.000137768,-0.001990352,0.001210583,0.000000000,0.000000000,0.000000000,0.000000000,0.014981237,0.007599478,0.075234706,0.017789420,0.002720375,-0.001143613,0.005937744,0.000830379,-0.000197113,-0.248713739,0.232735308,2.646998627,-0.002122939,-0.002080584,0.023092833,0.999727917,0.000000000,0.000000000,0.000000000,0.000000000,0.000000000,0.000000000,2.646847995,0.000000000,4.178119861
1772714827.315247059,0.014797000,0.007560000,0.075255000,-0.003511230,0.007798650,0.028740440,0.999550320,-0.006572000,0.015793000,0.057439000,-0.000552701,0.000514161,0.000204429,-0.010191801,0.015151276,0.002782551,0.009806638,-0.002741321,0.999594802,-0.000570422,-0.001041237,0.001209453,0.000000000,0.000000000,0.000000000,0.000000000,0.014980662,0.007597993,0.075235587,0.017803938,0.002712574,-0.001132470,0.005876781,0.001278078,-0.000301011,-0.248733987,0.232783535,2.647380503,-0.002123099,-0.002081016,0.023096164,0.999727842,0.000000000,0.000000000,0.000000000,0.000000000,0.000000000,0.000000000,2.647218328,0.000000000,4.177808164
1772714827.325247049,0.014780000,0.007560000,0.075271000,-0.003495480,0.007348850,0.028600570,0.999557790,-0.006568000,0.014892000,0.057162000,-0.000122630,0.000371620,-0.000244755,-0.000698753,0.002703664,0.006050446,0.009833844,-0.002482074,0.999484780,-0.001003046,-0.000092189,0.001208324,0.000000000,0.000000000,0.000000000,0.000000000,0.014980087,0.007596508,0.075236467,0.017818455,0.002704774,-0.001121328,0.005815822,0.001725745,-0.000404902,-0.248754233,0.232831758,2.647762351,-0.002123259,-0.002081448,0.023099494,0.999727767,0.000000000,0.000000000,0.000000000,0.000000000,0.000000000,0.000000000,2.647588634,0.000000000,4.177496489
1772714827.335247278,0.014798000,0.007587000,0.075230000,-0.003576110,0.008066270,0.028828380,0.999545430,-0.006685000,0.016332000,0.057612000,-0.000185742,-0.000114433,-0.000075019,0.004020799,-0.025925923,-0.001027326,0.009861051,-0.002222821,0.999374756,-0.001435679,0.000856881,0.001207195,0.000000000,0.000000000,0.000000000,0.000000000,0.014979513,0.007595023,0.075237347,0.017832972,0.002696973,-0.001110186,0.005754861,0.002173423,-0.000508796,-0.248774480,0.232879982,2.648144209,-0.002123419,-0.002081880,0.023102824,0.999727692,0.000000000,0.000000000,0.000000000,0.000000000,0.000000000,0.000000000,2.647958950,0.000000000,4.177184806
1772714827.345247507,0.014819000,0.007580000,0.075220000,-0.003501370,0.008123050,0.028951480,0.999541680,-0.006530000,0.016442000,0.057860000,0.000487491,0.000099942,-0.000347786,0.004604787,-0.010855003,0.004005553,0.009888258,-0.001963569,0.999264732,-0.001868313,0.001805951,0.001206065,0.000000000,0.000000000,0.000000000,0.000000000,0.014978938,0.007593539,0.075238227,0.017847489,0.002689173,-0.001099043,0.005693901,0.002621101,-0.000612689,-0.248794726,0.232928207,2.648526067,-0.002123579,-0.002082312,0.023106154,0.999727618,0.000000000,0.000000000,0.000000000,0.000000000,0.000000000,0.000000000,2.648329265,0.000000000,4.176873124
1772714827.355248213,0.014797000,0.007551000,0.075251000,-0.003347290,0.007275670,0.028784800,0.999553550,-0.006273000,0.014738000,0.057533000,0.000221096,0.000005478,0.000070707,0.000751170,-0.005456496,0.001492110,0.009915466,-0.001704303,0.999154702,-0.002300968,0.002755066,0.001204936,0.000000000,0.000000000,0.000000000,0.000000000,0.014978363,0.007592054,0.075239108,0.017862006,0.002681372,-0.001087901,0.005598116,0.002980847,-0.000676788,-0.248814974,0.232976433,2.648907942,-0.002123739,-0.002082744,0.023109484,0.999727543,0.000000000,0.000000000,0.000000000,0.000000000,0.000000000,0.000000000,2.648699598,0.000000000,4.176561427
1772714827.365248442,0.014806000,0.007583000,0.075229000,-0.003397020,0.007804650,0.028862880,0.999547140,-0.006341000,0.015799000,0.057686000,0.000127312,-0.000352506,0.000491201,-0.003789832,-0.017685837,-0.005358404,0.009767347,-0.002220659,0.999343128,-0.001487504,0.003542433,0.000083923,0.000000000,0.000000000,0.000000000,0.000000000,0.014977789,0.007590569,0.075239988,0.017876523,0.002673571,-0.001076758,0.005172290,0.002506937,-0.000363653,-0.249090496,0.232475782,2.650384640,-0.002126217,-0.002078459,0.023122374,0.999727386,0.000000000,0.000000000,0.000000000,0.000000000,0.000000000,0.000000000,2.649208878,0.000000000,4.176249744
1772714827.375248909,0.014796000,0.007559000,0.075258000,-0.003521630,0.007331920,0.028674320,0.999555710,-0.006620000,0.014860000,0.057309000,0.000279060,-0.000199961,0.000205167,-0.006735115,-0.001755027,-0.003856163,0.009390921,-0.003816344,0.999901168,0.000663831,0.003647457,-0.002170571,0.000000000,0.000000000,0.000000000,0.000000000,0.014986503,0.007591367,0.075230469,0.017988395,0.002838342,-0.001136443,0.005013637,0.001085320,-0.000277322,-0.249341224,0.231561993,2.652679555,-0.002128547,-0.002070580,0.023142411,0.999726990,0.000000000,0.000000000,0.000000000,0.000000000,0.000000000,0.000000000,2.651400146,0.000000000,4.175938055
1772714827.385249138,0.014819000,0.007583000,0.075243000,-0.003595210,0.007890770,0.028861460,0.999545810,-0.006733000,0.015983000,0.057679000,0.000385568,0.000224534,-0.000399709,-0.006545541,0.020850263,0.005130421,0.009095181,-0.006251943,0.999993551,-0.002673713,-0.004316492,0.001696903,0.000000000,0.000000000,0.000000000,0.000000000,0.014992698,0.007596488,0.075220589,0.018074284,0.002982102,-0.001163402,0.004685171,-0.000522925,-0.000159974,-0.249178089,0.230525885,2.655598526,-0.002127281,-0.002061562,0.023167896,0.999726360,0.000000000,0.000000000,0.000000000,0.000000000,0.000000000,0.000000000,2.654378737,0.000000000,4.175626372
1772714827.395249128,0.014799000,0.007553000,0.075257000,-0.003534220,0.007323320,0.028711540,0.999554660,-0.006646000,0.014844000,0.057384000,0.000036830,-0.000088112,-0.000256333,-0.001932222,-0.002602945,0.003676716,0.007565865,-0.005726706,0.999960428,0.000932441,-0.004426101,-0.000954812,0.000000000,0.000000000,0.000000000,0.000000000,0.014987800,0.007598601,0.075222262,0.018092628,0.002959657,-0.001121842,0.003757072,-0.001291389,0.000258284,-0.249781427,0.232151979,2.657944543,-0.002132173,-0.002075914,0.023188322,0.999725789,0.000000000,0.000000000,0.000000000,0.000000000,0.000000000,0.000000000,2.657057954,0.000000000,4.175366402
1772714827.405249119,0.014827000,0.007566000,0.075224000,-0.003533890,0.007756270,0.028855100,0.999547270,-0.006618000,0.015710000,0.057668000,-0.000423213,-0.000344756,0.000197397,0.006160238,-0.037125330,-0.003440085,0.007865412,-0.005450242,0.998821876,0.000531051,-0.002668434,-0.001822666,0.000000000,0.000000000,0.000000000,0.000000000,0.014975411,0.007593715,0.075234151,0.018028013,0.002788249,-0.001031431,0.003135596,-0.000715150,-0.000347892,-0.249435193,0.234149959,2.655473573,-0.002128793,-0.002093229,0.023166731,0.999725973,0.000000000,0.000000000,0.000000000,0.000000000,0.000000000,0.000000000,2.656825497,0.000000000,4.175366402
1772714827.415248871,0.014822000,0.007579000,0.075218000,-0.003519130,0.008074170,0.028974590,0.999541340,-0.006568000,0.016346000,0.057906000,-0.000398038,0.000011422,-0.000012277,0.006076958,-0.031453550,-0.004028657,0.009617300,-0.004941609,0.999081187,-0.002324170,-0.000076283,0.000705057,0.000000000,0.000000000,0.000000000,0.000000000,0.014972188,0.007589745,0.075240072,0.017863811,0.002574379,-0.000980099,0.005351046,0.000164039,-0.001887898,-0.248952565,0.234757772,2.656535385,-0.002124440,-0.002098453,0.023175994,0.999726040,0.000000000,0.000000000,0.000000000,0.000000000,0.000000000,0.000000000,2.655682779,0.000000000,4.175366402
1772714827.425249100,0.014786000,0.007565000,0.075255000,-0.003430550,0.007039280,0.028774640,0.999555250,-0.006454000,0.014270000,0.057513000,-0.000314938,0.000172611,0.000142852,0.002084210,-0.019911967,-0.004299404,0.012101434,-0.003958551,0.998373633,0.001048191,0.001304294,-0.002485626,0.000000000,0.000000000,0.000000000,0.000000000,0.014983243,0.007598531,0.075227734,0.017874493,0.002488582,-0.001116728,0.007372308,0.000243038,-0.000651037,-0.249646128,0.234902347,2.660267180,-0.002130393,-0.002099924,0.023208535,0.999725372,0.000000000,0.000000000,0.000000000,0.000000000,0.000000000,0.000000000,2.658995099,0.000000000,4.175366402
1772714827.435249090,0.014782000,0.007549000,0.075265000,-0.003443830,0.006557060,0.028577300,0.999564150,-0.006511000,0.013306000,0.057121000,0.000386364,0.000647126,-0.000203341,0.000266298,0.029095072,0.006864226,0.009697009,-0.003723623,0.999066327,0.001717286,-0.004694003,0.004251326,0.000000000,0.000000000,0.000000000,0.000000000,0.014990339,0.007604735,0.075220553,0.018124704,0.002488596,-0.001221206,0.006144607,0.000443698,-0.001272996,-0.249318261,0.234908074,2.663785834,-0.002127467,-0.002099973,0.023239239,0.999724639,0.000000000,0.000000000,0.000000000,0.000000000,0.000000000,0.000000000,2.662505508,0.000000000,4.175366402
1772714827.445249319,0.014814000,0.007578000,0.075238000,-0.003433760,0.007400240,0.028771530,0.999552720,-0.006439000,0.014992000,0.057505000,0.000408314,0.000143104,-0.000138073,0.000002904,0.043718199,0.005814093,0.009271098,-0.004369075,0.998460318,0.000985581,0.000315430,-0.002983038,0.000000000,0.000000000,0.000000000,0.000000000,0.014997370,0.007605107,0.075216907,0.018369523,0.002465288,-0.001262186,0.004901003,0.000649519,-0.001071553,-0.249197810,0.235718935,2.665429910,-0.002126222,-0.002107054,0.023253567,0.999723992,0.000000000,0.000000000,0.000000000,0.000000000,0.000000000,0.000000000,2.665598069,0.000000000,4.175366402
1772714827.455249310,0.014820000,0.007583000,0.075220000,-0.003572300,0.007988150,0.028925120,0.999543280,-0.006680000,0.016176000,0.057806000,0.000445746,0.000201496,-0.000626399,-0.002350919,0.053659598,0.007147379,0.007523236,-0.004117019,1.000133145,-0.000255125,-0.002531636,-0.000020135,0.000000000,0.000000000,0.000000000,0.000000000,0.014989645,0.007595147,0.075220397,0.018400729,0.002439610,-0.001341963,0.003977028,0.000073728,-0.000163615,-0.248795382,0.236123619,2.662072809,-0.002122690,-0.002110440,0.023224278,0.999724620,0.000000000,0.000000000,0.000000000,0.000000000,0.000000000,0.000000000,2.663322705,0.000000000,4.175366402
1772714827.465249538,0.014820000,0.007588000,0.075229000,-0.003503430,0.008269290,0.028985000,0.999539500,-0.006525000,0.016735000,0.057926000,0.000283994,0.000427409,-0.000742095,-0.005841820,0.053673994,0.010583904,0.009041092,-0.004453455,0.999161204,0.002181468,-0.003073033,0.000100603,0.000000000,0.000000000,0.000000000,0.000000000,0.014982428,0.007599144,0.075216701,0.018328113,0.002422187,-0.001335633,0.004047905,0.000272182,-0.001118979,-0.249463755,0.235944392,2.660481276,-0.002128587,-0.002108983,0.023210386,0.999725269,0.000000000,0.000000000,0.000000000,0.000000000,0.000000000,0.000000000,2.660121175,0.000000000,4.175366402
1772714827.475249529,0.014827000,0.007578000,0.075224000,-0.003482340,0.008491810,0.029006130,0.999537100,-0.006470000,0.017179000,0.057967000,-0.000280226,0.000024378,-0.000112432,-0.006531941,0.013048871,0.003376714,0.010476952,-0.003516314,0.998498729,0.000767723,0.003799538,0.000540360,0.000000000,0.000000000,0.000000000,0.000000000,0.014988041,0.007603030,0.075216534,0.018246873,0.002394385,-0.001301776,0.006235590,0.001158980,-0.001290231,-0.249287301,0.236612946,2.662508236,-0.002126875,-0.002114817,0.023228062,0.999724603,0.000000000,0.000000000,0.000000000,0.000000000,0.000000000,0.000000000,2.663015508,0.000000000,4.175366402
1772714827.485249996,0.014792000,0.007555000,0.075241000,-0.003538040,0.007659640,0.028714650,0.999552040,-0.006634000,0.015516000,0.057388000,-0.000619950,-0.000745630,0.000576574,-0.002511875,-0.044484634,-0.011874004,0.010068125,-0.003076313,1.001082289,-0.000050298,0.000541471,0.001606574,0.000000000,0.000000000,0.000000000,0.000000000,0.014986213,0.007588452,0.075226780,0.018283480,0.002326023,-0.001359078,0.005851883,0.001720300,0.000406505,-0.249806391,0.236095357,2.660092814,-0.002131553,-0.002110362,0.023206988,0.999725110,0.000000000,0.000000000,0.000000000,0.000000000,0.000000000,0.000000000,2.660873681,0.000000000,4.175366402
1772714827.495249987,0.014798000,0.007588000,0.075220000,-0.003618020,0.007692510,0.028840000,0.999547890,-0.006790000,0.015587000,0.057637000,-0.000182459,-0.000537666,0.000518279,0.002703267,-0.054196479,-0.013860385,0.011871245,-0.003742959,1.000212087,-0.001773473,-0.001803674,-0.000752595,0.000000000,0.000000000,0.000000000,0.000000000,0.014983342,0.007577910,0.075235255,0.018365628,0.002368110,-0.001285742,0.006119868,0.001392971,0.000438392,-0.249900106,0.235812292,2.657981239,-0.002132466,-0.002107872,0.023188570,0.999725480,0.000000000,0.000000000,0.000000000,0.000000000,0.000000000,0.000000000,2.658917681,0.000000000,4.175645632
1772714827.505250692,0.014819000,0.007581000,0.075231000,-0.003624830,0.007985480,0.028948250,0.999542440,-0.006785000,0.016174000,0.057852000,0.000077778,-0.000454177,0.000511209,0.004837934,-0.046530746,-0.011451909,0.012548658,-0.003288097,0.998616204,0.002222571,0.003925181,-0.001342378,0.000000000,0.000000000,0.000000000,0.000000000,0.014986171,0.007580808,0.075236202,0.018456869,0.002441213,-0.001175746,0.008469559,0.001251586,-0.001454237,-0.249731596,0.235701882,2.655759002,-0.002131060,-0.002106833,0.023169186,0.999725955,0.000000000,0.000000000,0.000000000,0.000000000,0.000000000,0.000000000,2.656589586,0.000000000,4.176142645
1772714827.515250683,0.014804000,0.007547000,0.075251000,-0.003477520,0.007355060,0.028699340,0.999554980,-0.006531000,0.014904000,0.057360000,-0.000006410,-0.000351127,0.000578594,0.011622622,-0.038301158,-0.009990485,0.012238218,-0.003580018,0.997905079,0.001329926,0.003208902,-0.001813224,0.000000000,0.000000000,0.000000000,0.000000000,0.014986939,0.007584191,0.075237577,0.018627730,0.002508352,-0.001132838,0.008179948,0.001434424,-0.001204184,-0.249408556,0.234588260,2.653155168,-0.002128515,-0.002097004,0.023146494,0.999726461,0.000000000,0.000000000,0.000000000,0.000000000,0.000000000,0.000000000,2.654180118,0.000000000,4.176639622
1772714827.525250912,0.014800000,0.007540000,0.075260000,-0.003323000,0.006658090,0.028507650,0.999565880,-0.006264000,0.013500000,0.056982000,-0.000228458,-0.000331177,0.000543979,0.011080922,-0.034643877,-0.010236173,0.010620658,-0.004036993,0.999109498,0.001707503,-0.002132565,0.001059009,0.000000000,0.000000000,0.000000000,0.000000000,0.014979884,0.007579802,0.075243118,0.018891798,0.002555229,-0.001203552,0.007061708,0.000646669,-0.001622340,-0.249315971,0.233206698,2.649972409,-0.002128044,-0.002084873,0.023118759,0.999727123,0.000000000,0.000000000,0.000000000,0.000000000,0.000000000,0.000000000,2.651271974,0.000000000,4.177136612
1772714827.535251141,0.014816000,0.007574000,0.075242000,-0.003391000,0.007267440,0.028695970,0.999556010,-0.006363000,0.014724000,0.057355000,-0.000549398,-0.000449728,0.000509344,0.006039785,-0.054390715,-0.014864510,0.009136118,-0.004499707,0.999966670,0.000328035,0.001087599,-0.001946799,0.000000000,0.000000000,0.000000000,0.000000000,0.015046459,0.007588040,0.075239472,0.019304116,0.002612759,-0.001308534,0.004609704,0.000056393,-0.000047183,-0.248018239,0.233417427,2.647568396,-0.002116723,-0.002086405,0.023097806,0.999727687,0.000000000,0.000000000,0.000000000,0.000000000,0.000000000,0.000000000,2.648359910,0.000000000,4.177633601
1772714827.545251131,0.014794000,0.007550000,0.075261000,-0.003370470,0.006897860,0.028590210,0.999561730,-0.006344000,0.013983000,0.057146000,-0.000492133,-0.000331022,0.000339744,0.001285957,-0.066595206,-0.016998109,0.008560127,-0.004400908,1.000228722,-0.000885373,-0.003039432,0.000126253,0.000000000,0.000000000,0.000000000,0.000000000,0.015244498,0.007614653,0.075225839,0.019907076,0.002655601,-0.001389689,0.004419943,0.000714203,0.000965262,-0.247225063,0.233145432,2.644554027,-0.002109913,-0.002083817,0.023071526,0.999728260,0.000000000,0.000000000,0.000000000,0.000000000,0.000000000,0.000000000,2.645693637,0.000000000,4.178130578
1772714827.555251598,0.014781000,0.007551000,0.075258000,-0.003303480,0.006442780,0.028473360,0.999568330,-0.006238000,0.013068000,0.056915000,0.000055964,0.000047980,0.000072222,-0.003527590,-0.041722844,-0.010986923,0.010416600,-0.004861257,0.998886699,-0.001425273,0.001080704,-0.001983761,0.000000000,0.000000000,0.000000000,0.000000000,0.015443140,0.007640929,0.075212223,0.020350850,0.002668035,-0.001369665,0.005484075,0.000264818,-0.000574292,-0.246869054,0.233672499,2.642312800,-0.002106742,-0.002088303,0.023051972,0.999728762,0.000000000,0.000000000,0.000000000,0.000000000,0.000000000,0.000000000,2.643112969,0.000000000,4.178627579
1772714827.565252066,0.014791000,0.007549000,0.075264000,-0.003437330,0.006147090,0.028418690,0.999571300,-0.006523000,0.012485000,0.056806000,0.000258450,0.000034441,0.000019678,-0.003255282,-0.022014436,-0.008565210,0.011257663,-0.004913375,0.997770278,-0.001604747,0.001415476,-0.000437905,0.000000000,0.000000000,0.000000000,0.000000000,0.015646228,0.007667376,0.075198803,0.020830259,0.002694115,-0.001350012,0.007087562,0.000013294,-0.002332062,-0.247749250,0.232535645,2.639276165,-0.002114705,-0.002078505,0.023025484,0.999729325,0.000000000,0.000000000,0.000000000,0.000000000,0.000000000,0.000000000,2.640463376,0.000000000,4.179124580
1772714827.575252056,0.014805000,0.007538000,0.075262000,-0.003343230,0.005830250,0.028336560,0.999575850,-0.006354000,0.011845000,0.056644000,0.000196970,0.000030711,-0.000057265,-0.002679666,-0.009676818,-0.005524075,0.008896569,-0.005093097,0.998092516,-0.001463671,0.001001888,0.002809265,0.000000000,0.000000000,0.000000000,0.000000000,0.015858801,0.007694417,0.075184532,0.021467663,0.002685667,-0.001489242,0.006045093,-0.000286901,-0.001415359,-0.248011237,0.232231284,2.636618770,-0.002117100,-0.002075853,0.023002301,0.999729902,0.000000000,0.000000000,0.000000000,0.000000000,0.000000000,0.000000000,2.637570687,0.000000000,4.179621557
1772714827.585252285,0.014799000,0.007543000,0.075266000,-0.003333910,0.005935640,0.028247540,0.999577780,-0.006330000,0.012055000,0.056466000,0.000333839,0.000517133,-0.000587083,-0.003243248,0.044334790,0.008526186,0.007487375,-0.004577542,0.998253249,0.000778759,-0.001611821,0.002585300,0.000000000,0.000000000,0.000000000,0.000000000,0.016066629,0.007719996,0.075169365,0.022085508,0.002672309,-0.001692435,0.003438609,-0.001363577,-0.001224600,-0.248257401,0.231918050,2.634044434,-0.002119357,-0.002073123,0.022979844,0.999730408,0.000000000,0.000000000,0.000000000,0.000000000,0.000000000,0.000000000,2.635071522,0.000000000,4.180118546
1772714827.595252275,0.014815000,0.007584000,0.075238000,-0.003463710,0.007022360,0.028580520,0.999560830,-0.006524000,0.014237000,0.057124000,0.000073155,0.000279390,-0.000700894,-0.000754722,0.066102703,0.015357292,0.008185325,-0.004619338,0.998534129,0.001615388,-0.001995268,0.000529715,0.000000000,0.000000000,0.000000000,0.000000000,0.015998112,0.007710825,0.075171946,0.020797558,0.002415097,-0.001700116,0.003719007,0.000359296,-0.002213947,-0.245022752,0.268473924,2.635576141,-0.002083768,-0.002391426,0.022992571,0.999730039,0.000000000,0.000000000,0.000000000,0.000000000,0.000000000,0.000000000,2.634383456,0.000000000,4.180615524
1772714827.605252266,0.014797000,0.007553000,0.075253000,-0.003409840,0.006817850,0.028527220,0.999563950,-0.006428000,0.013825000,0.057019000,-0.000269717,-0.000139899,-0.000410723,0.002074533,0.050242558,0.012642366,0.009383170,-0.005365337,0.998453087,0.001051803,-0.000245886,-0.000926982,0.000000000,0.000000000,0.000000000,0.000000000,0.015046933,0.007592438,0.075233957,0.013687756,0.001401748,-0.001265726,0.004437323,-0.001076723,-0.002180983,-0.242863162,0.288720704,2.635663936,-0.002060864,-0.002567634,0.022992992,0.999728643,0.000000000,0.000000000,0.000000000,0.000000000,0.000000000,0.000000000,2.636701673,0.000000000,4.180645466
1772714827.615253448,0.014787000,0.007547000,0.075246000,-0.003439460,0.006757820,0.028530630,0.999564160,-0.006491000,0.013706000,0.057026000,-0.000006061,-0.000162374,-0.000102234,0.002125987,0.034810449,0.011210525,0.010565410,-0.005866375,0.998352319,0.000740466,0.002369456,-0.000248947,0.000000000,0.000000000,0.000000000,0.000000000,0.014812059,0.007551448,0.075242537,0.013244184,0.001334631,-0.001210130,0.005967238,-0.001059511,-0.002208530,-0.243420521,0.283644673,2.640979518,-0.002066631,-0.002523557,0.023039452,0.999726515,0.000000000,0.000000000,0.000000000,0.000000000,0.000000000,0.000000000,2.650389335,0.000000000,4.180645466
1772714827.625253677,0.014808000,0.007563000,0.075228000,-0.003397860,0.007617920,0.028714330,0.999552850,-0.006356000,0.015425000,0.057390000,0.000256838,-0.000387549,0.000419969,0.002307064,0.002393662,0.005181242,0.012713159,-0.004440574,0.999351953,0.001408466,0.000843734,0.000040844,0.000000000,0.000000000,0.000000000,0.000000000,0.014872789,0.007554132,0.075248071,0.013721044,0.001163039,-0.001389924,0.007210847,0.000280275,-0.000758902,-0.244088504,0.277689565,2.646366281,-0.002073538,-0.002471834,0.023086546,0.999727105,0.000000000,0.000000000,0.000000000,0.000000000,0.000000000,0.000000000,2.647285515,0.000000000,4.180645466
1772714827.635253668,0.014803000,0.007543000,0.075247000,-0.003350510,0.007035750,0.028621720,0.999559940,-0.006296000,0.014258000,0.057208000,0.000258314,0.000197844,0.000401380,0.002074352,0.009320941,0.004400316,0.012258567,-0.003421663,0.998204830,-0.000036389,-0.001663166,0.000571979,0.000000000,0.000000000,0.000000000,0.000000000,0.014916855,0.007571073,0.075241582,0.014342286,0.001119352,-0.001487959,0.006681201,0.000609326,-0.001114615,-0.243126288,0.276624587,2.643421720,-0.002065421,-0.002462296,0.023060898,0.999727745,0.000000000,0.000000000,0.000000000,0.000000000,0.000000000,0.000000000,2.644585441,0.000000000,4.180645466
1772714827.645253897,0.014801000,0.007544000,0.075267000,-0.003365250,0.006841070,0.028563260,0.999562910,-0.006337000,0.013869000,0.057092000,0.000206605,0.000798408,0.000013384,0.001192683,0.031624563,0.011806078,0.009232387,-0.003363055,0.998586568,-0.001901708,0.000996014,-0.000490641,0.000000000,0.000000000,0.000000000,0.000000000,0.014931218,0.007569856,0.075244025,0.014913232,0.001193508,-0.001528147,0.004608857,0.001167307,-0.001039671,-0.242107844,0.275645772,2.640900895,-0.002056787,-0.002453506,0.023038947,0.999728406,0.000000000,0.000000000,0.000000000,0.000000000,0.000000000,0.000000000,2.641564318,0.000000000,4.180645466
1772714827.655253887,0.014821000,0.007576000,0.075249000,-0.003391380,0.007502530,0.028785780,0.999551690,-0.006349000,0.015194000,0.057533000,-0.000114763,0.000385742,0.000015268,0.001443595,0.018469732,0.009491317,0.009455151,-0.003106924,0.998185790,-0.002046659,-0.002087427,0.000509467,0.000000000,0.000000000,0.000000000,0.000000000,0.014938917,0.007582611,0.075229729,0.015263683,0.001281513,-0.001654786,0.004816738,0.001573855,-0.002142652,-0.242075427,0.274916125,2.638947703,-0.002056693,-0.002447099,0.023021922,0.999728767,0.000000000,0.000000000,0.000000000,0.000000000,0.000000000,0.000000000,2.639857947,0.000000000,4.180645466
1772714827.665253878,0.014802000,0.007557000,0.075261000,-0.003442090,0.007209460,0.028722550,0.999555500,-0.006468000,0.014611000,0.057408000,-0.000350758,-0.000370805,-0.000055614,0.000157298,-0.008784012,0.001634527,0.012263170,-0.003888715,0.998858310,0.002216232,-0.001654229,-0.001206222,0.000000000,0.000000000,0.000000000,0.000000000,0.014944045,0.007570512,0.075229616,0.015394632,0.001386861,-0.001734388,0.007437908,0.000380772,-0.001327520,-0.243538334,0.274761639,2.636564253,-0.002069537,-0.002446002,0.023001101,0.999729228,0.000000000,0.000000000,0.000000000,0.000000000,0.000000000,0.000000000,2.637231492,0.000000000,4.180645466
1772714827.675254345,0.014797000,0.007585000,0.075229000,-0.003353800,0.008030770,0.028874210,0.999545170,-0.006242000,0.016249000,0.057708000,-0.000058605,-0.000423757,-0.000329313,0.000806622,-0.002589281,-0.000220913,0.012568522,-0.004426541,0.999264085,0.003180816,-0.003089791,-0.001491485,0.000000000,0.000000000,0.000000000,0.000000000,0.014951288,0.007556270,0.075234414,0.015775622,0.001450451,-0.001860400,0.007104667,-0.000221154,-0.000978626,-0.243222796,0.275794371,2.633260328,-0.002066648,-0.002454889,0.022972265,0.999729806,0.000000000,0.000000000,0.000000000,0.000000000,0.000000000,0.000000000,2.634523988,0.000000000,4.180645466
1772714827.685254335,0.014796000,0.007547000,0.075246000,-0.003328270,0.007294740,0.028787070,0.999553410,-0.006234000,0.014775000,0.057538000,-0.000019095,-0.000711986,-0.000136655,0.000131106,-0.016125758,-0.008999831,0.012208722,-0.005437972,0.997965165,0.001697366,-0.001450189,0.001653163,0.000000000,0.000000000,0.000000000,0.000000000,0.014957204,0.007553475,0.075234656,0.016223123,0.001440153,-0.001841969,0.007920044,-0.000432152,-0.001886184,-0.243074793,0.276531633,2.630138690,-0.002065276,-0.002461236,0.022945016,0.999730445,0.000000000,0.000000000,0.000000000,0.000000000,0.000000000,0.000000000,2.631141667,0.000000000,4.180645466
1772714827.695255041,0.014804000,0.007531000,0.075256000,-0.003378070,0.006804260,0.028617460,0.999561570,-0.006364000,0.013796000,0.057200000,0.000046368,-0.000686597,0.000320571,-0.003387860,-0.024835924,-0.015493915,0.011018770,-0.006716529,0.998551965,0.000350366,0.000741079,0.002213718,0.000000000,0.000000000,0.000000000,0.000000000,0.014963921,0.007565358,0.075231193,0.016550232,0.001450389,-0.001878221,0.006912703,-0.001989487,-0.001212508,-0.242224906,0.277504026,2.628541743,-0.002057701,-0.002469520,0.022931085,0.999730825,0.000000000,0.000000000,0.000000000,0.000000000,0.000000000,0.000000000,2.629314779,0.000000000,4.180645466
1772714827.705255985,0.014803000,0.007526000,0.075256000,-0.003391900,0.006731730,0.028514120,0.999564970,-0.006398000,0.013651000,0.056994000,0.000139006,-0.000110703,0.000449359,-0.004881184,-0.022721033,-0.013091065,0.010101586,-0.007300190,0.999656583,-0.001519590,0.001669268,0.001923852,0.000000000,0.000000000,0.000000000,0.000000000,0.014963604,0.007564559,0.075232017,0.016613383,0.001430708,-0.001894598,0.006459140,-0.002094136,-0.001052233,-0.241666274,0.277915669,2.627800899,-0.002052761,-0.002472986,0.022924627,0.999731020,0.000000000,0.000000000,0.000000000,0.000000000,0.000000000,0.000000000,2.629073640,0.000000000,4.180645466
1772714827.715256214,0.014812000,0.007567000,0.075244000,-0.003419560,0.007513160,0.028646710,0.999555510,-0.006406000,0.015216000,0.057254000,-0.000231003,0.000065404,0.000562782,-0.005482522,-0.027240315,-0.014689804,0.010031737,-0.006904950,0.999771162,-0.001206523,0.001959761,0.001334388,0.000000000,0.000000000,0.000000000,0.000000000,0.014963288,0.007563759,0.075232841,0.016676530,0.001411028,-0.001910973,0.006056163,-0.002066170,-0.000938836,-0.241759490,0.277628046,2.627455871,-0.002053639,-0.002470490,0.022921619,0.999731091,0.000000000,0.000000000,0.000000000,0.000000000,0.000000000,0.000000000,2.628832518,0.000000000,4.180645466
1772714827.725256443,0.014796000,0.007542000,0.075259000,-0.003453610,0.007025390,0.028451890,0.999564510,-0.006505000,0.014242000,0.056867000,-0.000523136,0.000473718,0.000259130,-0.002989774,-0.014838722,-0.010078226,0.009961887,-0.006509709,0.999885740,-0.000893457,0.002250254,0.000744924,0.000000000,0.000000000,0.000000000,0.000000000,0.014962972,0.007562960,0.075233665,0.016739676,0.001391348,-0.001927349,0.005653186,-0.002038203,-0.000825440,-0.241852706,0.277340423,2.627110843,-0.002054517,-0.002467993,0.022918612,0.999731162,0.000000000,0.000000000,0.000000000,0.000000000,0.000000000,0.000000000,2.628591396,0.000000000,4.180645466
1772714827.735256672,0.014794000,0.007542000,0.075272000,-0.003472310,0.006609300,0.028430480,0.999567890,-0.006566000,0.013411000,0.056826000,-0.000438928,-0.000258062,0.000391240,-0.002306018,-0.045607416,-0.014257330,0.009892037,-0.006114469,1.000000318,-0.000580391,0.002540746,0.000155459,0.000000000,0.000000000,0.000000000,0.000000000,0.014962655,0.007562161,0.075234489,0.016802823,0.001371668,-0.001943725,0.005250209,-0.002010236,-0.000712043,-0.241945921,0.277052800,2.626765815,-0.002055395,-0.002465496,0.022915605,0.999731233,0.000000000,0.000000000,0.000000000,0.000000000,0.000000000,0.000000000,2.628350274,0.000000000,4.180645466
1772714827.745256901,0.014788000,0.007551000,0.075266000,-0.003399410,0.006358710,0.028403920,0.999570520,-0.006435000,0.012905000,0.056775000,-0.000205847,-0.000336888,0.000128982,-0.000093143,-0.056479837,-0.013839682,0.009822188,-0.005719228,1.000114897,-0.000267324,0.002831239,-0.000434005,0.000000000,0.000000000,0.000000000,0.000000000,0.014962339,0.007561361,0.075235313,0.016865969,0.001351988,-0.001960100,0.004847233,-0.001982269,-0.000598646,-0.242039137,0.276765177,2.626420787,-0.002056274,-0.002462999,0.022912597,0.999731304,0.000000000,0.000000000,0.000000000,0.000000000,0.000000000,0.000000000,2.628109152,0.000000000,4.180645466
1772714827.755256891,0.014786000,0.007540000,0.075263000,-0.003440200,0.006360250,0.028266770,0.999574260,-0.006518000,0.012910000,0.056500000,0.000369056,0.000334480,-0.000583295,0.000749374,-0.020956900,-0.001495391,0.009752340,-0.005323997,1.000229473,0.000045735,0.003121725,-0.001023455,0.000000000,0.000000000,0.000000000,0.000000000,0.014962026,0.007559957,0.075237962,0.016962274,0.001276884,-0.001962491,0.004444265,-0.001954303,-0.000485252,-0.242132351,0.276477561,2.626075767,-0.002057152,-0.002460502,0.022909590,0.999731376,0.000000000,0.000000000,0.000000000,0.000000000,0.000000000,0.000000000,2.627220196,0.000000000,4.180645466
1772714827.765256882,0.014793000,0.007543000,0.075263000,-0.003459110,0.006229290,0.028321230,0.999573480,-0.006563000,0.012650000,0.056610000,0.000794892,0.000972884,-0.000852798,0.001062363,0.030210951,0.015313649,0.009972885,-0.003977478,1.000039563,0.000267715,0.001737968,-0.000299907,0.000000000,0.000000000,0.000000000,0.000000000,0.014961639,0.007557209,0.075244985,0.017137489,0.001065038,-0.001928195,0.005076071,-0.000048521,0.000800951,-0.241955801,0.275575660,2.624787399,-0.002055820,-0.002452575,0.022898373,0.999731579,0.000000000,0.000000000,0.000000000,0.000000000,0.000000000,0.000000000,2.625515376,0.000000000,4.180645466
1772714827.775258064,0.014809000,0.007533000,0.075258000,-0.003430580,0.005964910,0.028255840,0.999577040,-0.006522000,0.012119000,0.056481000,0.000513345,0.000420086,-0.000227273,0.001355750,0.041098602,0.017944357,0.010661254,-0.003189328,0.999298346,0.002232250,0.000633268,-0.000410047,0.000000000,0.000000000,0.000000000,0.000000000,0.014959149,0.007558740,0.075246261,0.017196621,0.000937317,-0.001856171,0.005193711,0.001136536,-0.000825175,-0.242295611,0.274932663,2.622480685,-0.002058962,-0.002446992,0.022878255,0.999732030,0.000000000,0.000000000,0.000000000,0.000000000,0.000000000,0.000000000,2.623500437,0.000000000,4.180645466
1772714827.785258055,0.014807000,0.007587000,0.075232000,-0.003385440,0.006911640,0.028614110,0.999560900,-0.006373000,0.014011000,0.057193000,0.000194192,0.000279157,0.000085975,-0.000328910,0.048865752,0.020410959,0.010877455,-0.004248387,0.998449476,0.004163888,0.001062418,-0.001439541,0.000000000,0.000000000,0.000000000,0.000000000,0.014957010,0.007554377,0.075245782,0.017295177,0.001008325,-0.001744893,0.006142357,0.000179589,-0.000737616,-0.242134626,0.275025130,2.619587829,-0.002057601,-0.002447715,0.022853018,0.999732525,0.000000000,0.000000000,0.000000000,0.000000000,0.000000000,0.000000000,2.620929879,0.000000000,4.180645466
1772714827.795258284,0.014825000,0.007588000,0.075233000,-0.003490920,0.007502620,0.028812060,0.999550590,-0.006547000,0.015200000,0.057584000,0.000061539,0.000465774,-0.000211247,0.000358777,0.069874286,0.022960580,0.009993278,-0.004417982,0.998370719,0.001631488,-0.000347254,-0.000047832,0.000000000,0.000000000,0.000000000,0.000000000,0.014959422,0.007553983,0.075245796,0.017426078,0.001077748,-0.001779880,0.005439908,-0.000036145,-0.000921947,-0.241015983,0.275519093,2.616629593,-0.002047806,-0.002451748,0.022827224,0.999733108,0.000000000,0.000000000,0.000000000,0.000000000,0.000000000,0.000000000,2.617945991,0.000000000,4.180645466
1772714827.805258512,0.014802000,0.007546000,0.075271000,-0.003444160,0.007107520,0.028711900,0.999556530,-0.006478000,0.014407000,0.057387000,-0.000053341,-0.000011636,-0.000136539,-0.002884740,0.058750118,0.015338123,0.008999126,-0.004120804,0.999750019,-0.001369612,0.000074617,-0.002171586,0.000000000,0.000000000,0.000000000,0.000000000,0.014968197,0.007550022,0.075243877,0.017621611,0.001063072,-0.001817841,0.004463003,-0.000040287,-0.000911891,-0.240245621,0.276255705,2.613910147,-0.002040997,-0.002457973,0.022803501,0.999733765,0.000000000,0.000000000,0.000000000,0.000000000,0.000000000,0.000000000,2.614959583,0.000000000,4.180645466
1772714827.815258741,0.014791000,0.007539000,0.075271000,-0.003436280,0.007116710,0.028616080,0.999559230,-0.006463000,0.014424000,0.057195000,-0.000187219,-0.000159208,-0.000165987,-0.002406529,0.030871761,0.008157642,0.008910331,-0.004157518,0.999850118,0.000085462,0.001548640,-0.002098577,0.000000000,0.000000000,0.000000000,0.000000000,0.014974302,0.007568290,0.075231599,0.017695376,0.001122958,-0.001871614,0.003734578,0.000288863,-0.000127196,-0.240691050,0.276343160,2.611424120,-0.002044919,-0.002458780,0.022781801,0.999734237,0.000000000,0.000000000,0.000000000,0.000000000,0.000000000,0.000000000,2.612385271,0.000000000,4.180645466
1772714827.825258732,0.014809000,0.007582000,0.075225000,-0.003535840,0.007905850,0.028857070,0.999546030,-0.006613000,0.016009000,0.057671000,-0.000036888,-0.000175971,-0.000262782,-0.002165410,0.007457245,0.001408105,0.008574988,-0.002732728,0.998455380,-0.004558476,-0.000338413,0.000124609,0.000000000,0.000000000,0.000000000,0.000000000,0.014984431,0.007583818,0.075223240,0.017744642,0.001148949,-0.001869292,0.003894513,0.001089918,-0.000554870,-0.241366715,0.275853449,2.608899831,-0.002050965,-0.002454597,0.022759773,0.999734657,0.000000000,0.000000000,0.000000000,0.000000000,0.000000000,0.000000000,2.610069898,0.000000000,4.180645466
1772714827.835259438,0.014821000,0.007582000,0.075220000,-0.003497450,0.008260690,0.028961300,0.999540280,-0.006514000,0.016717000,0.057879000,0.000018240,0.000809111,-0.000667134,-0.001827061,0.028104526,0.010774010,0.008996025,-0.003780579,0.998275069,0.000455451,0.000554600,0.005010556,0.000000000,0.000000000,0.000000000,0.000000000,0.014983395,0.007577095,0.075232396,0.017690085,0.001186981,-0.001799944,0.004245167,0.001278949,-0.001790851,-0.241531937,0.275098475,2.605916224,-0.002052620,-0.002447989,0.022733755,0.999735240,0.000000000,0.000000000,0.000000000,0.000000000,0.000000000,0.000000000,2.607244164,0.000000000,4.180645466
1772714827.845259190,0.014805000,0.007551000,0.075253000,-0.003531880,0.007318390,0.028787200,0.999552530,-0.006640000,0.014834000,0.057535000,0.000239627,0.000749029,-0.000389472,-0.002881153,0.038044361,0.013899691,0.008959037,-0.003682835,0.997929585,-0.003604852,0.003178004,-0.000974364,0.000000000,0.000000000,0.000000000,0.000000000,0.014976285,0.007565770,0.075242805,0.017644386,0.001236297,-0.001783887,0.003788520,0.000614988,-0.002043765,-0.242097539,0.273773415,2.603396880,-0.002057871,-0.002436496,0.022711786,0.999735806,0.000000000,0.000000000,0.000000000,0.000000000,0.000000000,0.000000000,2.604435329,0.000000000,4.180645466
1772714827.855259657,0.014798000,0.007580000,0.075235000,-0.003445580,0.007749000,0.028888610,0.999546660,-0.006441000,0.015691000,0.057737000,-0.000066259,-0.000059382,0.000332226,0.002589895,0.012598882,0.004988611,0.008124375,-0.004516175,0.999210589,-0.002570666,-0.000807847,-0.000542808,0.000000000,0.000000000,0.000000000,0.000000000,0.014975015,0.007569196,0.075237158,0.017639159,0.001315441,-0.001895891,0.003356112,-0.000392502,-0.000926269,-0.242582758,0.273271654,2.601037627,-0.002062254,-0.002432172,0.022691202,0.999736275,0.000000000,0.000000000,0.000000000,0.000000000,0.000000000,0.000000000,2.602138742,0.000000000,4.180645466
1772714827.865259409,0.014811000,0.007578000,0.075239000,-0.003557700,0.008113600,0.028949790,0.999541610,-0.006643000,0.016426000,0.057855000,-0.000157498,-0.000715677,0.000667522,0.006699771,-0.019731924,-0.008922739,0.009019047,-0.004383436,1.000355195,-0.001129670,0.000052320,0.001236051,0.000000000,0.000000000,0.000000000,0.000000000,0.014979990,0.007581114,0.075222416,0.017626000,0.001378773,-0.002035907,0.003621021,-0.000392012,0.000521914,-0.242392104,0.274059588,2.598785412,-0.002060482,-0.002438968,0.022671542,0.999736739,0.000000000,0.000000000,0.000000000,0.000000000,0.000000000,0.000000000,2.599795958,0.000000000,4.180645466
1772714827.875259876,0.014806000,0.007591000,0.075233000,-0.003523210,0.008427430,0.029067480,0.999535720,-0.006554000,0.017053000,0.058090000,-0.000165074,-0.000664705,0.000483722,0.007751612,-0.038621856,-0.017234074,0.010186604,-0.004199984,1.000650634,-0.001840141,0.002167234,-0.001099010,0.000000000,0.000000000,0.000000000,0.000000000,0.014984172,0.007583105,0.075216933,0.017578298,0.001328115,-0.002007744,0.004527444,0.001383164,0.001503913,-0.242170831,0.273163340,2.596192801,-0.002058784,-0.002431059,0.022648946,0.999737298,0.000000000,0.000000000,0.000000000,0.000000000,0.000000000,0.000000000,2.597052820,0.000000000,4.180645466
1772714827.885259628,0.014809000,0.007546000,0.075257000,-0.003411220,0.007673620,0.028757400,0.999551140,-0.006379000,0.015537000,0.057475000,-0.000251904,-0.000734616,0.000501438,0.009223112,-0.065655785,-0.026454749,0.010166200,-0.004566301,0.999921429,0.002892609,-0.000095308,0.000784681,0.000000000,0.000000000,0.000000000,0.000000000,0.014978504,0.007580306,0.075222101,0.017588961,0.001336734,-0.001798968,0.005553483,-0.000179916,0.000125961,-0.243127470,0.271571323,2.592958406,-0.002067514,-0.002417300,0.022620736,0.999737900,0.000000000,0.000000000,0.000000000,0.000000000,0.000000000,0.000000000,2.594103186,0.000000000,4.180645466
1772714827.895259619,0.014798000,0.007543000,0.075257000,-0.003265940,0.006965370,0.028558560,0.999562520,-0.006132000,0.014112000,0.057083000,-0.000382013,-0.000904410,0.000729391,0.009559399,-0.097050001,-0.033672952,0.008773801,-0.004917648,0.997667280,0.000619868,0.002496031,-0.000602487,0.000000000,0.000000000,0.000000000,0.000000000,0.014978965,0.007587072,0.075221621,0.017711372,0.001381827,-0.001629895,0.004558079,-0.000534003,-0.001600032,-0.242721170,0.270885220,2.591534680,-0.002064134,-0.002411208,0.022608337,0.999738372,0.000000000,0.000000000,0.000000000,0.000000000,0.000000000,0.000000000,2.591465675,0.000000000,4.180645466
1772714827.905259848,0.014801000,0.007538000,0.075265000,-0.003319100,0.006523170,0.028394840,0.999569990,-0.006265000,0.013230000,0.056757000,-0.000565910,-0.000518143,0.000570863,0.005843200,-0.092818362,-0.032486074,0.009241738,-0.004423452,0.997405231,-0.000600949,0.000343209,0.000419821,0.000000000,0.000000000,0.000000000,0.000000000,0.014980504,0.007595824,0.075219960,0.017788022,0.001331230,-0.001711254,0.004128975,-0.000316220,-0.002205777,-0.243159971,0.269108487,2.592252275,-0.002068298,-0.002395807,0.022614622,0.999738127,0.000000000,0.000000000,0.000000000,0.000000000,0.000000000,0.000000000,2.593036964,0.000000000,4.180645466
1772714827.915259838,0.014784000,0.007552000,0.075266000,-0.003305000,0.006407950,0.028339320,0.999572360,-0.006245000,0.012998000,0.056647000,0.000071523,0.000140171,0.000025699,-0.003332071,-0.041018840,-0.015900328,0.009786319,-0.003338858,0.995702869,-0.001657125,0.001810997,0.000910079,0.000000000,0.000000000,0.000000000,0.000000000,0.014981514,0.007581213,0.075228220,0.017781377,0.001240237,-0.001773312,0.005123584,0.000734965,-0.003818667,-0.242746441,0.268016843,2.589539817,-0.002064962,-0.002386153,0.022590988,0.999738692,0.000000000,0.000000000,0.000000000,0.000000000,0.000000000,0.000000000,2.590432847,0.000000000,4.180645466
1772714827.925259590,0.014792000,0.007550000,0.075263000,-0.003272840,0.006230100,0.028280580,0.999575250,-0.006191000,0.012640000,0.056531000,0.000408606,0.000549631,-0.000284247,-0.005237838,0.016092042,0.005897344,0.011218296,-0.002538076,0.997274976,0.005242752,-0.002408143,0.002142018,0.000000000,0.000000000,0.000000000,0.000000000,0.014977866,0.007568336,0.075233670,0.017762825,0.001191307,-0.001960730,0.006210335,0.001751110,-0.003164052,-0.242315945,0.267040962,2.586581563,-0.002061461,-0.002377501,0.022565204,0.999739258,0.000000000,0.000000000,0.000000000,0.000000000,0.000000000,0.000000000,2.587579103,0.000000000,4.180645466
1772714827.935259581,0.014802000,0.007543000,0.075266000,-0.003275980,0.006322590,0.028313870,0.999573720,-0.006192000,0.012826000,0.056597000,0.000329429,0.000090967,-0.000096212,-0.002702455,0.026912202,0.011618844,0.011689205,-0.003983578,0.998774180,0.003060205,-0.006002451,-0.000526883,0.000000000,0.000000000,0.000000000,0.000000000,0.014976254,0.007559489,0.075238449,0.017850933,0.001286517,-0.002221048,0.006545324,0.001150221,-0.001393000,-0.240950293,0.268523118,2.584018743,-0.002049308,-0.002390117,0.022542846,0.999739791,0.000000000,0.000000000,0.000000000,0.000000000,0.000000000,0.000000000,2.585010733,0.000000000,4.180645466
1772714827.945260048,0.014796000,0.007547000,0.075264000,-0.003441270,0.006368560,0.028324920,0.999572560,-0.006519000,0.012927000,0.056617000,0.000478749,0.000220668,-0.000418940,0.000030053,0.031490515,0.018804094,0.009792276,-0.003475828,0.999576710,0.000599567,0.004737077,0.000573785,0.000000000,0.000000000,0.000000000,0.000000000,0.014969800,0.007560891,0.075241456,0.018028496,0.001411475,-0.002319018,0.005223922,0.000634542,-0.001284598,-0.239256245,0.269274469,2.581742082,-0.002034428,-0.002396298,0.022523004,0.999740256,0.000000000,0.000000000,0.000000000,0.000000000,0.000000000,0.000000000,2.582427251,0.000000000,4.180645466
1772714827.955259800,0.014831000,0.007569000,0.075239000,-0.003408640,0.007291350,0.028686830,0.999556040,-0.006397000,0.014772000,0.057336000,0.000379973,0.000326923,-0.000458645,-0.001965075,0.029257845,0.021676073,0.008721290,-0.002669057,0.998978918,0.002705617,-0.001288435,-0.002650970,0.000000000,0.000000000,0.000000000,0.000000000,0.014968468,0.007562599,0.075241532,0.018143958,0.001461157,-0.002299572,0.004129366,0.000898246,-0.001433421,-0.238377616,0.267814449,2.580111132,-0.002027084,-0.002383359,0.022508824,0.999740586,0.000000000,0.000000000,0.000000000,0.000000000,0.000000000,0.000000000,2.581069773,0.000000000,4.180645466
1772714827.965260029,0.014798000,0.007546000,0.075266000,-0.003275120,0.006849550,0.028636960,0.999561040,-0.006156000,0.013881000,0.057241000,-0.000215832,0.000152234,-0.000121309,-0.004753710,0.013704782,0.012813472,0.009712188,-0.002965298,0.998272061,0.000086889,-0.001193394,-0.002561824,0.000000000,0.000000000,0.000000000,0.000000000,0.014971546,0.007561905,0.075242093,0.018151811,0.001517320,-0.002289371,0.004538110,0.001040485,-0.001484455,-0.238512719,0.267810895,2.577328518,-0.002028321,-0.002383305,0.022484544,0.999741157,0.000000000,0.000000000,0.000000000,0.000000000,0.000000000,0.000000000,2.578556784,0.000000000,4.180645466
1772714827.975260258,0.014793000,0.007549000,0.075257000,-0.003333990,0.006485420,0.028530580,0.999566320,-0.006296000,0.013156000,0.057029000,-0.000271348,0.000143609,-0.000114044,-0.006462493,0.008611621,0.004604361,0.010714401,-0.004982010,0.997069645,0.001155466,0.001388225,0.001975804,0.000000000,0.000000000,0.000000000,0.000000000,0.014973899,0.007561355,0.075242706,0.018115567,0.001597539,-0.002316273,0.005568005,0.000817382,-0.002612828,-0.237656029,0.269266427,2.573897007,-0.002020632,-0.002395775,0.022454594,0.999741776,0.000000000,0.000000000,0.000000000,0.000000000,0.000000000,0.000000000,2.575139892,0.000000000,4.180645466
1772714827.985261202,0.014825000,0.007576000,0.075231000,-0.003449030,0.007095060,0.028795420,0.999554190,-0.006487000,0.014383000,0.057554000,-0.000074806,-0.000020377,-0.000015307,-0.007042505,0.006792432,-0.003302734,0.011397765,-0.004371057,0.996997528,0.001429900,-0.000940742,0.000628276,0.000000000,0.000000000,0.000000000,0.000000000,0.014983212,0.007568285,0.075235175,0.018189165,0.001656863,-0.002447806,0.007235288,-0.000069521,-0.002358210,-0.237218831,0.267562558,2.571888324,-0.002017194,-0.002380789,0.022437114,0.999742280,0.000000000,0.000000000,0.000000000,0.000000000,0.000000000,0.000000000,2.572628692,0.000000000,4.180645466
1772714827.995261431,0.014794000,0.007556000,0.075258000,-0.003515720,0.006951310,0.028652460,0.999559080,-0.006631000,0.014098000,0.057268000,-0.000151632,-0.000297164,0.000201185,-0.007764858,-0.003262414,-0.012431036,0.010663552,-0.003581091,0.999665868,-0.002177470,0.007406825,-0.000043717,0.000000000,0.000000000,0.000000000,0.000000000,0.014987462,0.007570444,0.075232246,0.018349348,0.001644953,-0.002631780,0.006596207,0.000665807,-0.000620738,-0.237318838,0.267053852,2.568417814,-0.002018238,-0.002376309,0.022406840,0.999742924,0.000000000,0.000000000,0.000000000,0.000000000,0.000000000,0.000000000,2.569624753,0.000000000,4.180645466
1772714828.005261421,0.014791000,0.007541000,0.075266000,-0.003544390,0.006826390,0.028434220,0.999566070,-0.006698000,0.013849000,0.056831000,0.000220591,0.000034499,-0.000121659,-0.004174105,0.022383101,-0.006868572,0.008459752,-0.003395532,1.000324691,-0.000479213,-0.001669572,-0.000265339,0.000000000,0.000000000,0.000000000,0.000000000,0.015021144,0.007578136,0.075223361,0.015660682,0.001675151,-0.002172610,0.004071175,0.001284071,-0.000601007,-0.238229163,0.269694753,2.567783509,-0.002025673,-0.002399516,0.022401241,0.999743463,0.000000000,0.000000000,0.000000000,0.000000000,0.000000000,0.000000000,2.566946049,0.000000000,4.180645466
1772714828.015261650,0.014817000,0.007569000,0.075238000,-0.003501780,0.007362880,0.028627150,0.999556910,-0.006580000,0.014920000,0.057215000,0.000015657,-0.000060800,0.000073310,0.002344785,0.027189894,-0.004464722,0.008282283,-0.003240950,0.997134453,0.000651637,0.000865084,-0.000887087,0.000000000,0.000000000,0.000000000,0.000000000,0.014994851,0.007577827,0.075224449,0.013609050,0.001818373,-0.001797407,0.003331027,0.001031336,-0.002411940,-0.239783326,0.299725393,2.575182340,-0.002033191,-0.002661951,0.022465195,0.999741281,0.000000000,0.000000000,0.000000000,0.000000000,0.000000000,0.000000000,2.569123446,0.000000000,4.180645466
1772714828.025261641,0.014809000,0.007548000,0.075256000,-0.003455360,0.007009520,0.028484130,0.999563700,-0.006509000,0.014210000,0.056931000,-0.000123679,0.000162995,-0.000061208,0.003578090,0.022156421,-0.001368298,0.007380271,-0.003906912,0.999131201,-0.002174976,0.002758731,-0.000920802,0.000000000,0.000000000,0.000000000,0.000000000,0.014892284,0.007562372,0.075243188,0.013806221,0.002006868,-0.001859644,0.002710000,0.000593521,-0.001271035,-0.240549596,0.298928511,2.570944787,-0.002040130,-0.002655074,0.022428221,0.999741647,0.000000000,0.000000000,0.000000000,0.000000000,0.000000000,0.000000000,2.572479814,0.000000000,4.180645466
1772714828.035261869,0.014792000,0.007546000,0.075260000,-0.003462970,0.006934270,0.028425360,0.999565870,-0.006529000,0.014060000,0.056814000,0.000013054,0.000297592,-0.000245591,0.002439146,0.013214971,0.005994298,0.008484159,-0.003570777,0.999579078,-0.001870491,0.002049368,-0.003033909,0.000000000,0.000000000,0.000000000,0.000000000,0.014908629,0.007577616,0.075232205,0.013964981,0.002111020,-0.002062085,0.002644085,0.000600682,0.000139566,-0.241588125,0.297809766,2.567735367,-0.002049484,-0.002645459,0.022400218,0.999742373,0.000000000,0.000000000,0.000000000,0.000000000,0.000000000,0.000000000,2.568852702,0.000000000,4.180645466
1772714828.045261621,0.014810000,0.007578000,0.075235000,-0.003524230,0.007811050,0.028663680,0.999552380,-0.006598000,0.015818000,0.057285000,-0.000400000,-0.000145144,0.000205206,-0.001245965,-0.019366254,-0.000408251,0.007828687,-0.003778856,0.998936566,-0.001128830,0.000777668,0.001825898,0.000000000,0.000000000,0.000000000,0.000000000,0.014924513,0.007577704,0.075233824,0.014063838,0.002125417,-0.002004383,0.001915589,0.001014066,-0.000365644,-0.242147218,0.296916454,2.563934937,-0.002054624,-0.002637707,0.022367065,0.999743022,0.000000000,0.000000000,0.000000000,0.000000000,0.000000000,0.000000000,2.565523707,0.000000000,4.180645466
1772714828.055261612,0.014799000,0.007555000,0.075257000,-0.003461740,0.007384880,0.028572960,0.999558440,-0.006499000,0.014962000,0.057107000,-0.000508217,-0.000568046,0.000423000,0.000240589,-0.060320125,-0.011238874,0.007744054,-0.004188537,0.998852064,0.002337432,-0.003801242,0.001342011,0.000000000,0.000000000,0.000000000,0.000000000,0.014927958,0.007574159,0.075235498,0.014112565,0.002161171,-0.001964691,0.001195324,0.001193653,-0.001020576,-0.241561224,0.296528952,2.561244808,-0.002049649,-0.002634163,0.022343617,0.999743702,0.000000000,0.000000000,0.000000000,0.000000000,0.000000000,0.000000000,2.561742364,0.000000000,4.180645466
1772714828.065261602,0.014789000,0.007556000,0.075254000,-0.003488870,0.006816550,0.028505890,0.999564290,-0.006587000,0.013827000,0.056976000,-0.000017347,-0.000164627,-0.000111267,0.001099447,-0.053878159,-0.009911153,0.010796826,-0.005493899,0.999759081,-0.001938892,-0.002003233,-0.002455992,0.000000000,0.000000000,0.000000000,0.000000000,0.014930020,0.007566654,0.075239204,0.014059031,0.002135983,-0.001974313,0.004575583,-0.000264147,-0.000741395,-0.241167305,0.295197192,2.556915515,-0.002046571,-0.002622390,0.022305879,0.999744497,0.000000000,0.000000000,0.000000000,0.000000000,0.000000000,0.000000000,2.558265343,0.000000000,4.180645466
1772714828.075261116,0.014795000,0.007539000,0.075258000,-0.003457110,0.006300870,0.028417570,0.999570300,-0.006554000,0.012793000,0.056802000,0.000048563,-0.000316997,0.000058897,-0.000273557,-0.049837055,-0.011902443,0.011090012,-0.004839065,0.999315137,-0.000489750,0.003495586,-0.003153561,0.000000000,0.000000000,0.000000000,0.000000000,0.014931900,0.007567377,0.075236577,0.014155918,0.002091700,-0.001979870,0.005974473,-0.000744910,-0.000503356,-0.241019135,0.296225182,2.552980113,-0.002045169,-0.002631260,0.022271531,0.999745214,0.000000000,0.000000000,0.000000000,0.000000000,0.000000000,0.000000000,2.554475559,0.000000000,4.180645466
1772714828.085261106,0.014791000,0.007541000,0.075263000,-0.003474480,0.006126830,0.028269920,0.999575510,-0.006600000,0.012445000,0.056508000,0.000045960,0.000208120,-0.000162937,-0.003150443,-0.003920951,-0.003046907,0.011584269,-0.006642204,0.999164145,-0.002347508,0.002136145,-0.000514642,0.000000000,0.000000000,0.000000000,0.000000000,0.014941268,0.007579494,0.075225524,0.014441666,0.002029971,-0.001990581,0.006321626,-0.001700057,-0.000636782,-0.241337973,0.295323259,2.549831797,-0.002048198,-0.002623397,0.022244073,0.999745948,0.000000000,0.000000000,0.000000000,0.000000000,0.000000000,0.000000000,2.550397149,0.000000000,4.180645466
1772714828.095261097,0.014797000,0.007550000,0.075249000,-0.003363470,0.006167580,0.028330280,0.999573930,-0.006375000,0.012521000,0.056630000,0.000367794,0.000673369,-0.000455673,-0.002857030,0.048975679,0.011876727,0.012202611,-0.007522646,0.998918129,0.001160655,-0.000852117,0.001503010,0.000000000,0.000000000,0.000000000,0.000000000,0.014940930,0.007576659,0.075232788,0.014762695,0.001870343,-0.001925866,0.007220610,-0.002264779,-0.001313917,-0.241766379,0.294486491,2.548169326,-0.002052136,-0.002616150,0.022229576,0.999746231,0.000000000,0.000000000,0.000000000,0.000000000,0.000000000,0.000000000,2.549029859,0.000000000,4.180645466
1772714828.105261087,0.014811000,0.007574000,0.075232000,-0.003559440,0.007222400,0.028540870,0.999560200,-0.006704000,0.014642000,0.057042000,0.000379507,0.000481372,-0.000164705,-0.000448342,0.052747041,0.018535534,0.010588871,-0.006332847,1.000671558,0.000792392,-0.001458365,0.004091042,0.000000000,0.000000000,0.000000000,0.000000000,0.014944801,0.007583872,0.075227819,0.015090189,0.001642020,-0.001966326,0.006474355,-0.002079975,-0.000830526,-0.241601304,0.294263739,2.546467611,-0.002050778,-0.002614144,0.022214737,0.999746578,0.000000000,0.000000000,0.000000000,0.000000000,0.000000000,0.000000000,2.548519362,0.000000000,4.180645466
1772714828.115261555,0.014795000,0.007552000,0.075262000,-0.003559620,0.006939480,0.028535150,0.999562360,-0.006721000,0.014077000,0.057032000,0.000197805,0.000127389,-0.000014355,-0.000522336,0.029199186,0.018773303,0.009935616,-0.004974214,0.999750600,0.003353862,-0.000471766,0.001350524,0.000000000,0.000000000,0.000000000,0.000000000,0.014946884,0.007584196,0.075226828,0.015222906,0.001546861,-0.001973688,0.004818744,-0.001751615,0.000225372,-0.240774688,0.294202247,2.545429770,-0.002043602,-0.002613429,0.022205702,0.999746659,0.000000000,0.000000000,0.000000000,0.000000000,0.000000000,0.000000000,2.548008840,0.000000000,4.180645466
1772714828.125261545,0.014804000,0.007578000,0.075238000,-0.003525160,0.007527580,0.028740000,0.999552360,-0.006615000,0.015252000,0.057439000,0.000136811,-0.000448505,0.000098563,0.003852697,-0.011508754,0.010071295,0.010097208,-0.004781670,0.999719742,0.002397435,-0.001334286,0.001345813,0.000000000,0.000000000,0.000000000,0.000000000,0.014948197,0.007581863,0.075227611,0.015291164,0.001497280,-0.001966595,0.004903711,-0.001386974,0.000131975,-0.240577225,0.294248754,2.544965569,-0.002041881,-0.002613788,0.022201656,0.999746703,0.000000000,0.000000000,0.000000000,0.000000000,0.000000000,0.000000000,2.547498343,0.000000000,4.180645466
1772714828.135262251,0.014810000,0.007546000,0.075254000,-0.003401100,0.006760410,0.028664100,0.999560450,-0.006412000,0.013710000,0.057294000,-0.000328905,-0.000674010,0.000491823,0.007376179,-0.048587984,-0.004270723,0.010258811,-0.004589113,0.999688882,0.001440940,-0.002196867,0.001341102,0.000000000,0.000000000,0.000000000,0.000000000,0.014949511,0.007579529,0.075228394,0.015359427,0.001447695,-0.001959500,0.004988685,-0.001022307,0.000038571,-0.240379748,0.294295264,2.544501336,-0.002040159,-0.002614147,0.022197609,0.999746748,0.000000000,0.000000000,0.000000000,0.000000000,0.000000000,0.000000000,2.546987809,0.000000000,4.180645466
1772714828.145262241,0.014804000,0.007547000,0.075258000,-0.003427080,0.006414880,0.028626760,0.999563710,-0.006484000,0.013021000,0.057221000,-0.000599515,-0.000684402,0.000639647,0.008882939,-0.069988437,-0.017081565,0.010420404,-0.004396569,0.999658023,0.000484513,-0.003059387,0.001336392,0.000000000,0.000000000,0.000000000,0.000000000,0.014950824,0.007577196,0.075229176,0.015427685,0.001398114,-0.001952407,0.005073653,-0.000657666,-0.000054827,-0.240182285,0.294341771,2.544037135,-0.002038438,-0.002614507,0.022193563,0.999746792,0.000000000,0.000000000,0.000000000,0.000000000,0.000000000,0.000000000,2.546477312,0.000000000,4.180645466
1772714828.155262470,0.014795000,0.007540000,0.075253000,-0.003424230,0.006388080,0.028545020,0.999566230,-0.006481000,0.012966000,0.057057000,-0.000393066,0.000011597,0.000075602,0.002411650,-0.025662225,-0.014800665,0.010581999,-0.004204020,0.999627165,-0.000471936,-0.003921927,0.001331682,0.000000000,0.000000000,0.000000000,0.000000000,0.014952138,0.007574863,0.075229959,0.015495945,0.001348532,-0.001945313,0.005158623,-0.000293017,-0.000148226,-0.239984818,0.294388279,2.543572924,-0.002036717,-0.002614866,0.022189516,0.999746836,0.000000000,0.000000000,0.000000000,0.000000000,0.000000000,0.000000000,2.545966802,0.000000000,4.180645466
1772714828.165262699,0.014793000,0.007543000,0.075257000,-0.003296750,0.006199260,0.028418300,0.999571460,-0.006239000,0.012581000,0.056806000,-0.000311655,0.000257712,-0.000126418,-0.002575120,0.012489785,-0.012270129,0.010743595,-0.004011472,0.999596306,-0.001428386,-0.004784467,0.001326971,0.000000000,0.000000000,0.000000000,0.000000000,0.014953489,0.007572140,0.075231113,0.015567091,0.001287788,-0.001928419,0.005243593,0.000071633,-0.000241626,-0.239787350,0.294434786,2.543108712,-0.002034996,-0.002615225,0.022185470,0.999747056,0.000000000,0.000000000,0.000000000,0.000000000,0.000000000,0.000000000,2.544968151,0.000000000,4.180645466
1772714828.175262690,0.014773000,0.007549000,0.075278000,-0.003377650,0.006206710,0.028350310,0.999573070,-0.006401000,0.012600000,0.056669000,-0.000046232,0.000556566,-0.000510004,-0.003263812,0.050348550,-0.003572737,0.010043150,-0.003682998,0.999018529,-0.002497617,-0.005192206,0.001065370,0.000000000,0.000000000,0.000000000,0.000000000,0.014955120,0.007566466,0.075235088,0.015660139,0.001142371,-0.001837175,0.004068603,0.000009914,-0.000927864,-0.239672986,0.295147634,2.542285802,-0.002033879,-0.002621407,0.022178280,0.999747468,0.000000000,0.000000000,0.000000000,0.000000000,0.000000000,0.000000000,2.542820553,0.000000000,4.180645466
