t,px,py,pz,qx,qy,qz,qw,roll,pitch,yaw,vx,vy,vz,wx_vicon,wy_vicon,wz_vicon,imu_acc_x,imu_acc_y,imu_acc_z,imu_gyro_x,imu_gyro_y,imu_gyro_z,motor_motor_m1,motor_motor_m2,motor_motor_m3,motor_motor_m4,est_stateEstimate_x,est_stateEstimate_y,est_stateEstimate_z,est_stateEstimate_vx,est_stateEstimate_vy,est_stateEstimate_vz,est_stateEstimate_ax,est_stateEstimate_ay,est_stateEstimate_az,att_stateEstimate_roll,att_stateEstimate_pitch,att_stateEstimate_yaw,att_stateEstimate_qx,att_stateEstimate_qy,att_stateEstimate_qz,att_stateEstimate_qw,sp_ctrltarget_x,sp_ctrltarget_y,sp_ctrltarget_z,sp_ctrltarget_yaw,pid_controller_roll,pid_controller_pitch,pid_controller_yaw,pid_controller_cmd_thrust,pwr_pm_vbat
1772714777.564869642,0.015037000,0.007793000,0.075316000,-0.002972130,0.009051840,0.022830760,0.999693950,-0.005530000,0.018235000,0.045617000,-0.006722248,-0.001823642,0.004605676,-0.008134201,-0.318781156,-0.114966898,0.008903156,-0.004165420,0.999293301,-0.002032532,-0.001206190,0.000179270,0.000000000,0.000000000,0.000000000,0.000000000,0.015502859,0.007831225,0.075285397,0.025044802,0.000769787,-0.001528080,0.004187309,0.000165107,-0.001704871,-0.234755588,0.207975259,2.038798406,-0.002016008,-0.001851083,0.017787135,0.999837499,0.000000000,0.000000000,0.000000000,0.000000000,0.000000000,0.000000000,2.034002498,0.000000000,4.228152752
1772714777.574869156,0.015020000,0.007800000,0.075320000,-0.002933850,0.009032760,0.022723020,0.999696690,-0.005456000,0.018194000,0.045402000,-0.002094155,0.000129856,0.000705906,-0.000767725,-0.090063501,-0.036541001,0.008785422,-0.004092409,0.999709810,-0.001757157,-0.000956126,-0.000177714,0.000000000,0.000000000,0.000000000,0.000000000,0.015450914,0.007826325,0.075284800,0.024560397,0.000731391,-0.001558405,0.005702744,-0.000730421,0.000148071,-0.235463504,0.207620913,2.037541072,-0.002022261,-0.001848079,0.017776159,0.999837556,0.000000000,0.000000000,0.000000000,0.000000000,0.000000000,0.000000000,2.034486230,0.000000000,4.228152752
1772714777.584868908,0.014978000,0.007782000,0.075349000,-0.002958260,0.008181720,0.022355800,0.999712220,-0.005550000,0.016492000,0.044671000,0.000431022,0.000976943,-0.001117406,0.002176998,0.033104650,0.007343025,0.009929862,-0.003645119,1.000815662,-0.000776500,-0.001840310,-0.000439252,0.000000000,0.000000000,0.000000000,0.000000000,0.015261097,0.007806120,0.075300774,0.023760116,0.000606305,-0.001415302,0.006634749,-0.000869622,0.000631958,-0.235210581,0.208198438,2.035253875,-0.002020002,-0.001853039,0.017756196,0.999837896,0.000000000,0.000000000,0.000000000,0.000000000,0.000000000,0.000000000,2.034498801,0.000000000,4.228152752
1772714777.594868660,0.015010000,0.007810000,0.075313000,-0.002979260,0.008263650,0.022578190,0.999706490,-0.005584000,0.016658000,0.045115000,0.001342095,0.001006431,-0.001406917,0.002040628,0.074617186,0.024257934,0.010662264,-0.002161830,0.999509482,0.000149176,-0.000901251,0.000099312,0.000000000,0.000000000,0.000000000,0.000000000,0.015246305,0.007802046,0.075310808,0.023619378,0.000574508,-0.001219029,0.007310227,0.001738289,0.000454167,-0.234829239,0.209035198,2.033063388,-0.002016580,-0.001860242,0.017737075,0.999838209,0.000000000,0.000000000,0.000000000,0.000000000,0.000000000,0.000000000,2.032447364,0.000000000,4.228152752
1772714777.604868650,0.015011000,0.007821000,0.075305000,-0.002930400,0.008751920,0.022681190,0.999700150,-0.005463000,0.017632000,0.045320000,0.001127876,0.000507129,-0.000705284,0.000068922,0.058381155,0.021748941,0.011468829,-0.002088293,0.999048636,0.001685732,-0.000394654,-0.000305843,0.000000000,0.000000000,0.000000000,0.000000000,0.015396331,0.007801890,0.075312871,0.024011612,0.000771406,-0.001160482,0.007204599,0.001900196,-0.001046373,-0.233661373,0.209844173,2.030584695,-0.002006305,-0.001867076,0.017715451,0.999838470,0.000000000,0.000000000,0.000000000,0.000000000,0.000000000,0.000000000,2.030303318,0.000000000,4.228152752
1772714777.614868402,0.015026000,0.007803000,0.075313000,-0.002971860,0.008910330,0.022691190,0.999698400,-0.005538000,0.017951000,0.045339000,0.000277176,-0.000232149,0.000444833,-0.002436522,0.008294266,0.007381582,0.012411856,-0.002920960,0.999576054,0.003517055,-0.000540032,-0.001344091,0.000000000,0.000000000,0.000000000,0.000000000,0.015239482,0.007818662,0.075301711,0.023548755,0.001016573,-0.001360057,0.008078968,0.001653929,-0.000387621,-0.232872628,0.210591733,2.028402492,-0.001999343,-0.001873439,0.017696410,0.999838853,0.000000000,0.000000000,0.000000000,0.000000000,0.000000000,0.000000000,2.028141381,0.000000000,4.228152752
1772714777.624868631,0.015025000,0.007810000,0.075313000,-0.002969310,0.009250080,0.022765620,0.999693630,-0.005517000,0.018631000,0.045486000,-0.000200233,-0.000690191,0.000865638,-0.002581451,-0.032357502,-0.007609648,0.012710219,-0.003743064,0.999115123,0.003416528,0.001838482,-0.001610155,0.000000000,0.000000000,0.000000000,0.000000000,0.015248096,0.007816827,0.075301078,0.023717145,0.001025693,-0.001337587,0.008953379,0.001407649,0.000271162,-0.232374039,0.211292332,2.026447103,-0.001994917,-0.001879441,0.017679345,0.999839210,0.000000000,0.000000000,0.000000000,0.000000000,0.000000000,0.000000000,2.026519825,0.000000000,4.228152752
1772714777.634867907,0.015023000,0.007807000,0.075325000,-0.002973320,0.009158970,0.022827640,0.999693040,-0.005528000,0.018449000,0.045610000,-0.000785529,-0.000798214,0.000912724,-0.000402228,-0.073198765,-0.020669594,0.012984652,-0.004639141,0.998178772,-0.000938070,0.002621660,-0.001600316,0.000000000,0.000000000,0.000000000,0.000000000,0.015320781,0.007821668,0.075296904,0.024127075,0.001099635,-0.001338521,0.009730886,-0.000362678,-0.002015638,-0.231875499,0.211992864,2.024491900,-0.001990491,-0.001885442,0.017662281,0.999839532,0.000000000,0.000000000,0.000000000,0.000000000,0.000000000,0.000000000,2.023904547,0.000000000,4.228152752
1772714777.644868851,0.014985000,0.007784000,0.075358000,-0.002987870,0.007983040,0.022468330,0.999711220,-0.005616000,0.016096000,0.044897000,-0.000492930,-0.000295727,0.000110295,0.002480905,-0.065209576,-0.015412421,0.011346956,-0.005308039,0.999650342,-0.001219998,0.003027705,-0.002243122,0.000000000,0.000000000,0.000000000,0.000000000,0.015496130,0.007829240,0.075288554,0.024824577,0.001075331,-0.001455089,0.008487504,-0.001113576,-0.000159387,-0.232207715,0.211859818,2.022478478,-0.001993443,-0.001884298,0.017644710,0.999839910,0.000000000,0.000000000,0.000000000,0.000000000,0.000000000,0.000000000,2.021851877,0.000000000,4.228152752
1772714777.654869080,0.014993000,0.007775000,0.075352000,-0.002985310,0.007007090,0.022251930,0.999723380,-0.005658000,0.014144000,0.044469000,-0.000165715,0.000143027,-0.000382421,0.007618958,-0.026465438,-0.005832967,0.009432735,-0.004888413,1.000825230,0.001794905,0.001795863,-0.000982397,0.000000000,0.000000000,0.000000000,0.000000000,0.015480880,0.007825986,0.075295700,0.024881678,0.000978910,-0.001435397,0.005397406,-0.000288781,0.001015235,-0.232658089,0.211608193,2.020456966,-0.001997445,-0.001882136,0.017627067,0.999840349,0.000000000,0.000000000,0.000000000,0.000000000,0.000000000,0.000000000,2.019899178,0.000000000,4.228152752
1772714777.664869547,0.015011000,0.007796000,0.075315000,-0.002884010,0.007998470,0.022437330,0.999712100,-0.005408000,0.016122000,0.044836000,0.000598971,0.000515929,-0.000813229,0.009689672,0.030593115,0.008848991,0.009628065,-0.004199301,1.000353510,0.001617447,-0.002605459,0.001785730,0.000000000,0.000000000,0.000000000,0.000000000,0.015254852,0.007797375,0.075330397,0.023971410,0.000809186,-0.001127771,0.006157295,-0.000499330,0.000337560,-0.232517778,0.211117861,2.017738607,-0.001996341,-0.001877789,0.017603360,0.999840693,0.000000000,0.000000000,0.000000000,0.000000000,0.000000000,0.000000000,2.016842161,0.000000000,4.228152752
1772714777.674869299,0.015010000,0.007812000,0.075308000,-0.002805370,0.008363490,0.022644610,0.999704660,-0.005231000,0.016850000,0.045251000,0.000622203,0.000444717,-0.000616570,0.007814162,0.049392969,0.017000350,0.010519040,-0.005240131,0.999950321,-0.003539193,-0.000866135,0.003375014,0.000000000,0.000000000,0.000000000,0.000000000,0.015235987,0.007798379,0.075321816,0.023781197,0.000782829,-0.001083757,0.006805094,-0.000557185,0.000369706,-0.231750031,0.211654057,2.015294013,-0.001989600,-0.001882307,0.017582034,0.999840916,0.000000000,0.000000000,0.000000000,0.000000000,0.000000000,0.000000000,2.014816131,0.000000000,4.228152752
1772714777.684869289,0.015018000,0.007804000,0.075315000,-0.002839090,0.008786840,0.022712690,0.999699390,-0.005278000,0.017698000,0.045385000,0.000259557,0.000255517,-0.000235082,0.004261623,0.039649735,0.016375740,0.012156099,-0.004616217,1.000842860,-0.001067291,-0.000413666,-0.005012821,0.000000000,0.000000000,0.000000000,0.000000000,0.015238609,0.007806956,0.075310822,0.023727126,0.000742656,-0.001060362,0.007805164,0.000034211,0.000238133,-0.231441587,0.212769690,2.013705125,-0.001986763,-0.001891966,0.017568155,0.999841175,0.000000000,0.000000000,0.000000000,0.000000000,0.000000000,0.000000000,2.013380239,0.000000000,4.228152752
1772714777.694869518,0.015020000,0.007805000,0.075325000,-0.002791290,0.008698930,0.022714920,0.999700240,-0.005187000,0.017520000,0.045390000,-0.000220940,-0.000125272,0.000312724,0.000673209,-0.005975681,0.005091578,0.011513424,-0.003128059,0.999587291,0.000922962,-0.000525176,0.001905079,0.000000000,0.000000000,0.000000000,0.000000000,0.015242604,0.007810181,0.075307337,0.023797914,0.000730435,-0.001000121,0.008127365,0.000967567,-0.000250065,-0.232200628,0.212913171,2.011761540,-0.001993396,-0.001893301,0.017551183,0.999841580,0.000000000,0.000000000,0.000000000,0.000000000,0.000000000,0.000000000,2.010920885,0.000000000,4.228152752
1772714777.704869509,0.015025000,0.007808000,0.075315000,-0.002838980,0.008661760,0.022771150,0.999699150,-0.005283000,0.017448000,0.045502000,0.000014083,-0.000153982,0.000105206,-0.003215638,-0.022778378,0.000256857,0.011713176,-0.003466163,1.000180807,0.002431064,-0.002234547,-0.002286917,0.000000000,0.000000000,0.000000000,0.000000000,0.015246412,0.007811198,0.075309276,0.023856790,0.000791868,-0.000953224,0.007324091,0.001306132,-0.000077700,-0.232283159,0.213244118,2.009037054,-0.001994111,-0.001896154,0.017527403,0.999841629,0.000000000,0.000000000,0.000000000,0.000000000,0.000000000,0.000000000,2.008909513,0.000000000,4.228152752
1772714777.714869499,0.014990000,0.007779000,0.075339000,-0.002872650,0.007559010,0.022549050,0.999713030,-0.005403000,0.015244000,0.045062000,0.000248874,-0.000050291,-0.000209324,-0.001622232,-0.005957944,0.002025965,0.011184806,-0.003898476,0.999573265,0.001090285,-0.002235561,-0.000985441,0.000000000,0.000000000,0.000000000,0.000000000,0.015249874,0.007812670,0.075310639,0.023892757,0.000874229,-0.000911198,0.007763524,0.000612948,0.000213688,-0.232018140,0.213673241,2.008570727,-0.001991740,-0.001899849,0.017523329,0.999842067,0.000000000,0.000000000,0.000000000,0.000000000,0.000000000,0.000000000,2.007847744,0.000000000,4.228152752
1772714777.724869490,0.015009000,0.007807000,0.075311000,-0.002823480,0.008244280,0.022636840,0.999705770,-0.005273000,0.016612000,0.045235000,-0.000176379,-0.000269853,0.000204196,-0.001510659,-0.015524270,-0.005512690,0.009802905,-0.004641460,0.999428966,-0.000290459,0.000779544,0.000491015,0.000000000,0.000000000,0.000000000,0.000000000,0.015249809,0.007811572,0.075310932,0.023901844,0.000898126,-0.000862121,0.006238919,-0.000385671,-0.000627261,-0.231136197,0.214334062,2.006298800,-0.001983982,-0.001905441,0.017503511,0.999842312,0.000000000,0.000000000,0.000000000,0.000000000,0.000000000,0.000000000,2.005451324,0.000000000,4.228152752
1772714777.734869480,0.015030000,0.007806000,0.075313000,-0.002823650,0.008423570,0.022756950,0.999701550,-0.005263000,0.016971000,0.045475000,-0.000275777,-0.000474107,0.000497300,-0.003522872,-0.021015641,-0.014559506,0.009015109,-0.005418182,0.999959673,-0.000203132,0.004113370,-0.000366170,0.000000000,0.000000000,0.000000000,0.000000000,0.015237558,0.007801127,0.075319716,0.023768877,0.000836740,-0.000850265,0.005720516,-0.001338575,-0.000091027,-0.230505245,0.214988343,2.004514141,-0.001978406,-0.001911023,0.017487939,0.999842598,0.000000000,0.000000000,0.000000000,0.000000000,0.000000000,0.000000000,2.004048862,0.000000000,4.228152752
1772714777.744869232,0.015029000,0.007804000,0.075311000,-0.002907990,0.008844860,0.022776840,0.999697220,-0.005412000,0.017818000,0.045511000,-0.000342289,-0.000296640,0.000549651,-0.007763719,-0.025436088,-0.019961429,0.010576937,-0.005006643,0.999011194,-0.000072095,0.003614408,0.001409567,0.000000000,0.000000000,0.000000000,0.000000000,0.015237686,0.007805549,0.075314295,0.023621266,0.000758006,-0.000852233,0.006485651,-0.000999839,-0.000784169,-0.230160231,0.214761101,2.002751973,-0.001975460,-0.001908957,0.017472572,0.999842892,0.000000000,0.000000000,0.000000000,0.000000000,0.000000000,0.000000000,2.002245669,0.000000000,4.228152752
1772714777.754869223,0.014999000,0.007778000,0.075346000,-0.002864210,0.007868710,0.022463100,0.999712600,-0.005374000,0.015862000,0.044889000,-0.000407226,0.000001185,0.000043434,-0.011229108,-0.011918527,-0.019363675,0.010761177,-0.003851775,0.998325382,-0.000574209,0.005077478,-0.001832671,0.000000000,0.000000000,0.000000000,0.000000000,0.015243216,0.007809092,0.075309814,0.023556989,0.000687291,-0.000898592,0.007139769,-0.000112107,-0.001446520,-0.229892211,0.213828906,2.000950792,-0.001973294,-0.001900751,0.017456875,0.999843063,0.000000000,0.000000000,0.000000000,0.000000000,0.000000000,0.000000000,2.000668719,0.000000000,4.228152752
1772714777.764868736,0.014978000,0.007772000,0.075357000,-0.002976510,0.007256550,0.022134840,0.999724230,-0.005631000,0.014641000,0.044233000,-0.000337102,-0.000004992,-0.000056002,-0.011327333,-0.003554771,-0.015573612,0.009778819,-0.004590615,0.999493458,0.001035302,0.002188870,-0.002123424,0.000000000,0.000000000,0.000000000,0.000000000,0.015318655,0.007812331,0.075305105,0.023757322,0.000663882,-0.000977912,0.006420343,0.000569448,-0.000251547,-0.229455757,0.213099941,2.000025752,-0.001969612,-0.001894308,0.017448827,0.999843383,0.000000000,0.000000000,0.000000000,0.000000000,0.000000000,0.000000000,1.999384425,0.000000000,4.228152752
1772714777.774868727,0.015010000,0.007799000,0.075319000,-0.003033390,0.007887440,0.022314450,0.999715290,-0.005714000,0.015906000,0.044589000,0.000160898,0.000458198,-0.000618532,-0.005499490,0.037188045,-0.000074191,0.009789796,-0.004672071,0.999792462,0.002254932,-0.000514145,-0.001741622,0.000000000,0.000000000,0.000000000,0.000000000,0.015478853,0.007816842,0.075298396,0.024204981,0.000691743,-0.001050534,0.006035486,-0.000303563,-0.000413547,-0.229103361,0.211184718,1.998226681,-0.001966858,-0.001877513,0.017433169,0.999843613,0.000000000,0.000000000,0.000000000,0.000000000,0.000000000,0.000000000,1.997696405,0.000000000,4.228152752
1772714777.784869671,0.015007000,0.007811000,0.075310000,-0.003117810,0.008424530,0.022427090,0.999708120,-0.005857000,0.016985000,0.044810000,0.000700952,0.000697087,-0.000794678,0.003302481,0.065333050,0.018417468,0.011038444,-0.003016118,0.998447945,0.001422439,-0.000005552,-0.001017762,0.000000000,0.000000000,0.000000000,0.000000000,0.015274622,0.007799923,0.075317844,0.023434279,0.000570399,-0.000912009,0.007316786,0.000958221,-0.001439783,-0.228540122,0.210620694,1.996528275,-0.001962058,-0.001872477,0.017418368,0.999843879,0.000000000,0.000000000,0.000000000,0.000000000,0.000000000,0.000000000,1.996130657,0.000000000,4.228152752
1772714777.794869184,0.015014000,0.007808000,0.075300000,-0.003014830,0.009047230,0.022530080,0.999700680,-0.005621000,0.018226000,0.045015000,0.000985413,0.000722961,-0.000878517,0.007656892,0.091991217,0.032216807,0.008876144,-0.001857752,0.999277702,-0.001558574,0.004741616,0.002130516,0.000000000,0.000000000,0.000000000,0.000000000,0.015225919,0.007789631,0.075331986,0.023267303,0.000625023,-0.000935383,0.006414979,0.001750984,-0.001217876,-0.227811131,0.211011834,1.994834727,-0.001955665,-0.001875750,0.017403596,0.999844179,0.000000000,0.000000000,0.000000000,0.000000000,0.000000000,0.000000000,1.994236677,0.000000000,4.228152752
1772714777.804869413,0.015031000,0.007800000,0.075323000,-0.002966250,0.009022530,0.022655650,0.999698210,-0.005523000,0.018175000,0.045267000,0.000363773,0.000002758,-0.000015093,0.009450961,0.048923504,0.024173036,0.009389817,-0.003431783,0.999440636,0.001319935,0.003915390,-0.002247871,0.000000000,0.000000000,0.000000000,0.000000000,0.015225951,0.007793303,0.075327281,0.023140756,0.000777985,-0.000993953,0.005108751,0.001073381,-0.000476181,-0.227418429,0.210532924,1.993127443,-0.001952339,-0.001871483,0.017388716,0.999844366,0.000000000,0.000000000,0.000000000,0.000000000,0.000000000,0.000000000,1.992781144,0.000000000,4.228152752
1772714777.814868689,0.015015000,0.007809000,0.075309000,-0.002895750,0.009071780,0.022759960,0.999695600,-0.005378000,0.018271000,0.045477000,-0.000264103,-0.000303264,0.000559091,0.008688982,-0.003476296,0.010707733,0.010751339,-0.002465000,0.998107778,0.001574647,0.001403215,-0.001089357,0.000000000,0.000000000,0.000000000,0.000000000,0.015326691,0.007801004,0.075317544,0.023303230,0.000890792,-0.001051277,0.006610741,0.000807938,-0.001101685,-0.227816822,0.208663095,1.992130637,-0.001956115,-0.001855211,0.017380046,0.999844737,0.000000000,0.000000000,0.000000000,0.000000000,0.000000000,0.000000000,1.991147432,0.000000000,4.228152752
1772714777.824869633,0.015024000,0.007813000,0.075311000,-0.002846440,0.009143720,0.022837880,0.999693310,-0.005274000,0.018413000,0.045633000,-0.000215832,-0.000309868,0.000371290,0.005679625,-0.031473280,0.005511103,0.011875373,-0.001689773,0.999017234,0.000754699,0.000811168,-0.002220424,0.000000000,0.000000000,0.000000000,0.000000000,0.015389899,0.007808534,0.075307664,0.023449766,0.001003524,-0.001156318,0.008678278,0.002454575,-0.002463046,-0.227824542,0.207661066,1.989420607,-0.001956378,-0.001846423,0.017356417,0.999844835,0.000000000,0.000000000,0.000000000,0.000000000,0.000000000,0.000000000,1.988980137,0.000000000,4.228152752
1772714777.834869862,0.015026000,0.007806000,0.075308000,-0.002954610,0.009339960,0.022869270,0.999690470,-0.005481000,0.018810000,0.045693000,-0.000094037,-0.000157129,0.000356896,-0.000488460,-0.040313803,0.003157204,0.011628023,-0.001707029,1.000124982,0.000886833,0.001014972,-0.003331606,0.000000000,0.000000000,0.000000000,0.000000000,0.015238816,0.007813341,0.075302187,0.023125103,0.001266628,-0.001216696,0.008435095,0.001834408,0.000794482,-0.226816668,0.208095948,1.987563203,-0.001947549,-0.001850034,0.017340219,0.999845310,0.000000000,0.000000000,0.000000000,0.000000000,0.000000000,0.000000000,1.988203262,0.000000000,4.228152752
1772714777.844869614,0.015000000,0.007786000,0.075339000,-0.002889540,0.008295380,0.022660350,0.999704630,-0.005402000,0.016718000,0.045281000,0.000061888,-0.000048388,0.000192152,-0.000491835,-0.034205159,0.002479591,0.010280038,-0.001946182,0.999657401,0.002240163,0.000441551,-0.001866302,0.000000000,0.000000000,0.000000000,0.000000000,0.015244124,0.007817153,0.075303415,0.023316044,0.001512487,-0.000818674,0.007934993,0.001861498,0.001056327,-0.225666047,0.208731782,1.985832546,-0.001937441,-0.001855378,0.017325126,0.999845533,0.000000000,0.000000000,0.000000000,0.000000000,0.000000000,0.000000000,1.985702755,0.000000000,4.228152752
1772714777.854869604,0.015016000,0.007808000,0.075322000,-0.002801040,0.008471720,0.022823850,0.999699680,-0.005214000,0.017067000,0.045609000,0.000362160,0.000081527,0.000153671,0.000324086,-0.019939499,0.004008560,0.009855284,-0.002528099,0.999964436,0.001614002,0.000355093,-0.000154810,0.000000000,0.000000000,0.000000000,0.000000000,0.015248093,0.007823555,0.075303674,0.023471305,0.001703958,-0.000686819,0.006647595,0.002239093,0.000562635,-0.224989978,0.208500797,1.983733047,-0.001931611,-0.001853225,0.017306821,0.999846031,0.000000000,0.000000000,0.000000000,0.000000000,0.000000000,0.000000000,1.983202188,0.000000000,4.228152752
1772714777.864869595,0.015030000,0.007798000,0.075317000,-0.002885240,0.008489060,0.022883690,0.999697930,-0.005381000,0.017106000,0.045727000,0.000157984,0.000325272,-0.000113423,0.004049238,0.002201718,0.005424225,0.011453457,-0.004089507,1.001828416,-0.003190664,0.001845190,0.001855724,0.000000000,0.000000000,0.000000000,0.000000000,0.015481216,0.007841518,0.075297001,0.024058937,0.001908987,-0.000683860,0.007109612,0.000323461,0.002328277,-0.223890063,0.208260676,1.981064173,-0.001922093,-0.001850919,0.017283557,0.999846333,0.000000000,0.000000000,0.000000000,0.000000000,0.000000000,0.000000000,1.980296666,0.000000000,4.228152752
1772714777.874868631,0.015032000,0.007813000,0.075327000,-0.002908970,0.008662640,0.022922700,0.999695480,-0.005420000,0.017454000,0.045804000,-0.000162044,0.000372436,-0.000328594,0.005330717,0.024800040,0.001407364,0.010892428,-0.005239156,1.000833102,-0.001663803,0.003737855,0.001751999,0.000000000,0.000000000,0.000000000,0.000000000,0.015291429,0.007819393,0.075314155,0.023508836,0.001815548,-0.000400430,0.007261650,-0.000852406,0.001178260,-0.223643862,0.207841409,1.979500244,-0.001920033,-0.001847197,0.017269922,0.999846422,0.000000000,0.000000000,0.000000000,0.000000000,0.000000000,0.000000000,1.979259139,0.000000000,4.228152752
1772714777.884868622,0.015017000,0.007811000,0.075314000,-0.002793880,0.008716510,0.022866840,0.999696620,-0.005188000,0.017556000,0.045694000,-0.000501341,0.000264219,-0.000431896,0.002476521,0.036029930,-0.006297448,0.013087808,-0.003772464,0.999389238,0.000271067,0.003121032,-0.000764532,0.000000000,0.000000000,0.000000000,0.000000000,0.015240644,0.007817473,0.075319029,0.023359237,0.001696762,-0.000254693,0.007996282,-0.000161649,-0.000358925,-0.224143577,0.207140082,1.978851015,-0.001924510,-0.001841142,0.017264261,0.999846590,0.000000000,0.000000000,0.000000000,0.000000000,0.000000000,0.000000000,1.978595997,0.000000000,4.228152752
1772714777.894867897,0.015020000,0.007811000,0.075314000,-0.002808960,0.009001740,0.022836080,0.999694750,-0.005206000,0.018127000,0.045631000,-0.000492988,-0.000262063,-0.000126360,0.000129458,0.018080133,-0.015011892,0.011594793,-0.003396854,0.998945816,0.000827109,0.000052069,0.002039026,0.000000000,0.000000000,0.000000000,0.000000000,0.015245994,0.007817912,0.075317948,0.023470347,0.001650306,-0.000257047,0.008096420,0.000528410,-0.001216376,-0.224036780,0.206271213,1.977708692,-0.001923727,-0.001833526,0.017254311,0.999846990,0.000000000,0.000000000,0.000000000,0.000000000,0.000000000,0.000000000,1.977034770,0.000000000,4.228152752
1772714777.904867887,0.015001000,0.007808000,0.075317000,-0.002776980,0.008960450,0.022743140,0.999697330,-0.005146000,0.018043000,0.045446000,-0.000012471,-0.000376477,-0.000059868,-0.000746440,0.011221951,-0.015296435,0.009921069,-0.003376495,0.999292447,-0.002316459,0.001529863,0.000286665,0.000000000,0.000000000,0.000000000,0.000000000,0.015251936,0.007819009,0.075318164,0.023563078,0.001656934,-0.000320834,0.006290754,0.000129516,-0.001686151,-0.223004634,0.204538862,1.975436077,-0.001915018,-0.001818217,0.017234530,0.999847252,0.000000000,0.000000000,0.000000000,0.000000000,0.000000000,0.000000000,1.975009790,0.000000000,4.228152752
1772714777.914868116,0.014999000,0.007804000,0.075308000,-0.002862440,0.008988720,0.022590230,0.999700300,-0.005318000,0.018102000,0.045138000,0.000423077,-0.000488132,-0.000034965,-0.005443302,-0.000657651,-0.012573447,0.008149778,-0.003528664,0.999282695,-0.003262308,-0.000270197,0.001948120,0.000000000,0.000000000,0.000000000,0.000000000,0.015254515,0.007823572,0.075319241,0.023517825,0.001678679,-0.000399046,0.004988231,0.000286848,-0.000485533,-0.222176532,0.203604623,1.974125824,-0.001907954,-0.001809919,0.017223125,0.999847505,0.000000000,0.000000000,0.000000000,0.000000000,0.000000000,0.000000000,1.973796151,0.000000000,4.228152752
1772714777.924867868,0.015021000,0.007804000,0.075312000,-0.002889150,0.008953950,0.022604550,0.999700210,-0.005373000,0.018034000,0.045167000,0.000586403,0.000042463,-0.000097242,-0.007069046,0.003018460,-0.002783472,0.008186444,-0.003378189,0.998867841,-0.002019485,-0.001229608,0.004556897,0.000000000,0.000000000,0.000000000,0.000000000,0.015250193,0.007825646,0.075314711,0.023304657,0.001679642,-0.000456745,0.004320643,0.000631023,-0.000838661,-0.222234760,0.202647716,1.972047694,-0.001908639,-0.001801544,0.017205007,0.999847591,0.000000000,0.000000000,0.000000000,0.000000000,0.000000000,0.000000000,1.971552013,0.000000000,4.228152752
1772714777.934867144,0.015042000,0.007786000,0.075318000,-0.002919940,0.008933340,0.022629830,0.999699730,-0.005435000,0.017994000,0.045217000,0.000033528,0.000061927,0.000175350,-0.003932008,-0.022502989,-0.000422910,0.010408101,-0.003157592,0.998682399,-0.000904726,0.002012065,0.001636101,0.000000000,0.000000000,0.000000000,0.000000000,0.015248213,0.007826482,0.075312367,0.023042514,0.001680946,-0.000530898,0.006739534,0.000549921,-0.000997984,-0.222277399,0.203046283,1.971587410,-0.001908958,-0.001805021,0.017200984,0.999847759,0.000000000,0.000000000,0.000000000,0.000000000,0.000000000,0.000000000,1.971601368,0.000000000,4.228152752
1772714777.944867134,0.015023000,0.007802000,0.075319000,-0.002882390,0.008812150,0.022587790,0.999701870,-0.005366000,0.017750000,0.045134000,-0.000253944,-0.000042521,0.000420319,0.000364617,-0.039486116,0.000527562,0.010950894,-0.003925132,0.998501830,0.002053279,-0.002290007,0.000404581,0.000000000,0.000000000,0.000000000,0.000000000,0.015236445,0.007825613,0.075311915,0.022969775,0.001708620,-0.000613806,0.008127226,0.000210245,-0.000805131,-0.222635187,0.201805808,1.970335208,-0.001912286,-0.001794230,0.017190074,0.999848146,0.000000000,0.000000000,0.000000000,0.000000000,0.000000000,0.000000000,1.969964678,0.000000000,4.228152752
1772714777.954867601,0.015015000,0.007810000,0.075309000,-0.002932520,0.008696200,0.022646300,0.999701420,-0.005470000,0.017521000,0.045250000,-0.000493532,0.000010062,0.000502448,0.002531523,-0.054547975,-0.003992801,0.011927300,-0.004952186,0.999003779,0.000001577,0.000135037,-0.000882615,0.000000000,0.000000000,0.000000000,0.000000000,0.015230467,0.007823248,0.075307201,0.022981633,0.001698833,-0.000718359,0.008955895,-0.000208246,-0.000492408,-0.222413004,0.200988781,1.967887862,-0.001910508,-0.001787027,0.017168737,0.999848487,0.000000000,0.000000000,0.000000000,0.000000000,0.000000000,0.000000000,1.967496281,0.000000000,4.228152752
1772714777.964867592,0.015008000,0.007817000,0.075316000,-0.002886710,0.008640500,0.022709530,0.999700600,-0.005380000,0.017408000,0.045378000,-0.000319639,0.000023854,0.000395552,0.000629953,-0.051002740,-0.006876576,0.012027276,-0.005102763,0.999551803,-0.000812557,0.001236132,-0.001099833,0.000000000,0.000000000,0.000000000,0.000000000,0.015237233,0.007821891,0.075306002,0.023169164,0.001671825,-0.000718118,0.008644354,-0.000502811,-0.000028852,-0.221811106,0.200964001,1.965279879,-0.001905300,-0.001786677,0.017145991,0.999848865,0.000000000,0.000000000,0.000000000,0.000000000,0.000000000,0.000000000,1.965471525,0.000000000,4.228152752
1772714777.974867105,0.014993000,0.007782000,0.075350000,-0.002838190,0.007498520,0.022444640,0.999715940,-0.005339000,0.015121000,0.044854000,0.000132673,0.000117386,0.000210062,-0.000750017,-0.035559880,-0.004255099,0.010013251,-0.003539741,0.998987485,0.001321546,-0.000187290,0.001572984,0.000000000,0.000000000,0.000000000,0.000000000,0.015299298,0.007814594,0.075307154,0.023531401,0.001495481,-0.000699058,0.006249640,-0.000123346,-0.001084838,-0.221209237,0.200939223,1.962672020,-0.001900093,-0.001786328,0.017123247,0.999849269,0.000000000,0.000000000,0.000000000,0.000000000,0.000000000,0.000000000,1.961986148,0.000000000,4.228152752
1772714777.984867096,0.015026000,0.007796000,0.075326000,-0.002834050,0.007983530,0.022528740,0.999710300,-0.005307000,0.016091000,0.045020000,0.000589764,0.000051865,-0.000135218,-0.004028896,0.002413366,0.000758458,0.009783241,-0.003977656,0.998808240,0.000233921,0.000140663,0.003111987,0.000000000,0.000000000,0.000000000,0.000000000,0.015490201,0.007827616,0.075301716,0.024015619,0.001530187,-0.000785131,0.006538262,0.001581799,-0.001527213,-0.221115123,0.200537200,1.960747485,-0.001899362,-0.001782774,0.017106463,0.999849602,0.000000000,0.000000000,0.000000000,0.000000000,0.000000000,0.000000000,1.959806794,0.000000000,4.228152752
1772714777.994867086,0.015029000,0.007813000,0.075323000,-0.002938410,0.008028280,0.022505350,0.999710170,-0.005515000,0.016185000,0.044972000,0.000508878,0.000262063,-0.000521834,-0.003201347,0.039667396,0.007153148,0.010381315,-0.004671979,1.000030404,-0.001180266,-0.000241273,0.002795060,0.000000000,0.000000000,0.000000000,0.000000000,0.015405085,0.007828520,0.075303954,0.023671562,0.001544438,-0.000861699,0.007053185,-0.001127981,0.000099316,-0.221210536,0.199994372,1.959078044,-0.001900302,-0.001778024,0.017091906,0.999849822,0.000000000,0.000000000,0.000000000,0.000000000,0.000000000,0.000000000,1.958126507,0.000000000,4.228152752
1772714778.004867077,0.015027000,0.007809000,0.075321000,-0.002941070,0.008398180,0.022665820,0.999703500,-0.005501000,0.016926000,0.045291000,0.000316958,0.000329507,-0.000759072,0.000729810,0.070039763,0.014179077,0.010493931,-0.004848395,0.999780352,-0.000477492,-0.000632530,0.001685603,0.000000000,0.000000000,0.000000000,0.000000000,0.015236329,0.007821057,0.075312694,0.023092186,0.001425880,-0.000775939,0.005843322,-0.000672709,-0.000462294,-0.221305949,0.199451545,1.957408602,-0.001901241,-0.001773274,0.017077348,0.999850030,0.000000000,0.000000000,0.000000000,0.000000000,0.000000000,0.000000000,1.956796105,0.000000000,4.228152752
1772714778.014867544,0.015020000,0.007815000,0.075310000,-0.002920270,0.008643270,0.022709250,0.999700480,-0.005447000,0.017415000,0.045377000,-0.000178866,0.000365909,-0.000348602,0.005723935,0.067994225,0.017373939,0.010606553,-0.005024819,0.999530287,0.000225316,-0.001023806,0.000576093,0.000000000,0.000000000,0.000000000,0.000000000,0.015231714,0.007810372,0.075324244,0.022974042,0.001287460,-0.000684334,0.006943078,-0.000213813,0.000278491,-0.221076002,0.199666558,1.955293470,-0.001899236,-0.001775081,0.017058892,0.999850437,0.000000000,0.000000000,0.000000000,0.000000000,0.000000000,0.000000000,1.954759753,0.000000000,4.228152752
1772714778.024868011,0.015025000,0.007809000,0.075305000,-0.002952850,0.009220110,0.022761820,0.999694040,-0.005485000,0.018570000,0.045479000,-0.000597339,0.000013092,0.000126107,0.006321690,0.033647492,0.010286555,0.010903507,-0.004727371,0.999131447,0.000470087,-0.000957212,0.000062151,0.000000000,0.000000000,0.000000000,0.000000000,0.015240797,0.007811449,0.075321714,0.022984698,0.001202853,-0.000646340,0.006066088,-0.001258647,0.000370149,-0.220782736,0.200029057,1.953091620,-0.001896657,-0.001778164,0.017039679,0.999850712,0.000000000,0.000000000,0.000000000,0.000000000,0.000000000,0.000000000,1.952542276,0.000000000,4.228152752
1772714778.034868240,0.015019000,0.007810000,0.075311000,-0.002807570,0.009156280,0.022831390,0.999693460,-0.005196000,0.018436000,0.045621000,-0.000339938,0.000017249,0.000048737,0.003554963,0.018115007,0.007130686,0.011368623,-0.003997613,0.998596889,0.000296982,-0.000472902,0.000091562,0.000000000,0.000000000,0.000000000,0.000000000,0.015331131,0.007820612,0.075317325,0.023152954,0.001008636,-0.000623590,0.006396768,-0.003233491,-0.000196735,-0.219785271,0.200256221,1.950992591,-0.001887953,-0.001779963,0.017021375,0.999851058,0.000000000,0.000000000,0.000000000,0.000000000,0.000000000,0.000000000,1.950477902,0.000000000,4.228152752
1772714778.044867992,0.015016000,0.007811000,0.075319000,-0.002774180,0.009221270,0.022835080,0.999692870,-0.005126000,0.018565000,0.045629000,-0.000282246,0.000130128,0.000043007,-0.003457481,-0.007427728,0.002841642,0.011833716,-0.003267889,0.998062356,0.000123885,0.000011384,0.000120972,0.000000000,0.000000000,0.000000000,0.000000000,0.015479409,0.007825861,0.075311817,0.023551126,0.000719844,-0.000614812,0.008194703,0.000223513,-0.000826399,-0.218938251,0.200077166,1.948442692,-0.001880628,-0.001778233,0.016999142,0.999851557,0.000000000,0.000000000,0.000000000,0.000000000,0.000000000,0.000000000,1.947303085,0.000000000,4.228152752
1772714778.054867983,0.015004000,0.007821000,0.075325000,-0.002885840,0.008872620,0.022849160,0.999695390,-0.005365000,0.017873000,0.045656000,-0.000079410,-0.000018959,-0.000025524,-0.007133069,-0.014165440,0.002197803,0.012194619,-0.004258233,0.999853333,0.001902107,-0.004379073,-0.000345802,0.000000000,0.000000000,0.000000000,0.000000000,0.015498375,0.007827976,0.075304111,0.023761495,0.000763656,-0.000753336,0.007946845,0.000232269,-0.000465580,-0.218171701,0.199827389,1.945796008,-0.001874018,-0.001775897,0.016976064,0.999851901,0.000000000,0.000000000,0.000000000,0.000000000,0.000000000,0.000000000,1.944898910,0.000000000,4.228152752
1772714778.064868450,0.015013000,0.007814000,0.075303000,-0.002990850,0.009036630,0.022821610,0.999694240,-0.005568000,0.018205000,0.045599000,0.000346076,0.000039472,-0.000432129,-0.008644405,0.000504879,0.005824695,0.010571508,-0.004506791,1.000023574,-0.000990580,0.001474662,-0.002131737,0.000000000,0.000000000,0.000000000,0.000000000,0.015494988,0.007826759,0.075298270,0.023816856,0.000751468,-0.000775952,0.006866013,-0.000139938,0.000660572,-0.217321182,0.200056352,1.943709767,-0.001866595,-0.001777734,0.016957871,0.999852175,0.000000000,0.000000000,0.000000000,0.000000000,0.000000000,0.000000000,1.943363348,0.000000000,4.228152752
1772714778.074868679,0.015019000,0.007810000,0.075307000,-0.002992270,0.009013040,0.022876830,0.999693180,-0.005571000,0.018158000,0.045709000,0.000230536,-0.000359519,-0.000095688,-0.011700596,0.000878509,0.000336223,0.010432061,-0.003350956,1.000771449,-0.000623330,0.001684164,-0.001858722,0.000000000,0.000000000,0.000000000,0.000000000,0.015340390,0.007821293,0.075303937,0.023334286,0.000717907,-0.000676690,0.006640079,0.000406780,0.000795039,-0.216457172,0.200624744,1.941826806,-0.001859002,-0.001782535,0.016941447,0.999852629,0.000000000,0.000000000,0.000000000,0.000000000,0.000000000,0.000000000,1.941192931,0.000000000,4.228152752
1772714778.084868670,0.015014000,0.007811000,0.075309000,-0.003016130,0.008903990,0.022871440,0.999694210,-0.005624000,0.017941000,0.045698000,0.000087976,-0.000523835,0.000304934,-0.006265731,-0.005416782,-0.006761297,0.010591187,-0.001912524,1.001635551,0.000399938,0.000757822,-0.001171371,0.000000000,0.000000000,0.000000000,0.000000000,0.015357897,0.007821808,0.075305900,0.023335651,0.000725812,-0.000570710,0.006744017,0.001202744,0.000836058,-0.215633903,0.200147949,1.938338875,-0.001851943,-0.001778197,0.016911032,0.999853134,0.000000000,0.000000000,0.000000000,0.000000000,0.000000000,0.000000000,1.938081874,0.000000000,4.228152752
1772714778.094867945,0.015028000,0.007803000,0.075309000,-0.003000830,0.009235390,0.022873580,0.999691200,-0.005578000,0.018603000,0.045701000,-0.000215463,-0.000493415,0.000601263,-0.003796003,-0.007854807,-0.014979449,0.011672689,-0.002301553,1.000173507,-0.003865130,0.003977868,0.000329144,0.000000000,0.000000000,0.000000000,0.000000000,0.015470782,0.007830746,0.075309213,0.023639483,0.000926313,-0.000337370,0.008492559,0.001876852,0.000938287,-0.214455312,0.199557620,1.935301166,-0.001841793,-0.001772824,0.016884555,0.999853451,0.000000000,0.000000000,0.000000000,0.000000000,0.000000000,0.000000000,1.934971039,0.000000000,4.228152752
1772714778.104867935,0.015026000,0.007807000,0.075309000,-0.003073310,0.009223990,0.022886700,0.999690790,-0.005724000,0.018584000,0.045726000,-0.000415171,-0.000162063,0.000536869,-0.004679101,-0.014658396,-0.016190706,0.011694250,-0.003884717,0.999067591,-0.004899984,0.004512894,0.000752535,0.000000000,0.000000000,0.000000000,0.000000000,0.015397800,0.007829739,0.075304617,0.023707638,0.001117070,-0.000277687,0.008000319,0.000478809,-0.001936457,-0.213536366,0.199044309,1.932955479,-0.001833887,-0.001768172,0.016864112,0.999853840,0.000000000,0.000000000,0.000000000,0.000000000,0.000000000,0.000000000,1.932292544,0.000000000,4.228152752
1772714778.114867687,0.014989000,0.007783000,0.075350000,-0.003153780,0.008366060,0.022488530,0.999707120,-0.005930000,0.016870000,0.044933000,-0.000167658,0.000062821,0.000170824,-0.005785702,-0.005794557,-0.011591244,0.010802028,-0.005748049,1.000928040,-0.001198909,0.000709937,0.000962126,0.000000000,0.000000000,0.000000000,0.000000000,0.015244181,0.007819913,0.075305848,0.023374615,0.001065622,-0.000352082,0.007089270,-0.001891322,0.000978815,-0.215838681,0.195828007,1.930451701,-0.001854487,-0.001740406,0.016842284,0.999854300,0.000000000,0.000000000,0.000000000,0.000000000,0.000000000,0.000000000,1.929690983,0.000000000,4.228152752
1772714778.124867439,0.015015000,0.007804000,0.075321000,-0.003035270,0.008875420,0.022569810,0.999701260,-0.005669000,0.017884000,0.045095000,0.000017813,0.000377079,-0.000036033,-0.002886715,-0.003785468,0.000124633,0.009707695,-0.004382451,1.000943171,-0.001184344,-0.000666557,0.001824594,0.000000000,0.000000000,0.000000000,0.000000000,0.015380098,0.007822528,0.075304267,0.023783172,0.000869945,-0.000258201,0.006657264,-0.001250348,0.001302895,-0.216405241,0.194986891,1.927660387,-0.001859597,-0.001733105,0.016817935,0.999854566,0.000000000,0.000000000,0.000000000,0.000000000,0.000000000,0.000000000,1.927271610,0.000000000,4.228152752
1772714778.134866714,0.015007000,0.007807000,0.075317000,-0.003153320,0.008931240,0.022611600,0.999699460,-0.005902000,0.018001000,0.045176000,0.000169930,0.000517638,-0.000198563,0.000363707,-0.008751500,0.011691499,0.010442816,-0.002820010,1.000779726,0.002334242,0.007376564,0.000072712,0.000000000,0.000000000,0.000000000,0.000000000,0.015487735,0.007824972,0.075304217,0.024039166,0.000787704,-0.000121417,0.006529147,0.000846156,0.000809944,-0.217039914,0.194101255,1.925990690,-0.001865289,-0.001725444,0.016803369,0.999854781,0.000000000,0.000000000,0.000000000,0.000000000,0.000000000,0.000000000,1.925590801,0.000000000,4.227930215
1772714778.144866467,0.015021000,0.007815000,0.075312000,-0.003120250,0.008908850,0.022799580,0.999695490,-0.005833000,0.017956000,0.045553000,0.000432032,0.000358761,-0.000525758,0.006192049,0.004625184,0.016216013,0.010190387,-0.003618304,1.000327749,-0.000764881,0.000975049,-0.000643174,0.000000000,0.000000000,0.000000000,0.000000000,0.015469182,0.007811752,0.075328469,0.023913362,0.000873161,0.000106210,0.007555412,0.000719028,0.000101539,-0.217261547,0.191606538,1.923709363,-0.001867623,-0.001703672,0.016783503,0.999855269,0.000000000,0.000000000,0.000000000,0.000000000,0.000000000,0.000000000,1.922984083,0.000000000,4.227340189
1772714778.154866695,0.015025000,0.007813000,0.075320000,-0.003095880,0.008967460,0.022852760,0.999693830,-0.005781000,0.018072000,0.045659000,0.000405964,0.000127137,-0.000465774,0.009189071,0.010118352,0.012457563,0.009756466,-0.003397750,1.000221817,0.000119993,-0.001439128,0.000718644,0.000000000,0.000000000,0.000000000,0.000000000,0.015440017,0.007817098,0.075324477,0.023837963,0.000935795,0.000099464,0.006573747,0.000628005,0.000002497,-0.217640859,0.190124335,1.921589538,-0.001871181,-0.001690760,0.016765027,0.999855536,0.000000000,0.000000000,0.000000000,0.000000000,0.000000000,0.000000000,1.920533139,0.000000000,4.226750134
1772714778.164865971,0.015014000,0.007817000,0.075317000,-0.003001760,0.008658020,0.022907170,0.999695600,-0.005606000,0.017449000,0.045771000,-0.000031643,-0.000270688,0.000185587,0.006619744,-0.007936933,-0.000705222,0.010616847,-0.002639127,1.000365516,0.000277969,-0.000352608,0.000635258,0.000000000,0.000000000,0.000000000,0.000000000,0.015274046,0.007818305,0.075318079,0.023278599,0.000985632,0.000067547,0.006748909,0.000852715,0.000169577,-0.218186655,0.189972387,1.919885732,-0.001875991,-0.001689486,0.016750155,0.999855712,0.000000000,0.000000000,0.000000000,0.000000000,0.000000000,0.000000000,1.919421001,0.000000000,4.226160135
1772714778.174865961,0.015020000,0.007806000,0.075313000,-0.002984810,0.008656370,0.022836400,0.999697280,-0.005573000,0.017445000,0.045630000,0.000031274,-0.000236403,0.000151224,0.005670652,-0.004573281,-0.004849830,0.011765119,-0.002044987,1.000279735,0.000359450,0.000662385,0.000857206,0.000000000,0.000000000,0.000000000,0.000000000,0.015472840,0.007829399,0.075317214,0.023761245,0.001201505,0.000020214,0.008665672,0.001008924,0.000236075,-0.218506281,0.189713998,1.918182375,-0.001878843,-0.001687250,0.016735291,0.999856000,0.000000000,0.000000000,0.000000000,0.000000000,0.000000000,0.000000000,1.917742509,0.000000000,4.225570095
1772714778.184865236,0.015022000,0.007804000,0.075302000,-0.002917450,0.009121010,0.022703780,0.999696370,-0.005420000,0.018370000,0.045364000,-0.000198466,-0.000189278,0.000127001,0.001166386,-0.003643305,-0.007756713,0.014231239,-0.002243187,0.999122883,0.000028270,0.001334591,0.002482033,0.000000000,0.000000000,0.000000000,0.000000000,0.015480632,0.007833650,0.075319060,0.023931054,0.001346084,0.000052767,0.009602807,0.001480947,-0.000706146,-0.218636505,0.189795296,1.917982159,-0.001879970,-0.001687975,0.016733541,0.999855906,0.000000000,0.000000000,0.000000000,0.000000000,0.000000000,0.000000000,1.915821706,0.000000000,4.224980096
1772714778.194865227,0.015021000,0.007807000,0.075323000,-0.002970050,0.008907340,0.022729850,0.999697550,-0.005534000,0.017945000,0.045416000,-0.000182401,0.000027797,-0.000027933,-0.001343549,0.000278457,-0.004869042,0.012474209,-0.004294888,0.998836897,-0.005042948,0.001833727,0.000909250,0.000000000,0.000000000,0.000000000,0.000000000,0.015271527,0.007824049,0.075315869,0.023594814,0.001467001,-0.000043688,0.009324370,0.000693030,-0.001489306,-0.218620014,0.190139762,1.918946420,-0.001879762,-0.001690995,0.016741949,0.999855735,0.000000000,0.000000000,0.000000000,0.000000000,0.000000000,0.000000000,1.918488961,0.000000000,4.224390056
1772714778.204864740,0.015015000,0.007809000,0.075327000,-0.003062800,0.008592390,0.022785060,0.999698770,-0.005733000,0.017320000,0.045526000,-0.000174612,0.000252467,-0.000249573,-0.002597331,0.007636789,-0.000606610,0.010086494,-0.004632798,0.998680267,-0.003752975,0.003731614,-0.000103580,0.000000000,0.000000000,0.000000000,0.000000000,0.015248633,0.007820572,0.075308783,0.023746145,0.001442753,-0.000196316,0.007152193,-0.000036317,-0.002216589,-0.219019336,0.189875168,1.918011409,-0.001883298,-0.001688729,0.016733788,0.999856087,0.000000000,0.000000000,0.000000000,0.000000000,0.000000000,0.000000000,1.917275042,0.000000000,4.223800043
1772714778.214864492,0.015016000,0.007809000,0.075311000,-0.002989020,0.008763040,0.022795770,0.999697270,-0.005578000,0.017658000,0.045548000,-0.000106274,0.000397184,-0.000446873,-0.002775915,0.005026599,0.004994557,0.009324886,-0.004214562,0.998208731,0.002348863,0.003549488,-0.004373880,0.000000000,0.000000000,0.000000000,0.000000000,0.015490248,0.007834520,0.075305581,0.024430334,0.001399712,-0.000401219,0.005938674,0.000264129,-0.002049974,-0.219958977,0.188341225,1.915121166,-0.001891763,-0.001675434,0.016708583,0.999856532,0.000000000,0.000000000,0.000000000,0.000000000,0.000000000,0.000000000,1.914476361,0.000000000,4.223210016
1772714778.224863529,0.015009000,0.007813000,0.075306000,-0.002969970,0.008887810,0.022736820,0.999697570,-0.005535000,0.017906000,0.045430000,0.000148213,0.000125971,-0.000297553,-0.000368278,-0.002395132,0.008531206,0.010780312,-0.004140817,1.000003073,-0.001593712,0.004528575,-0.002160019,0.000000000,0.000000000,0.000000000,0.000000000,0.015490962,0.007834553,0.075309605,0.024306179,0.001377827,-0.000556497,0.007078306,-0.000207675,-0.001847740,-0.219997291,0.186833666,1.912551972,-0.001892354,-0.001662243,0.016686191,0.999856978,0.000000000,0.000000000,0.000000000,0.000000000,0.000000000,0.000000000,1.912124179,0.000000000,4.222620032
1772714778.234863520,0.015016000,0.007818000,0.075300000,-0.003005400,0.008997870,0.022804490,0.999694930,-0.005600000,0.018128000,0.045564000,0.000448485,0.000106061,-0.000123932,0.002629003,0.012408615,0.012372546,0.011380307,-0.003947466,0.998568392,-0.000538108,0.001483924,0.000124415,0.000000000,0.000000000,0.000000000,0.000000000,0.015246267,0.007822054,0.075311752,0.023606317,0.001293302,-0.000475225,0.008385444,-0.000760377,-0.001670680,-0.219787848,0.185426502,1.910037573,-0.001890768,-0.001649893,0.016664278,0.999857199,0.000000000,0.000000000,0.000000000,0.000000000,0.000000000,0.000000000,1.909544728,0.000000000,4.222029991
1772714778.244863272,0.015021000,0.007818000,0.075299000,-0.003006170,0.008983400,0.022878940,0.999693360,-0.005600000,0.018100000,0.045713000,0.000208567,-0.000374010,0.000608295,0.002861492,-0.009482549,0.007910582,0.011448870,-0.003331678,0.998064042,0.001816932,0.000080738,0.000196412,0.000000000,0.000000000,0.000000000,0.000000000,0.015243667,0.007824759,0.075304670,0.023739190,0.001221440,-0.000576245,0.008319127,0.000091292,-0.001006699,-0.219583038,0.185274162,1.908332465,-0.001889028,-0.001648506,0.016649405,0.999857451,0.000000000,0.000000000,0.000000000,0.000000000,0.000000000,0.000000000,1.907952693,0.000000000,4.221439965
1772714778.254863262,0.015028000,0.007809000,0.075317000,-0.003005330,0.008708750,0.022941070,0.999694370,-0.005610000,0.017551000,0.045839000,-0.000225466,-0.000704799,0.000986326,0.002567199,-0.041327378,-0.001916208,0.011138201,-0.005441531,0.999360895,0.000330146,-0.000012071,0.004473714,0.000000000,0.000000000,0.000000000,0.000000000,0.015247525,0.007827757,0.075298101,0.023848286,0.001244346,-0.000751965,0.008163120,-0.000254749,-0.000944166,-0.218909700,0.184719961,1.907392058,-0.001883247,-0.001643557,0.016641222,0.999857796,0.000000000,0.000000000,0.000000000,0.000000000,0.000000000,0.000000000,1.908393817,0.000000000,4.220849924
1772714778.264863491,0.015024000,0.007799000,0.075333000,-0.002902700,0.008481590,0.022968710,0.999695990,-0.005415000,0.017092000,0.045897000,-0.000452448,-0.000666337,0.000670921,0.005543148,-0.052763710,-0.014611172,0.010448718,-0.005096579,0.999771346,-0.000260172,0.000074895,0.003583309,0.000000000,0.000000000,0.000000000,0.000000000,0.015414708,0.007836498,0.075290708,0.024409711,0.001144159,-0.000808115,0.007998712,-0.001302433,0.000441766,-0.218217331,0.186086748,1.911550169,-0.001876947,-0.001655450,0.016677488,0.999857073,0.000000000,0.000000000,0.000000000,0.000000000,0.000000000,0.000000000,1.909641039,0.000000000,4.220259869
1772714778.274863482,0.015019000,0.007807000,0.075326000,-0.002933720,0.008768850,0.022903960,0.999694910,-0.005465000,0.017668000,0.045766000,-0.000450117,-0.000294464,0.000126243,0.006786103,-0.041990189,-0.021532096,0.009680012,-0.004075756,0.999964022,-0.000274626,0.000226515,0.001281354,0.000000000,0.000000000,0.000000000,0.000000000,0.015255807,0.007816775,0.075315504,0.023982171,0.000992574,-0.000521317,0.008989605,0.000699502,-0.000983326,-0.218586738,0.188792470,1.917301308,-0.001879692,-0.001679207,0.016727618,0.999856247,0.000000000,0.000000000,0.000000000,0.000000000,0.000000000,0.000000000,1.917858007,0.000000000,4.219669828
1772714778.284863710,0.014991000,0.007773000,0.075340000,-0.002871770,0.007719420,0.022527900,0.999712290,-0.005395000,0.015564000,0.045019000,-0.000264336,0.000160800,-0.000422708,0.006077502,-0.014096645,-0.018209709,0.008911286,-0.003054908,1.000156702,-0.000289081,0.000378139,-0.001020655,0.000000000,0.000000000,0.000000000,0.000000000,0.015348520,0.007821095,0.075315659,0.024373304,0.001065073,-0.000618014,0.006307364,0.001271672,0.000096591,-0.219137310,0.188949227,1.917557309,-0.001884469,-0.001680659,0.016729842,0.999856098,0.000000000,0.000000000,0.000000000,0.000000000,0.000000000,0.000000000,1.916854505,0.000000000,4.219079774
1772714778.294863939,0.015004000,0.007800000,0.075320000,-0.002842070,0.007901470,0.022514500,0.999711250,-0.005327000,0.015927000,0.044992000,-0.000022630,0.000511248,-0.000690774,0.005367645,0.021168632,-0.009501826,0.009539520,-0.003893669,0.999746299,-0.000167001,0.002379310,0.001402077,0.000000000,0.000000000,0.000000000,0.000000000,0.015332153,0.007813543,0.075317194,0.024136366,0.001163706,-0.000628476,0.005748824,0.000226500,-0.001324854,-0.219484093,0.188354757,1.915135892,-0.001887618,-0.001675483,0.016708719,0.999856562,0.000000000,0.000000000,0.000000000,0.000000000,0.000000000,0.000000000,1.914400145,0.000000000,4.218489719
1772714778.304863691,0.015018000,0.007813000,0.075304000,-0.002822490,0.008337250,0.022549930,0.999706970,-0.005268000,0.016798000,0.045061000,0.000356663,0.000493027,-0.000578944,0.003978090,0.041918283,0.002985603,0.011021452,-0.005161327,0.997640319,0.001425772,0.003870305,-0.000401960,0.000000000,0.000000000,0.000000000,0.000000000,0.015414205,0.007813989,0.075315400,0.024211526,0.001155434,-0.000684834,0.007549022,0.000074616,-0.001430584,-0.218931402,0.188258376,1.912137355,-0.001882853,-0.001674512,0.016682563,0.999856780,0.000000000,0.000000000,0.000000000,0.000000000,0.000000000,0.000000000,1.912313375,0.000000000,4.217899692
1772714778.314863920,0.015022000,0.007814000,0.075307000,-0.002827660,0.008737700,0.022717340,0.999699740,-0.005257000,0.017600000,0.045394000,0.000612841,0.000282129,-0.000311752,0.001784903,0.053893250,0.016340735,0.011745478,-0.001901550,1.001107361,0.002221993,-0.003243371,0.001763088,0.000000000,0.000000000,0.000000000,0.000000000,0.015482663,0.007824981,0.075302754,0.024425432,0.001146241,-0.000868701,0.008426927,0.001380530,0.000671391,-0.218265975,0.187216877,1.909994548,-0.001877229,-0.001665293,0.016663894,0.999857142,0.000000000,0.000000000,0.000000000,0.000000000,0.000000000,0.000000000,1.910487644,0.000000000,4.217595577
1772714778.324863911,0.015014000,0.007810000,0.075312000,-0.002814200,0.008975210,0.022759280,0.999696720,-0.005219000,0.018074000,0.045477000,0.000518260,0.000011441,-0.000121620,0.001915865,0.057906457,0.019656930,0.010803433,-0.002490140,1.000274725,-0.000437741,-0.003507326,0.001688063,0.000000000,0.000000000,0.000000000,0.000000000,0.015274136,0.007822614,0.075303799,0.023880863,0.001327600,-0.000655849,0.007981263,0.000722612,0.001438723,-0.217600564,0.186175402,1.907851793,-0.001871606,-0.001656074,0.016645226,0.999857559,0.000000000,0.000000000,0.000000000,0.000000000,0.000000000,0.000000000,1.907430971,0.000000000,4.217595577
1772714778.334863901,0.015019000,0.007808000,0.075313000,-0.002813770,0.009145230,0.022766520,0.999695020,-0.005210000,0.018414000,0.045491000,0.000058256,-0.000383314,0.000223407,-0.000901058,0.029466293,0.011755707,0.010352740,-0.003158873,0.999780295,-0.001160508,-0.004509075,0.000017249,0.000000000,0.000000000,0.000000000,0.000000000,0.015474925,0.007833710,0.075299008,0.024538868,0.001416370,-0.000488161,0.007087403,0.001079664,-0.000258916,-0.217199204,0.186841212,1.906112673,-0.001868033,-0.001661797,0.016630047,0.999857825,0.000000000,0.000000000,0.000000000,0.000000000,0.000000000,0.000000000,1.905615529,0.000000000,4.217595577
1772714778.344863653,0.015030000,0.007800000,0.075309000,-0.002848130,0.009020080,0.022869170,0.999693720,-0.005283000,0.018166000,0.045696000,-0.000053671,-0.000158839,0.000191142,-0.006277769,0.013703427,0.007215296,0.011359950,-0.003856295,1.000090335,0.002681616,-0.006512892,-0.003377935,0.000000000,0.000000000,0.000000000,0.000000000,0.015261611,0.007817675,0.075305103,0.023832058,0.001428118,-0.000462039,0.007644630,0.000434672,-0.000364502,-0.217122045,0.188685466,1.907309738,-0.001867074,-0.001677897,0.016640462,0.999857783,0.000000000,0.000000000,0.000000000,0.000000000,0.000000000,0.000000000,1.908505118,0.000000000,4.217595577
1772714778.354863882,0.015029000,0.007803000,0.075310000,-0.002890650,0.009230590,0.022944790,0.999689940,-0.005357000,0.018589000,0.045846000,0.000165696,0.000052758,0.000020260,-0.011276966,0.009352086,0.004638037,0.011955842,-0.004320618,0.999143298,0.001434003,-0.003161638,0.002970761,0.000000000,0.000000000,0.000000000,0.000000000,0.015257645,0.007817064,0.075305500,0.023855341,0.001414106,-0.000440045,0.008565980,-0.000109996,-0.000448066,-0.217198245,0.190949299,1.910262804,-0.001867366,-0.001697709,0.016666190,0.999857363,0.000000000,0.000000000,0.000000000,0.000000000,0.000000000,0.000000000,1.911159106,0.000000000,4.217595577
1772714778.364864111,0.015019000,0.007805000,0.075312000,-0.002823240,0.009325320,0.022855790,0.999691290,-0.005219000,0.018775000,0.045669000,-0.000007712,0.000336947,0.000052001,-0.012251866,-0.001507365,0.004719157,0.012322255,-0.004211633,0.999819592,0.001195299,-0.000694209,0.001520489,0.000000000,0.000000000,0.000000000,0.000000000,0.015255922,0.007817567,0.075306377,0.023922497,0.001381294,-0.000464334,0.008564562,-0.000433097,-0.000296657,-0.217217849,0.191976079,1.911336262,-0.001867372,-0.001706688,0.016675539,0.999856896,0.000000000,0.000000000,0.000000000,0.000000000,0.000000000,0.000000000,1.911073230,0.000000000,4.217595577
1772714778.374863863,0.015019000,0.007814000,0.075316000,-0.003067980,0.009271210,0.022901480,0.999690030,-0.005710000,0.018678000,0.045756000,-0.000208236,0.000250466,0.000073854,-0.011326083,-0.010954698,0.001867560,0.011432793,-0.004148856,0.998916308,-0.000266065,0.001425427,0.000055333,0.000000000,0.000000000,0.000000000,0.000000000,0.015364133,0.007823919,0.075304721,0.024340239,0.001348218,-0.000480264,0.008039730,-0.000650578,-0.000038769,-0.217221670,0.191762955,1.910708205,-0.001867446,-0.001704819,0.016670063,0.999857166,0.000000000,0.000000000,0.000000000,0.000000000,0.000000000,0.000000000,1.909711950,0.000000000,4.217595577
1772714778.384863138,0.015025000,0.007810000,0.075314000,-0.003107960,0.009156110,0.022937380,0.999690140,-0.005795000,0.018450000,0.045827000,-0.000017871,-0.000045008,0.000035606,-0.007610344,-0.014805603,-0.003666637,0.010383787,-0.003271791,0.999237377,-0.000011206,0.002790310,0.000114770,0.000000000,0.000000000,0.000000000,0.000000000,0.015373504,0.007826951,0.075305751,0.024431717,0.001306144,-0.000499078,0.007446573,0.000296005,-0.000408049,-0.218025902,0.192590420,1.914420893,-0.001874287,-0.001712217,0.016702430,0.999856811,0.000000000,0.000000000,0.000000000,0.000000000,0.000000000,0.000000000,1.911481821,0.000000000,4.217595577
1772714778.394863605,0.015033000,0.007811000,0.075310000,-0.003079240,0.009156450,0.022938070,0.999690210,-0.005738000,0.018450000,0.045829000,0.000249845,-0.000007751,-0.000269891,-0.001025505,-0.001516503,-0.002084085,0.011395879,-0.003255201,1.000001244,-0.005844408,0.002774496,-0.001367047,0.000000000,0.000000000,0.000000000,0.000000000,0.015260232,0.007823134,0.075307786,0.024046955,0.001336278,-0.000504601,0.007107735,0.001017396,0.000074710,-0.219848488,0.191633210,1.917989218,-0.001890276,-0.001704189,0.016733553,0.999856124,0.000000000,0.000000000,0.000000000,0.000000000,0.000000000,0.000000000,1.918884034,0.000000000,4.217595577
1772714778.404863596,0.015009000,0.007816000,0.075315000,-0.003009640,0.008799710,0.022890730,0.999694710,-0.005616000,0.017733000,0.045738000,-0.000086441,-0.000287549,-0.000009421,0.003362347,-0.013360188,-0.007990697,0.012025966,-0.003529374,0.999449465,0.004228422,-0.000244970,0.005887953,0.000000000,0.000000000,0.000000000,0.000000000,0.015253894,0.007825766,0.075308751,0.024000001,0.001405407,-0.000477560,0.008005862,0.000649799,-0.000343632,-0.221238517,0.190920321,1.919610849,-0.001902485,-0.001698199,0.016747696,0.999855757,0.000000000,0.000000000,0.000000000,0.000000000,0.000000000,0.000000000,1.918865430,0.000000000,4.217595577
1772714778.414864302,0.015025000,0.007795000,0.075310000,-0.003056420,0.009005940,0.022807070,0.999694650,-0.005701000,0.018147000,0.045568000,-0.000535626,-0.000354332,0.000158975,0.007196497,-0.022773868,-0.015949495,0.011030942,-0.004690693,1.000455362,0.005863156,-0.002229299,0.001792027,0.000000000,0.000000000,0.000000000,0.000000000,0.015418596,0.007836249,0.075305772,0.024562026,0.001455492,-0.000496074,0.008182001,0.000301265,-0.000387228,-0.222464905,0.190575536,1.917919624,-0.001913261,-0.001695341,0.016732928,0.999855785,0.000000000,0.000000000,0.000000000,0.000000000,0.000000000,0.000000000,1.917944865,0.000000000,4.218167869
1772714778.424864292,0.015031000,0.007801000,0.075309000,-0.002987070,0.009118040,0.022734410,0.999695500,-0.005559000,0.018367000,0.045424000,-0.000600195,-0.000237121,0.000134499,0.003840013,-0.029563277,-0.015808502,0.011496898,-0.004687204,0.997751503,-0.000343824,0.005207218,0.001900386,0.000000000,0.000000000,0.000000000,0.000000000,0.015366176,0.007827102,0.075305165,0.024424876,0.001397102,-0.000489734,0.007447212,-0.000644175,-0.001563153,-0.220886321,0.191054762,1.917710736,-0.001899421,-0.001699289,0.016731119,0.999855936,0.000000000,0.000000000,0.000000000,0.000000000,0.000000000,0.000000000,1.917428208,0.000000000,4.219257309
1772714778.434865236,0.015013000,0.007818000,0.075306000,-0.002941030,0.009134230,0.022789490,0.999694230,-0.005465000,0.018398000,0.045535000,-0.000460704,-0.000028361,0.000164685,0.005618062,-0.031486490,-0.011335128,0.011327198,-0.004830623,0.997912323,-0.000453503,0.003799448,-0.000924653,0.000000000,0.000000000,0.000000000,0.000000000,0.015380552,0.007822204,0.075302885,0.024483705,0.001284248,-0.000618564,0.008003534,-0.001576377,-0.002756978,-0.219429846,0.191675189,1.916541247,-0.001886639,-0.001704470,0.016720926,0.999855936,0.000000000,0.000000000,0.000000000,0.000000000,0.000000000,0.000000000,1.916602162,0.000000000,4.220346853
1772714778.444865227,0.014987000,0.007783000,0.075337000,-0.002985020,0.007894290,0.022474940,0.999711780,-0.005614000,0.015919000,0.044911000,-0.000082168,0.000291512,-0.000089200,0.011171601,-0.010002011,-0.002905573,0.010779933,-0.004507361,1.000068756,0.000018063,-0.002469608,-0.001921942,0.000000000,0.000000000,0.000000000,0.000000000,0.015500802,0.007833089,0.075296440,0.024882967,0.001180686,-0.000830768,0.008003273,-0.000261994,0.000009776,-0.219726831,0.189825687,1.915060868,-0.001889522,-0.001688352,0.016708036,0.999856464,0.000000000,0.000000000,0.000000000,0.000000000,0.000000000,0.000000000,1.915267786,0.000000000,4.221436292
1772714778.454865456,0.015004000,0.007807000,0.075310000,-0.002907470,0.008514350,0.022587880,0.999704380,-0.005429000,0.017156000,0.045135000,0.000016919,0.000067696,0.000180206,0.011063432,-0.010167217,-0.001276315,0.010733916,-0.003390805,1.000450135,0.000296198,-0.002474431,-0.003603799,0.000000000,0.000000000,0.000000000,0.000000000,0.015483629,0.007821671,0.075307061,0.024789715,0.001072593,-0.000729018,0.007616555,0.001136703,0.000890846,-0.219816556,0.188733963,1.913035391,-0.001890494,-0.001678806,0.016690380,0.999856874,0.000000000,0.000000000,0.000000000,0.000000000,0.000000000,0.000000000,1.911675330,0.000000000,4.222525758
1772714778.464865685,0.015017000,0.007808000,0.075307000,-0.002843440,0.008566310,0.022692710,0.999701740,-0.005297000,0.017257000,0.045345000,0.000191220,-0.000131469,0.000045940,0.006683567,-0.002341358,-0.001424637,0.010653787,-0.002691570,1.000258290,0.000419928,-0.000979427,-0.004840589,0.000000000,0.000000000,0.000000000,0.000000000,0.015481258,0.007823703,0.075304126,0.024778520,0.001167645,-0.000632322,0.007447747,0.001234780,-0.000127721,-0.218733333,0.189893139,1.909709116,-0.001880922,-0.001688708,0.016661352,0.999857349,0.000000000,0.000000000,0.000000000,0.000000000,0.000000000,0.000000000,1.909039550,0.000000000,4.223615224
