t,px,py,pz,qx,qy,qz,qw,roll,pitch,yaw,vx,vy,vz,wx_vicon,wy_vicon,wz_vicon,imu_acc_x,imu_acc_y,imu_acc_z,imu_gyro_x,imu_gyro_y,imu_gyro_z,motor_motor_m1,motor_motor_m2,motor_motor_m3,motor_motor_m4,est_stateEstimate_x,est_stateEstimate_y,est_stateEstimate_z,est_stateEstimate_vx,est_stateEstimate_vy,est_stateEstimate_vz,est_stateEstimate_ax,est_stateEstimate_ay,est_stateEstimate_az,att_stateEstimate_roll,att_stateEstimate_pitch,att_stateEstimate_yaw,att_stateEstimate_qx,att_stateEstimate_qy,att_stateEstimate_qz,att_stateEstimate_qw,sp_ctrltarget_x,sp_ctrltarget_y,sp_ctrltarget_z,sp_ctrltarget_yaw,pid_controller_roll,pid_controller_pitch,pid_controller_yaw,pid_controller_cmd_thrust,pwr_pm_vbat
1772717117.852716684,0.017538000,0.007408000,0.072075000,-0.008919860,0.007911840,0.045220470,0.998905880,-0.017108000,0.016614000,0.090336000,-0.002878314,-0.000534681,0.000360365,-0.071300596,0.083912269,-0.033355794,0.006304565,-0.017426407,1.000748651,0.000204624,0.001106300,-0.004468035,0.000000000,0.000000000,0.000000000,0.000000000,0.017870838,0.007392488,0.072002751,0.018300701,-0.000750360,-0.003333939,0.004281949,-0.002528701,0.000692080,-0.814859823,0.129495986,4.127366974,-0.007065617,-0.001385372,0.036001286,0.999327576,0.000000000,0.000000000,0.000000000,0.000000000,0.000000000,0.000000000,4.126744910,0.000000000,4.212405164
1772717117.862716913,0.017521000,0.007381000,0.072117000,-0.009051840,0.007874020,0.045203200,0.998905770,-0.017375000,0.016550000,0.090300000,-0.001061922,0.000207843,-0.000774807,0.009863070,-0.023836492,0.001873937,0.006741124,-0.016718039,1.000386046,-0.000161200,-0.000105226,-0.003643513,0.000000000,0.000000000,0.000000000,0.000000000,0.017872706,0.007395996,0.071997412,0.018295012,-0.000778871,-0.003324202,0.004684582,-0.002076322,0.000296465,-0.814766857,0.129764586,4.128968881,-0.007064702,-0.001387783,0.036015239,0.999327118,0.000000000,0.000000000,0.000000000,0.000000000,0.000000000,0.000000000,4.128779822,0.000000000,4.212797274
1772717117.872717142,0.017507000,0.007388000,0.072099000,-0.009195540,0.008240700,0.045099510,0.998906190,-0.017631000,0.017294000,0.090084000,0.000018473,0.000420076,-0.001072237,0.046431882,-0.069687965,0.018300933,0.007177682,-0.016009671,1.000023441,-0.000527024,-0.001316752,-0.002818991,0.000000000,0.000000000,0.000000000,0.000000000,0.017874574,0.007399503,0.071992073,0.018289323,-0.000807382,-0.003314465,0.005087215,-0.001623944,-0.000099150,-0.814639228,0.130115381,4.130426574,-0.007063461,-0.001390892,0.036027930,0.999326659,0.000000000,0.000000000,0.000000000,0.000000000,0.000000000,0.000000000,4.130235503,0.000000000,4.213189383
1772717117.882717133,0.017519000,0.007421000,0.072036000,-0.008615810,0.007254030,0.045332570,0.998908460,-0.016558000,0.015274000,0.090576000,0.000507622,0.000261455,-0.000780868,0.049392196,-0.069664460,0.020600939,0.007614230,-0.015301320,0.999660845,-0.000892839,-0.002528249,-0.001994489,0.000000000,0.000000000,0.000000000,0.000000000,0.017876274,0.007400186,0.071990547,0.018287276,-0.000852771,-0.003277436,0.005489838,-0.001171576,-0.000494756,-0.814511602,0.130466167,4.131884233,-0.007062220,-0.001394001,0.036040621,0.999325859,0.000000000,0.000000000,0.000000000,0.000000000,0.000000000,0.000000000,4.131691149,0.000000000,4.213581483
1772717117.892717123,0.017528000,0.007429000,0.072033000,-0.008067460,0.006800460,0.045488270,0.998909150,-0.015501000,0.014321000,0.090902000,0.000550279,-0.000108583,-0.000149647,0.029720753,-0.039781040,0.013504586,0.007112467,-0.015502463,0.999408525,-0.002424887,0.001017457,-0.001033074,0.000000000,0.000000000,0.000000000,0.000000000,0.017876963,0.007383857,0.072011979,0.018307162,-0.000999785,-0.003076087,0.005253167,-0.000949157,-0.000002094,-0.814738154,0.131116479,4.134830075,-0.007063956,-0.001399925,0.036066270,0.999324293,0.000000000,0.000000000,0.000000000,0.000000000,0.000000000,0.000000000,4.134142815,0.000000000,4.213973584
1772717117.902717113,0.017523000,0.007383000,0.072095000,-0.008569930,0.007418650,0.045434510,0.998903010,-0.016450000,0.015600000,0.090778000,0.000291194,-0.000530602,0.000572481,-0.001594203,0.003934428,0.001672158,0.007269129,-0.015449397,0.998022929,0.000140071,0.000917409,-0.001095638,0.000000000,0.000000000,0.000000000,0.000000000,0.017884700,0.007384424,0.072008992,0.018355887,-0.001009153,-0.002973159,0.005640303,-0.001108426,-0.002230356,-0.815180931,0.132228860,4.140046641,-0.007067403,-0.001410087,0.036111692,0.999322488,0.000000000,0.000000000,0.000000000,0.000000000,0.000000000,0.000000000,4.139202276,0.000000000,4.214365684
1772717117.912717104,0.017538000,0.007404000,0.072062000,-0.008217580,0.006785840,0.045441010,0.998910180,-0.015803000,0.014304000,0.090805000,-0.000091198,-0.000716068,0.000965460,-0.022655592,0.018161667,-0.003770020,0.007008605,-0.014644228,0.997414825,0.000477624,0.000515413,-0.000561871,0.000000000,0.000000000,0.000000000,0.000000000,0.017878892,0.007365956,0.072034718,0.018350419,-0.001105534,-0.002928541,0.003951340,-0.000022130,-0.002121043,-0.815023884,0.133451304,4.145405948,-0.007065581,-0.001421029,0.036158351,0.999321171,0.000000000,0.000000000,0.000000000,0.000000000,0.000000000,0.000000000,4.144859692,0.000000000,4.214757784
1772717117.922717094,0.017514000,0.007361000,0.072124000,-0.009062120,0.007842880,0.045268160,0.998902980,-0.017398000,0.016490000,0.090430000,-0.000624597,-0.000627958,0.000846989,-0.040943076,0.045447510,-0.011498319,0.007132711,-0.014314077,0.998158408,-0.001626569,0.002816657,0.000785476,0.000000000,0.000000000,0.000000000,0.000000000,0.017871831,0.007357657,0.072048038,0.018239265,-0.001048234,-0.002948860,0.004781734,0.000096707,-0.001644122,-0.815141134,0.134612908,4.149793261,-0.007066182,-0.001431466,0.036196535,0.999319474,0.000000000,0.000000000,0.000000000,0.000000000,0.000000000,0.000000000,4.149028964,0.000000000,4.215149884
1772717117.932716846,0.017509000,0.007371000,0.072114000,-0.009225950,0.008177120,0.045196680,0.998902040,-0.017696000,0.017171000,0.090279000,-0.000871425,-0.000537225,0.000850544,-0.055649970,0.063873536,-0.013775004,0.007651347,-0.015318312,0.997553831,0.000588661,0.002403398,0.001017926,0.000000000,0.000000000,0.000000000,0.000000000,0.017872905,0.007371409,0.072025169,0.018235145,-0.000919254,-0.003101445,0.004948711,-0.000832291,-0.002481172,-0.816718164,0.135376401,4.154826324,-0.007079630,-0.001438934,0.036240359,0.999317863,0.000000000,0.000000000,0.000000000,0.000000000,0.000000000,0.000000000,4.154185820,0.000000000,4.215541975
1772717117.942717552,0.017524000,0.007413000,0.072043000,-0.008686190,0.007302190,0.045360180,0.998906240,-0.016694000,0.015377000,0.090629000,-0.000573103,-0.000131368,0.000422174,-0.044451421,0.060195484,-0.010570322,0.006856532,-0.016050050,0.996832717,0.003379703,0.000807632,0.000083439,0.000000000,0.000000000,0.000000000,0.000000000,0.017865696,0.007370803,0.072026639,0.018226772,-0.000913359,-0.003177131,0.004904900,-0.001401857,-0.002591819,-0.817425949,0.135221632,4.159352332,-0.007085795,-0.001438088,0.036279833,0.999316256,0.000000000,0.000000000,0.000000000,0.000000000,0.000000000,0.000000000,4.158639569,0.000000000,4.215934104
1772717117.952717543,0.017496000,0.007375000,0.072107000,-0.009360970,0.007879350,0.045250550,0.998900730,-0.017992000,0.016589000,0.090390000,-0.000060197,-0.000406848,0.000772535,-0.040645202,0.061161766,-0.008614264,0.007906408,-0.014901571,0.998521825,0.003474383,0.001145121,-0.000037563,0.000000000,0.000000000,0.000000000,0.000000000,0.017857138,0.007359322,0.072045769,0.018229769,-0.000993568,-0.003191735,0.006010377,-0.000133759,-0.001355233,-0.816568764,0.134860352,4.164475201,-0.007078370,-0.001434982,0.036324542,0.999314827,0.000000000,0.000000000,0.000000000,0.000000000,0.000000000,0.000000000,4.163832582,0.000000000,4.216326204
1772717117.962718725,0.017494000,0.007358000,0.072136000,-0.009752020,0.008866460,0.045069910,0.998896890,-0.018688000,0.018593000,0.090004000,0.000652879,0.000307472,-0.000213457,-0.007428476,0.018617580,-0.001936448,0.009265218,-0.012682883,0.998769475,-0.000383515,-0.000019075,0.002833432,0.000000000,0.000000000,0.000000000,0.000000000,0.017856248,0.007349631,0.072064265,0.018338424,-0.000956240,-0.003107390,0.006246334,0.001931961,-0.001172221,-0.816492637,0.134359381,4.168613717,-0.007077814,-0.001430845,0.036360664,0.999313375,0.000000000,0.000000000,0.000000000,0.000000000,0.000000000,0.000000000,4.168010558,0.000000000,4.216718351
1772717117.972719431,0.017506000,0.007356000,0.072147000,-0.010099270,0.009184310,0.045047970,0.998891550,-0.019353000,0.019259000,0.089948000,0.000545461,0.000221460,-0.000146442,0.004098781,0.009529655,-0.000389162,0.008583529,-0.012381808,0.998012124,-0.001639311,-0.000662088,-0.003095182,0.000000000,0.000000000,0.000000000,0.000000000,0.017785331,0.007359835,0.072071925,0.018289269,-0.000659819,-0.003049929,0.006166805,0.002060690,-0.002238334,-0.817327938,0.132782435,4.173618154,-0.007085536,-0.001417667,0.036404391,0.999311979,0.000000000,0.000000000,0.000000000,0.000000000,0.000000000,0.000000000,4.172906978,0.000000000,4.217110479
1772717117.982720613,0.017535000,0.007400000,0.072070000,-0.009222370,0.008209860,0.045218010,0.998900830,-0.017686000,0.017237000,0.090321000,0.000869619,0.000770437,-0.001146225,0.037106217,-0.025122844,0.007465403,0.010176589,-0.014065577,0.997857384,-0.000899568,-0.000015258,-0.002376693,0.000000000,0.000000000,0.000000000,0.000000000,0.017768644,0.007374174,0.072059748,0.018400549,-0.000380655,-0.003143769,0.007884803,0.000279536,-0.001981217,-0.817736245,0.132253262,4.176849383,-0.007089225,-0.001413382,0.036432600,0.999310799,0.000000000,0.000000000,0.000000000,0.000000000,0.000000000,0.000000000,4.176464486,0.000000000,4.217502626
1772717117.992720604,0.017535000,0.007382000,0.072100000,-0.009282980,0.008273230,0.045223170,0.998899520,-0.017801000,0.017369000,0.090330000,0.000735162,0.001028046,-0.001579451,0.059740655,-0.060050493,0.016855607,0.008104962,-0.015499651,0.999283542,0.001571101,-0.001251745,-0.001390809,0.000000000,0.000000000,0.000000000,0.000000000,0.017888592,0.007374523,0.072036224,0.018907583,-0.000310169,-0.003273111,0.005349356,-0.000613154,-0.000766060,-0.818225305,0.132297092,4.180217228,-0.007093435,-0.001414128,0.036461961,0.999309734,0.000000000,0.000000000,0.000000000,0.000000000,0.000000000,0.000000000,4.179706724,0.000000000,4.217182738
1772717118.002721310,0.017533000,0.007421000,0.072051000,-0.008687200,0.007681910,0.045356360,0.998903560,-0.016661000,0.016136000,0.090616000,0.000309142,0.000824301,-0.001165591,0.058294029,-0.064025992,0.020088205,0.006859936,-0.014674420,0.998462332,-0.003534817,-0.000354126,-0.002674285,0.000000000,0.000000000,0.000000000,0.000000000,0.017893626,0.007393719,0.072014242,0.018976802,-0.000230195,-0.003345793,0.004842293,0.000223015,-0.001815433,-0.817991691,0.132513070,4.184082451,-0.007091281,-0.001416176,0.036495656,0.999308666,0.000000000,0.000000000,0.000000000,0.000000000,0.000000000,0.000000000,4.183578475,0.000000000,4.216641583
1772717118.012721539,0.017519000,0.007389000,0.072087000,-0.008868600,0.008042630,0.045312070,0.998901140,-0.016992000,0.016872000,0.090518000,0.000133311,0.000143703,-0.000147996,0.035696992,-0.033101979,0.013303165,0.006880478,-0.014086582,0.997900642,-0.002415478,0.000882745,-0.001522348,0.000000000,0.000000000,0.000000000,0.000000000,0.017890690,0.007391135,0.072017582,0.018946997,-0.000224289,-0.003337487,0.004511092,0.000537086,-0.001812868,-0.817433353,0.132251615,4.188320228,-0.007086443,-0.001413981,0.036532635,0.999306994,0.000000000,0.000000000,0.000000000,0.000000000,0.000000000,0.000000000,4.187760027,0.000000000,4.216100454
1772717118.022721529,0.017552000,0.007408000,0.072060000,-0.008374490,0.007564730,0.045519440,0.998899710,-0.016045000,0.015876000,0.090949000,-0.000005031,-0.000427982,0.000794329,0.002889561,-0.004349630,0.004840153,0.007087471,-0.014382449,0.998548292,0.001408952,0.001341717,-0.001704586,0.000000000,0.000000000,0.000000000,0.000000000,0.017904058,0.007398092,0.072007507,0.018911497,-0.000102481,-0.003444723,0.004922721,0.000167009,-0.001231920,-0.819448763,0.131615181,4.193292669,-0.007104161,-0.001409381,0.036576015,0.999305545,0.000000000,0.000000000,0.000000000,0.000000000,0.000000000,0.000000000,4.192738258,0.000000000,4.215559338
1772717118.032721996,0.017522000,0.007390000,0.072103000,-0.008739600,0.007842270,0.045481360,0.998896170,-0.016750000,0.016463000,0.090863000,-0.000074590,-0.000415336,0.000901883,-0.011537792,0.000747238,-0.000314915,0.005659144,-0.013515115,0.998231001,-0.000862996,-0.001425104,-0.000843026,0.000000000,0.000000000,0.000000000,0.000000000,0.017877236,0.007393232,0.072027942,0.018791666,-0.000046705,-0.003345190,0.002726697,0.001037201,-0.001692087,-0.818282290,0.131193508,4.198223318,-0.007094062,-0.001405637,0.036619050,0.999304113,0.000000000,0.000000000,0.000000000,0.000000000,0.000000000,0.000000000,4.197747135,0.000000000,4.215018197
1772717118.042721510,0.017546000,0.007416000,0.072056000,-0.008408170,0.007423870,0.045512780,0.998900780,-0.016125000,0.015597000,0.090937000,-0.000290514,-0.000737998,0.001366072,-0.034308859,0.026332486,-0.007336549,0.004596305,-0.013443458,0.996815573,0.001704661,0.000497133,0.000682061,0.000000000,0.000000000,0.000000000,0.000000000,0.017772530,0.007388739,0.072055191,0.018263351,0.000103100,-0.003288252,0.002948276,0.001098272,-0.003253638,-0.818132512,0.131202903,4.203120206,-0.007092693,-0.001405974,0.036661759,0.999302390,0.000000000,0.000000000,0.000000000,0.000000000,0.000000000,0.000000000,4.202637953,0.000000000,4.214477106
1772717118.052721500,0.017535000,0.007371000,0.072121000,-0.009061000,0.008022190,0.045314950,0.998899440,-0.017378000,0.016849000,0.090521000,-0.000533768,-0.000577182,0.001176954,-0.050723497,0.055098193,-0.011232010,0.006554765,-0.014129461,0.997851447,0.001806116,0.001000230,-0.000542290,0.000000000,0.000000000,0.000000000,0.000000000,0.017785697,0.007386096,0.072062950,0.018052279,0.000247417,-0.003406022,0.004023941,0.000254620,-0.001618582,-0.817158510,0.131742258,4.208489680,-0.007083961,-0.001410698,0.036708561,0.999300560,0.000000000,0.000000000,0.000000000,0.000000000,0.000000000,0.000000000,4.207947634,0.000000000,4.213935990
1772717118.062721491,0.017516000,0.007377000,0.072125000,-0.009268440,0.008183750,0.045307330,0.998896580,-0.017778000,0.017190000,0.090500000,-0.000879914,-0.000938304,0.001552742,-0.069481940,0.094621446,-0.015437811,0.007968008,-0.014689487,0.999113373,-0.000173509,-0.001045304,0.000984073,0.000000000,0.000000000,0.000000000,0.000000000,0.017693598,0.007380168,0.072089394,0.017693795,0.000337756,-0.003275924,0.005845792,0.000300091,-0.001210916,-0.817256175,0.132518099,4.212902981,-0.007084509,-0.001417768,0.036746997,0.999299343,0.000000000,0.000000000,0.000000000,0.000000000,0.000000000,0.000000000,4.212437159,0.000000000,4.213394874
1772717118.072721243,0.017513000,0.007380000,0.072126000,-0.009423450,0.008441250,0.045311520,0.998892790,-0.018065000,0.017719000,0.090501000,-0.000328858,-0.000191254,0.000244691,-0.044285534,0.068324670,-0.006187959,0.009810544,-0.014042466,0.997220225,0.000514698,-0.000454787,0.000325855,0.000000000,0.000000000,0.000000000,0.000000000,0.017690318,0.007377146,0.072094346,0.017785212,0.000408394,-0.003226324,0.007153734,0.001041321,-0.002023799,-0.816944373,0.133079910,4.216684036,-0.007081562,-0.001422801,0.036779939,0.999298049,0.000000000,0.000000000,0.000000000,0.000000000,0.000000000,0.000000000,4.216251489,0.000000000,4.212853771
1772717118.082721233,0.017517000,0.007369000,0.072125000,-0.009754580,0.009072410,0.045235670,0.998887520,-0.018671000,0.019008000,0.090333000,-0.000311531,0.000138983,-0.000307219,-0.023036949,0.033784446,-0.002897216,0.008493057,-0.013122805,0.998681933,0.003005537,0.000520157,0.000295819,0.000000000,0.000000000,0.000000000,0.000000000,0.017780255,0.007379132,0.072080363,0.018203344,0.000498353,-0.003326829,0.005837848,0.001319788,-0.001538969,-0.817905497,0.134410853,4.220066380,-0.007089474,-0.001434925,0.036809333,0.999296725,0.000000000,0.000000000,0.000000000,0.000000000,0.000000000,0.000000000,4.219654333,0.000000000,4.212316990
1772717118.092721224,0.017511000,0.007371000,0.072134000,-0.010080900,0.009440610,0.045210130,0.998882020,-0.019291000,0.019773000,0.090269000,0.000554105,0.000895065,-0.001613056,0.025475968,-0.039541871,0.004646987,0.006625422,-0.013747085,0.997334721,-0.003582783,0.007151569,0.002477910,0.000000000,0.000000000,0.000000000,0.000000000,0.017796189,0.007390867,0.072059853,0.018310569,0.000643179,-0.003466444,0.004005671,0.000290121,-0.001869681,-0.816692370,0.134164066,4.224865174,-0.007078915,-0.001432680,0.036851213,0.999295448,0.000000000,0.000000000,0.000000000,0.000000000,0.000000000,0.000000000,4.224257632,0.000000000,4.212316990
1772717118.102720737,0.017510000,0.007378000,0.072117000,-0.009748670,0.008963220,0.045236420,0.998888530,-0.018669000,0.018790000,0.090336000,0.000672615,0.000856643,-0.001339111,0.052572543,-0.091658343,0.007781989,0.005838523,-0.014562651,0.998706522,0.001504581,-0.001464137,0.001195494,0.000000000,0.000000000,0.000000000,0.000000000,0.017788060,0.007406343,0.072037581,0.018207187,0.000773837,-0.003609615,0.003916314,-0.000024723,-0.001017678,-0.818298669,0.133132735,4.228638891,-0.007093207,-0.001424436,0.036884171,0.999293867,0.000000000,0.000000000,0.000000000,0.000000000,0.000000000,0.000000000,4.228219367,0.000000000,4.212316990
1772717118.112721443,0.017539000,0.007417000,0.072052000,-0.008875190,0.007597710,0.045435360,0.998898960,-0.017043000,0.015986000,0.090772000,0.000325439,0.000753829,-0.000699382,0.055746641,-0.110175739,0.010404097,0.007133679,-0.014531851,1.000451291,-0.003328139,-0.000332665,-0.003131533,0.000000000,0.000000000,0.000000000,0.000000000,0.017881944,0.007409913,0.072021235,0.018361929,0.000782561,-0.003623361,0.004793896,-0.000255417,0.000467589,-0.818585043,0.133380959,4.233524881,-0.007095564,-0.001426996,0.036926761,0.999292527,0.000000000,0.000000000,0.000000000,0.000000000,0.000000000,0.000000000,4.232892726,0.000000000,4.212316990
1772717118.122721910,0.017522000,0.007392000,0.072098000,-0.009008520,0.007631150,0.045291360,0.998904050,-0.017309000,0.016062000,0.090481000,-0.000086711,0.000579183,-0.000293913,0.045080871,-0.097484918,0.010332770,0.007883660,-0.014703261,1.000197803,-0.001875133,-0.003498823,-0.000478329,0.000000000,0.000000000,0.000000000,0.000000000,0.017884786,0.007414602,0.072020140,0.018320739,0.000801406,-0.003423560,0.005082101,0.000386431,0.000565496,-0.819210314,0.134271210,4.237209996,-0.007100683,-0.001435189,0.036958829,0.999291397,0.000000000,0.000000000,0.000000000,0.000000000,0.000000000,0.000000000,4.236797436,0.000000000,4.212316990
1772717118.132721901,0.017547000,0.007417000,0.072069000,-0.008344480,0.006781870,0.045517480,0.998905670,-0.016056000,0.014309000,0.090957000,-0.000300168,0.000376332,-0.000269477,0.025596679,-0.059186533,0.008263667,0.007121206,-0.013621780,1.000050512,0.000035066,0.003355233,0.001447105,0.000000000,0.000000000,0.000000000,0.000000000,0.017989461,0.007426765,0.071996805,0.018601057,0.000894053,-0.003319372,0.004927551,0.000235317,-0.000939108,-0.818930389,0.134820825,4.234913003,-0.007098094,-0.001439749,0.036938768,0.999291297,0.000000000,0.000000000,0.000000000,0.000000000,0.000000000,0.000000000,4.235381309,0.000000000,4.212316990
1772717118.142721653,0.017510000,0.007405000,0.072102000,-0.008660650,0.006992550,0.045479830,0.998903240,-0.016669000,0.014758000,0.090874000,-0.000293797,0.000359840,-0.000361297,0.011583780,-0.023083598,0.006038179,0.007316922,-0.014748716,0.998491424,-0.000403381,0.002494985,-0.001265303,0.000000000,0.000000000,0.000000000,0.000000000,0.018240194,0.007438830,0.071952312,0.019288971,0.001005361,-0.003372734,0.005066966,-0.000738646,-0.002380318,-0.818054057,0.136473701,4.234203058,-0.007089925,-0.001453837,0.036932484,0.999292945,0.000000000,0.000000000,0.000000000,0.000000000,0.000000000,0.000000000,4.236932816,0.000000000,4.212316990
1772717118.152721882,0.017510000,0.007401000,0.072101000,-0.008979120,0.007322590,0.045462080,0.998898870,-0.017276000,0.015446000,0.090828000,-0.000097142,0.000414773,-0.000723157,0.022254049,-0.015353935,0.006210893,0.006770565,-0.015283093,0.996998338,0.000326273,0.000569875,-0.000798027,0.000000000,0.000000000,0.000000000,0.000000000,0.017801654,0.007427927,0.072026879,0.017062210,0.000935308,-0.002877594,0.003665853,-0.000997262,-0.003081717,-0.819292590,0.147204706,4.251958648,-0.007097028,-0.001548915,0.037086632,0.999286572,0.000000000,0.000000000,0.000000000,0.000000000,0.000000000,0.000000000,4.244438802,0.000000000,4.212316990
1772717118.162722349,0.017517000,0.007423000,0.072052000,-0.008465550,0.006844630,0.045517780,0.998904210,-0.016292000,0.014445000,0.090955000,0.000740290,0.000789745,-0.001517370,0.048643221,-0.046479109,0.012396556,0.007184480,-0.015036632,0.996569864,-0.000065598,-0.000793155,0.000520364,0.000000000,0.000000000,0.000000000,0.000000000,0.017818321,0.007438902,0.072005727,0.017073902,0.000887696,-0.003109457,0.005335280,-0.000171974,-0.003754831,-0.818383058,0.146934514,4.255325055,-0.007089139,-0.001546473,0.037116022,0.999285412,0.000000000,0.000000000,0.000000000,0.000000000,0.000000000,0.000000000,4.251944967,0.000000000,4.212316990
1772717118.172723293,0.017534000,0.007432000,0.072038000,-0.008107830,0.006564960,0.045592210,0.998905660,-0.015601000,0.013855000,0.091113000,0.000674266,0.000321399,-0.000707812,0.048286148,-0.045130833,0.005541325,0.007372077,-0.015416071,0.997600302,0.000663886,-0.000594613,-0.000328014,0.000000000,0.000000000,0.000000000,0.000000000,0.017848186,0.007443476,0.071995729,0.017298417,0.000877272,-0.003365087,0.004750389,-0.001387916,-0.002021006,-0.817971461,0.146260345,4.258654954,-0.007085723,-0.001540666,0.037145105,0.999284466,0.000000000,0.000000000,0.000000000,0.000000000,0.000000000,0.000000000,4.258277902,0.000000000,4.212316990
1772717118.182723522,0.017543000,0.007430000,0.072048000,-0.007806330,0.006372760,0.045603690,0.998908780,-0.015016000,0.013444000,0.091143000,0.000571646,0.000086012,-0.000201025,0.039414071,-0.041856194,0.000168000,0.006476940,-0.013784477,0.999329177,0.001223403,0.000441327,0.002191926,0.000000000,0.000000000,0.000000000,0.000000000,0.017863506,0.007440920,0.071994659,0.017382516,0.000716405,-0.003402767,0.003682128,0.001958624,-0.001049056,-0.817069875,0.146041777,4.261517156,-0.007077894,-0.001538645,0.037170090,0.999283517,0.000000000,0.000000000,0.000000000,0.000000000,0.000000000,0.000000000,4.261148327,0.000000000,4.212316990
1772717118.192723513,0.017540000,0.007423000,0.072058000,-0.007618950,0.006214090,0.045645490,0.998909320,-0.014656000,0.013111000,0.091231000,-0.000309162,-0.000658784,0.001019169,-0.005982674,0.014550617,-0.011612239,0.005220427,-0.013595893,1.000284389,-0.000263931,0.000426843,-0.001715285,0.000000000,0.000000000,0.000000000,0.000000000,0.017874251,0.007438804,0.071995021,0.017339491,0.000874105,-0.003342831,0.002345105,0.000553561,0.000845605,-0.816162033,0.146186254,4.265406992,-0.007069877,-0.001539850,0.037204012,0.999281819,0.000000000,0.000000000,0.000000000,0.000000000,0.000000000,0.000000000,4.264484276,0.000000000,4.212316990
1772717118.202723503,0.017550000,0.007423000,0.072057000,-0.007767560,0.006090480,0.045628980,0.998909690,-0.014964000,0.012877000,0.091198000,-0.000928883,-0.001652041,0.002225279,-0.070066236,0.105825996,-0.025577659,0.005682700,-0.013895459,0.999447708,0.001392402,-0.003206852,-0.002091002,0.000000000,0.000000000,0.000000000,0.000000000,0.017855369,0.007424170,0.072020308,0.017044594,0.000904193,-0.002976255,0.002538286,0.000271270,-0.001180526,-0.815674237,0.146399515,4.269905766,-0.007065494,-0.001541829,0.037243238,0.999280810,0.000000000,0.000000000,0.000000000,0.000000000,0.000000000,0.000000000,4.268934210,0.000000000,4.212316990
1772717118.212723494,0.017506000,0.007395000,0.072100000,-0.008438290,0.007078940,0.045261700,0.998914440,-0.016220000,0.014907000,0.090439000,-0.000882420,-0.001312402,0.001593748,-0.089279869,0.139355027,-0.025507873,0.008443018,-0.015197264,0.998683146,-0.000131930,0.001200454,-0.002167006,0.000000000,0.000000000,0.000000000,0.000000000,0.017847382,0.007413861,0.072033683,0.016888307,0.000875392,-0.002852011,0.006575541,-0.001073588,-0.000883770,-0.814943697,0.147422704,4.272991152,-0.007058749,-0.001550704,0.037270088,0.999279884,0.000000000,0.000000000,0.000000000,0.000000000,0.000000000,0.000000000,4.272578902,0.000000000,4.212316990
1772717118.222723484,0.017513000,0.007391000,0.072094000,-0.008903900,0.007673770,0.045218300,0.998907970,-0.017097000,0.016137000,0.090336000,-0.000484565,-0.000628890,0.000722944,-0.078428742,0.119033132,-0.015504616,0.009570058,-0.014243535,1.000914498,0.001641019,0.000418964,0.000319168,0.000000000,0.000000000,0.000000000,0.000000000,0.017841826,0.007398351,0.072054936,0.017056032,0.000818337,-0.002684219,0.006895207,0.000895189,0.000524767,-0.814675273,0.147912476,4.275611220,-0.007056213,-0.001555049,0.037292909,0.999279036,0.000000000,0.000000000,0.000000000,0.000000000,0.000000000,0.000000000,4.275210672,0.000000000,4.212316990
1772717118.232723475,0.017506000,0.007369000,0.072122000,-0.009513080,0.008839800,0.045123740,0.998897000,-0.018212000,0.018520000,0.090117000,-0.000244924,-0.000535807,0.000804372,-0.061270976,0.090216652,-0.004652401,0.009740508,-0.012582605,1.002307859,0.003404814,0.002263690,-0.000235540,0.000000000,0.000000000,0.000000000,0.000000000,0.017846792,0.007397007,0.072061847,0.017318761,0.000927047,-0.002477690,0.007508055,0.002248355,0.001935431,-0.814984872,0.147066035,4.278542816,-0.007059149,-0.001547949,0.037318523,0.999277945,0.000000000,0.000000000,0.000000000,0.000000000,0.000000000,0.000000000,4.278412771,0.000000000,4.212316990
1772717118.242723227,0.017512000,0.007361000,0.072135000,-0.009901150,0.009316930,0.045089590,0.998890430,-0.018945000,0.019507000,0.090033000,0.000111963,-0.000010412,0.000316931,-0.027734291,0.031420640,0.005480724,0.008701019,-0.012996662,0.998297785,-0.000552605,-0.001963455,0.001505223,0.000000000,0.000000000,0.000000000,0.000000000,0.017856882,0.007415488,0.072048341,0.017615514,0.001209413,-0.002265592,0.006229804,0.001701800,-0.001316001,-0.814657181,0.146474842,4.282543475,-0.007056431,-0.001542934,0.037353453,0.999276652,0.000000000,0.000000000,0.000000000,0.000000000,0.000000000,0.000000000,4.282198398,0.000000000,4.212316990
1772717118.252724409,0.017531000,0.007419000,0.072068000,-0.009093860,0.008035470,0.045413860,0.998894550,-0.017441000,0.016880000,0.090718000,0.000792134,0.000886382,-0.000886946,0.022760332,-0.047291202,0.016448468,0.008167792,-0.014383698,0.998663371,0.000231751,0.006887910,0.001312267,0.000000000,0.000000000,0.000000000,0.000000000,0.017857428,0.007409154,0.072066993,0.017774145,0.001360059,-0.002181883,0.005492903,0.000158566,-0.001983823,-0.814393254,0.145888344,4.286206325,-0.007054271,-0.001537958,0.037385434,0.999275570,0.000000000,0.000000000,0.000000000,0.000000000,0.000000000,0.000000000,4.285760519,0.000000000,4.212316990
1772717118.262724638,0.017517000,0.007391000,0.072106000,-0.009234990,0.007892630,0.045384560,0.998895720,-0.017737000,0.016607000,0.090660000,0.000468210,0.000516344,-0.000650490,0.038585528,-0.059189321,0.013097078,0.007027208,-0.015266574,0.996738651,0.000010820,0.000654697,0.002997856,0.000000000,0.000000000,0.000000000,0.000000000,0.017858378,0.007405086,0.072076017,0.017833378,0.001373611,-0.002194920,0.004718306,-0.000454479,-0.002682939,-0.814203635,0.145303219,4.289576041,-0.007052764,-0.001533001,0.037414858,0.999275162,0.000000000,0.000000000,0.000000000,0.000000000,0.000000000,0.000000000,4.289198774,0.000000000,4.212316990
1772717118.272723913,0.017512000,0.007365000,0.072141000,-0.009567140,0.008545390,0.045294200,0.998891330,-0.018343000,0.017939000,0.090462000,0.000712493,0.000510167,-0.001192921,0.050175617,-0.066243086,0.010916238,0.007261151,-0.015349498,0.996966157,0.000546365,0.000778881,0.002829883,0.000000000,0.000000000,0.000000000,0.000000000,0.017860237,0.007407906,0.072072285,0.017840128,0.001377414,-0.002226168,0.004946259,-0.000468052,-0.002593497,-0.814047089,0.145329837,4.290215079,-0.007051381,-0.001533222,0.037420431,0.999274945,0.000000000,0.000000000,0.000000000,0.000000000,0.000000000,0.000000000,4.290311738,0.000000000,4.212316990
1772717118.282723904,0.017540000,0.007419000,0.072065000,-0.008796600,0.007586950,0.045379400,0.998902280,-0.016888000,0.015956000,0.090661000,0.000448280,-0.000102134,-0.000588001,0.036744351,-0.034712520,0.003195902,0.007495110,-0.015432428,0.997193679,0.001081949,0.000903074,0.002661899,0.000000000,0.000000000,0.000000000,0.000000000,0.017862095,0.007410725,0.072068552,0.017846879,0.001381218,-0.002257418,0.005174227,-0.000481626,-0.002504048,-0.813890531,0.145356456,4.290854162,-0.007049998,-0.001533442,0.037426004,0.999274729,0.000000000,0.000000000,0.000000000,0.000000000,0.000000000,0.000000000,4.291150318,0.000000000,4.212316990
1772717118.292723894,0.017553000,0.007417000,0.072051000,-0.008276470,0.007264100,0.045558020,0.998901000,-0.015875000,0.015267000,0.091032000,0.000064082,-0.000382645,0.000172141,0.014245281,-0.005201158,-0.004901948,0.007729069,-0.015515359,0.997421200,0.001617532,0.001027267,0.002493914,0.000000000,0.000000000,0.000000000,0.000000000,0.017863954,0.007413544,0.072064819,0.017853629,0.001385021,-0.002288668,0.005402195,-0.000495201,-0.002414599,-0.813733974,0.145383076,4.291493245,-0.007048616,-0.001533662,0.037431577,0.999274512,0.000000000,0.000000000,0.000000000,0.000000000,0.000000000,0.000000000,4.291988898,0.000000000,4.212316990
1772717118.302723646,0.017523000,0.007365000,0.072113000,-0.008998410,0.008170720,0.045351000,0.998897170,-0.017239000,0.017140000,0.090592000,-0.000417473,-0.000191487,0.000629084,-0.006992883,0.013661950,-0.010234317,0.007963022,-0.015598287,0.997648717,0.002153103,0.001151457,0.002325934,0.000000000,0.000000000,0.000000000,0.000000000,0.017865812,0.007416364,0.072061087,0.017860380,0.001388824,-0.002319918,0.005630158,-0.000508775,-0.002325152,-0.813577420,0.145409695,4.292132314,-0.007047233,-0.001533883,0.037437151,0.999274295,0.000000000,0.000000000,0.000000000,0.000000000,0.000000000,0.000000000,4.292827458,0.000000000,4.212316990
1772717118.312723160,0.017547000,0.007410000,0.072059000,-0.008499400,0.007286540,0.045386380,0.998906770,-0.016321000,0.015329000,0.090685000,-0.000863519,-0.000131252,0.000894948,-0.025847433,0.028078455,-0.015100809,0.008196970,-0.015681213,0.997876228,0.002688661,0.001275644,0.002157957,0.000000000,0.000000000,0.000000000,0.000000000,0.017867670,0.007419183,0.072057355,0.017867130,0.001392627,-0.002351166,0.005858116,-0.000522349,-0.002235707,-0.813420869,0.145436313,4.292771367,-0.007045851,-0.001534103,0.037442724,0.999274079,0.000000000,0.000000000,0.000000000,0.000000000,0.000000000,0.000000000,4.293665998,0.000000000,4.212316990
1772717118.322723150,0.017510000,0.007375000,0.072129000,-0.009072480,0.007997590,0.045222880,0.998903710,-0.017405000,0.016799000,0.090337000,-0.000811928,-0.000004371,0.000662261,-0.032248195,0.039121664,-0.013167782,0.008430929,-0.015764143,0.998103749,0.003224245,0.001399837,0.001989973,0.000000000,0.000000000,0.000000000,0.000000000,0.017869529,0.007422002,0.072053622,0.017873881,0.001396430,-0.002382417,0.006086085,-0.000535923,-0.002146258,-0.813264312,0.145462933,4.293410450,-0.007044468,-0.001534323,0.037448297,0.999273862,0.000000000,0.000000000,0.000000000,0.000000000,0.000000000,0.000000000,4.294504578,0.000000000,4.212316990
1772717118.332723618,0.017506000,0.007392000,0.072124000,-0.009263180,0.008250440,0.045133390,0.998903950,-0.017765000,0.017320000,0.090151000,-0.000354498,0.000491014,-0.000443521,-0.012825679,0.016471704,-0.007057193,0.008664899,-0.015847078,0.998331282,0.003759854,0.001524036,0.001821980,0.000000000,0.000000000,0.000000000,0.000000000,0.017871387,0.007424822,0.072049889,0.017880632,0.001400234,-0.002413668,0.006314064,-0.000549498,-0.002056805,-0.813107747,0.145489554,4.294049564,-0.007043085,-0.001534543,0.037453870,0.999273645,0.000000000,0.000000000,0.000000000,0.000000000,0.000000000,0.000000000,4.295343198,0.000000000,4.212316990
1772717118.342724323,0.017506000,0.007394000,0.072111000,-0.009425980,0.008572620,0.045079870,0.998902130,-0.018062000,0.017977000,0.090035000,0.000249062,0.000362113,-0.000846251,0.005363814,0.005085082,0.000752584,0.008898875,-0.015930014,0.998558820,0.004295476,0.001648237,0.001653983,0.000000000,0.000000000,0.000000000,0.000000000,0.017878503,0.007429903,0.072038043,0.017947956,0.001366725,-0.002524224,0.006486163,-0.000585575,-0.001603812,-0.812951178,0.145516176,4.294688693,-0.007041703,-0.001534764,0.037459444,0.999273112,0.000000000,0.000000000,0.000000000,0.000000000,0.000000000,0.000000000,4.296181838,0.000000000,4.212316990
1772717118.352725029,0.017525000,0.007422000,0.072050000,-0.008764840,0.007753640,0.045281080,0.998905740,-0.016811000,0.016285000,0.090462000,0.000432294,-0.000188146,-0.000386899,0.005741535,0.006958177,0.002329859,0.008864901,-0.014727441,0.999722895,-0.001303277,-0.001881967,0.001229531,0.000000000,0.000000000,0.000000000,0.000000000,0.017885556,0.007429523,0.072029183,0.018065235,0.001269305,-0.002606302,0.006321746,-0.000576700,0.000311572,-0.812314407,0.145333802,4.296326199,-0.007036188,-0.001533066,0.037473743,0.999272294,0.000000000,0.000000000,0.000000000,0.000000000,0.000000000,0.000000000,4.297020478,0.000000000,4.212691790
1772717118.362725973,0.017526000,0.007393000,0.072083000,-0.008958200,0.008052710,0.045300840,0.998900760,-0.017170000,0.016900000,0.090494000,0.000482934,-0.000140187,-0.000114916,0.008434843,-0.006369217,0.005825934,0.007795126,-0.013937062,0.998614218,-0.000655029,0.003009962,0.001475746,0.000000000,0.000000000,0.000000000,0.000000000,0.017881888,0.007413116,0.072043078,0.018171948,0.001129955,-0.002458388,0.005437600,0.001157398,-0.001643051,-0.812330801,0.145792034,4.299407462,-0.007036140,-0.001537256,0.037500585,0.999271208,0.000000000,0.000000000,0.000000000,0.000000000,0.000000000,0.000000000,4.298936398,0.000000000,4.213216216
1772717118.372726440,0.017519000,0.007380000,0.072104000,-0.009137270,0.008277190,0.045158760,0.998903740,-0.017510000,0.017362000,0.090203000,-0.000175015,-0.000871056,0.001279808,-0.020919269,0.016883417,-0.000323038,0.007724628,-0.013796843,0.996956739,-0.000659843,0.002431123,-0.002017114,0.000000000,0.000000000,0.000000000,0.000000000,0.017888641,0.007421266,0.072031179,0.018245884,0.001228988,-0.002553805,0.004753551,0.000190477,-0.003114410,-0.812165514,0.145788047,4.302905188,-0.007034653,-0.001537382,0.037531091,0.999270242,0.000000000,0.000000000,0.000000000,0.000000000,0.000000000,0.000000000,4.302521869,0.000000000,4.213740617
1772717118.382726669,0.017532000,0.007387000,0.072107000,-0.009194660,0.008364550,0.045190320,0.998901060,-0.017617000,0.017543000,0.090264000,-0.000668788,-0.001018974,0.001824783,-0.056279145,0.048977148,-0.007979619,0.007688385,-0.012736921,0.998938861,0.000630169,0.001007628,-0.001596633,0.000000000,0.000000000,0.000000000,0.000000000,0.017875760,0.007410828,0.072056251,0.018186274,0.001220405,-0.002580193,0.005406664,0.002162975,-0.000506734,-0.812229963,0.145081901,4.305162778,-0.007035416,-0.001531384,0.037550819,0.999269662,0.000000000,0.000000000,0.000000000,0.000000000,0.000000000,0.000000000,4.305043193,0.000000000,4.214265005
1772717118.392725945,0.017515000,0.007383000,0.072120000,-0.009357250,0.008355860,0.045216890,0.998898420,-0.017942000,0.017540000,0.090314000,-0.000490956,-0.000594217,0.000979076,-0.064226411,0.058389726,-0.007738584,0.006048281,-0.012701455,0.998789960,-0.000713956,-0.000627183,0.001554922,0.000000000,0.000000000,0.000000000,0.000000000,0.017867063,0.007414830,0.072066176,0.018209907,0.001419484,-0.002539451,0.002564177,0.001484324,-0.001509502,-0.812867558,0.144521549,4.306924018,-0.007041136,-0.001526815,0.037566203,0.999268768,0.000000000,0.000000000,0.000000000,0.000000000,0.000000000,0.000000000,4.306574961,0.000000000,4.214789343
1772717118.402725935,0.017498000,0.007371000,0.072139000,-0.009849720,0.008780830,0.045197040,0.998890940,-0.018888000,0.018434000,0.090259000,0.000003166,0.000290728,-0.000680462,-0.027207838,0.018596489,0.003110327,0.005120397,-0.013768995,0.997876066,0.002915286,-0.000934454,-0.001083418,0.000000000,0.000000000,0.000000000,0.000000000,0.017861997,0.007420031,0.072063342,0.018005039,0.001574649,-0.002550083,0.001715709,0.000264141,-0.001454310,-0.812215479,0.144435514,4.310559946,-0.007035430,-0.001526074,0.037597927,0.999267374,0.000000000,0.000000000,0.000000000,0.000000000,0.000000000,0.000000000,4.309882219,0.000000000,4.215313719
1772717118.412725449,0.017506000,0.007361000,0.072128000,-0.010159240,0.008917390,0.045075220,0.998892130,-0.019497000,0.018732000,0.090007000,0.000524075,0.000744350,-0.001488505,0.018824512,-0.028503295,0.011948952,0.006857664,-0.013241296,0.996632279,0.004465463,-0.000893001,-0.002489521,0.000000000,0.000000000,0.000000000,0.000000000,0.017867215,0.007437039,0.072030463,0.017761075,0.001665230,-0.002742466,0.004287967,0.001111893,-0.003982361,-0.811271134,0.145162849,4.314672074,-0.007026902,-0.001532359,0.037633753,0.999266458,0.000000000,0.000000000,0.000000000,0.000000000,0.000000000,0.000000000,4.314298886,0.000000000,4.215838069
1772717118.422725201,0.017515000,0.007382000,0.072104000,-0.010070040,0.008972100,0.045183060,0.998887670,-0.019312000,0.018835000,0.090223000,0.000899843,0.001425434,-0.002319935,0.077970658,-0.088458096,0.019717161,0.008446607,-0.013704000,0.998157439,0.000673055,0.000511695,-0.001730820,0.000000000,0.000000000,0.000000000,0.000000000,0.017868132,0.007430252,0.072031450,0.017753603,0.001710701,-0.002964138,0.006057165,0.000872152,-0.001055165,-0.809731601,0.145024690,4.317497679,-0.007013484,-0.001530821,0.037658421,0.999265726,0.000000000,0.000000000,0.000000000,0.000000000,0.000000000,0.000000000,4.317192392,0.000000000,4.216362432
1772717118.432724714,0.017545000,0.007413000,0.072052000,-0.009059750,0.008030890,0.045435000,0.998893930,-0.017373000,0.016868000,0.090761000,0.000744000,0.001366014,-0.001866527,0.106693241,-0.118076839,0.022976242,0.008515217,-0.012902564,0.998159704,-0.002439767,-0.001258916,0.000821832,0.000000000,0.000000000,0.000000000,0.000000000,0.017867642,0.007422311,0.072040720,0.017891131,0.001771451,-0.002962078,0.006154170,0.001767784,-0.001713433,-0.808532877,0.144839275,4.319526662,-0.007003065,-0.001528935,0.037676139,0.999265250,0.000000000,0.000000000,0.000000000,0.000000000,0.000000000,0.000000000,4.319361797,0.000000000,4.216886783
1772717118.442725420,0.017535000,0.007420000,0.072054000,-0.008309720,0.007209800,0.045552500,0.998901370,-0.015947000,0.015161000,0.091021000,0.000306908,0.000883061,-0.001087582,0.098795051,-0.118640709,0.021235411,0.007872237,-0.013817450,0.997148322,-0.001148893,-0.001193176,-0.003341807,0.000000000,0.000000000,0.000000000,0.000000000,0.017872775,0.007422222,0.072047290,0.018031509,0.001858706,-0.002970747,0.005993242,0.000465140,-0.002917974,-0.808164740,0.144701041,4.320876310,-0.006999882,-0.001527691,0.037687923,0.999264822,0.000000000,0.000000000,0.000000000,0.000000000,0.000000000,0.000000000,4.320752218,0.000000000,4.217411196
1772717118.452725410,0.017542000,0.007427000,0.072049000,-0.007849190,0.006572540,0.045594180,0.998907580,-0.015084000,0.013847000,0.091120000,-0.000114119,0.000226316,-0.000156038,0.062034906,-0.083463032,0.014232356,0.006741941,-0.014005125,0.998382557,-0.000485130,0.001089105,-0.001952015,0.000000000,0.000000000,0.000000000,0.000000000,0.017867447,0.007420356,0.072057555,0.018077059,0.001907860,-0.003035717,0.004517482,0.000481334,-0.001256752,-0.808085123,0.144263540,4.322347868,-0.006999312,-0.001523939,0.037700783,0.999264306,0.000000000,0.000000000,0.000000000,0.000000000,0.000000000,0.000000000,4.322169296,0.000000000,4.217265650
1772717118.462725639,0.017531000,0.007431000,0.072042000,-0.007577980,0.006338000,0.045687380,0.998906940,-0.014562000,0.013355000,0.091314000,-0.000256463,-0.000356286,0.000365706,0.019985133,-0.040930871,0.005624138,0.006689902,-0.014158262,0.998270039,-0.001466047,0.000515755,-0.002714361,0.000000000,0.000000000,0.000000000,0.000000000,0.017857643,0.007412469,0.072069550,0.017968196,0.001903917,-0.003024841,0.003920831,-0.000034686,-0.001957113,-0.807945312,0.144269731,4.324269349,-0.006998065,-0.001524065,0.037717539,0.999263638,0.000000000,0.000000000,0.000000000,0.000000000,0.000000000,0.000000000,4.324026819,0.000000000,4.216756788
1772717118.472726107,0.017512000,0.007390000,0.072095000,-0.008252620,0.006882260,0.045560420,0.998903790,-0.015862000,0.014502000,0.091043000,-0.000078087,-0.000047279,-0.000009868,0.008199685,-0.020081956,0.004668755,0.008469423,-0.013828258,0.998602626,0.001877005,-0.000424232,-0.001068092,0.000000000,0.000000000,0.000000000,0.000000000,0.017857193,0.007409040,0.072066105,0.017906232,0.001905019,-0.003060279,0.005779012,0.000338357,-0.001090109,-0.808442933,0.144286770,4.325686441,-0.007002380,-0.001524464,0.037729891,0.999262977,0.000000000,0.000000000,0.000000000,0.000000000,0.000000000,0.000000000,4.325540328,0.000000000,4.216247915
1772717118.482726336,0.017540000,0.007414000,0.072049000,-0.008094080,0.006604390,0.045643830,0.998903150,-0.015570000,0.013934000,0.091216000,0.000102503,0.000052466,-0.000021270,0.008388007,-0.004497769,0.001332262,0.008515673,-0.014103219,0.997083176,0.003598786,0.001668683,0.002033166,0.000000000,0.000000000,0.000000000,0.000000000,0.017862032,0.007416278,0.072053175,0.018011114,0.001963573,-0.003114821,0.006657280,0.000349501,-0.003536650,-0.808354560,0.143913676,4.327784562,-0.007001704,-0.001521309,0.037748209,0.999262240,0.000000000,0.000000000,0.000000000,0.000000000,0.000000000,0.000000000,4.327421953,0.000000000,4.215739053
1772717118.492726326,0.017538000,0.007421000,0.072053000,-0.007827120,0.006525630,0.045673760,0.998904430,-0.015043000,0.013752000,0.091281000,-0.000019794,-0.000254909,0.000619663,-0.001879644,0.021504339,-0.004750106,0.006129571,-0.014859967,0.996887166,-0.003045144,0.003015904,-0.000137747,0.000000000,0.000000000,0.000000000,0.000000000,0.017878734,0.007435317,0.072020838,0.018209257,0.002069530,-0.003392316,0.002832399,-0.000730606,-0.002661396,-0.808018995,0.143189303,4.330673993,-0.006998979,-0.001515058,0.037773455,0.999261445,0.000000000,0.000000000,0.000000000,0.000000000,0.000000000,0.000000000,4.330326182,0.000000000,4.215230204
1772717118.502726316,0.017534000,0.007420000,0.072055000,-0.007636270,0.006353230,0.045702400,0.998905710,-0.014677000,0.013391000,0.091343000,0.000044346,-0.000725799,0.001334196,-0.031404404,0.060346321,-0.015030798,0.005893275,-0.015304102,0.997194429,-0.000818428,-0.000150151,0.001267542,0.000000000,0.000000000,0.000000000,0.000000000,0.017882307,0.007447905,0.072004358,0.018071353,0.002043889,-0.003568649,0.004077155,-0.001060591,-0.002807943,-0.808217131,0.142478966,4.332707836,-0.007000915,-0.001509054,0.037791236,0.999260828,0.000000000,0.000000000,0.000000000,0.000000000,0.000000000,0.000000000,4.332511350,0.000000000,4.214721355
1772717118.512726307,0.017535000,0.007427000,0.072056000,-0.007501140,0.006398170,0.045629400,0.998909780,-0.014404000,0.013467000,0.091198000,-0.000094520,-0.000798641,0.001332662,-0.058059574,0.090335152,-0.021241527,0.006793982,-0.015568328,0.997821510,0.002311693,-0.001219711,0.002840710,0.000000000,0.000000000,0.000000000,0.000000000,0.017885351,0.007454529,0.071995174,0.018004904,0.001963756,-0.003692614,0.005044798,-0.001081082,-0.001488986,-0.808273105,0.142023354,4.334104677,-0.007001534,-0.001505184,0.037803443,0.999260459,0.000000000,0.000000000,0.000000000,0.000000000,0.000000000,0.000000000,4.333839959,0.000000000,4.214212506
1772717118.522727013,0.017519000,0.007377000,0.072125000,-0.008604630,0.007723080,0.045320470,0.998905590,-0.016493000,0.016210000,0.090544000,-0.000078708,-0.000605192,0.000776245,-0.068392022,0.085567618,-0.020430919,0.007700804,-0.015618577,0.998847243,-0.000015446,0.002724676,0.000508731,0.000000000,0.000000000,0.000000000,0.000000000,0.017883983,0.007459876,0.071985597,0.017959800,0.001850423,-0.003731149,0.005390362,-0.001112258,-0.000926016,-0.806787895,0.142995087,4.336000625,-0.006988237,-0.001513284,0.037819937,0.999259828,0.000000000,0.000000000,0.000000000,0.000000000,0.000000000,0.000000000,4.335746330,0.000000000,4.213703620
1772717118.532727242,0.017530000,0.007374000,0.072118000,-0.009146750,0.008250070,0.045294540,0.998897730,-0.017529000,0.017311000,0.090475000,0.000146850,-0.000020163,-0.000416288,-0.049188392,0.047933341,-0.008492360,0.007285168,-0.015368846,0.998365919,0.001862348,-0.001731454,-0.001483320,0.000000000,0.000000000,0.000000000,0.000000000,0.017875382,0.007450730,0.071993975,0.017924525,0.001663484,-0.003627278,0.005297239,-0.001142438,-0.001210500,-0.805956384,0.143552815,4.338081343,-0.006980774,-0.001518000,0.037838053,0.999259029,0.000000000,0.000000000,0.000000000,0.000000000,0.000000000,0.000000000,4.337859948,0.000000000,4.213194759
1772717118.542727709,0.017538000,0.007384000,0.072103000,-0.009442210,0.008417990,0.045202210,0.998897760,-0.018106000,0.017672000,0.090282000,0.000095627,0.000547171,-0.000844367,-0.014504316,0.006258785,0.004696750,0.007352036,-0.015725598,0.998060297,0.002718125,-0.003075499,0.001228334,0.000000000,0.000000000,0.000000000,0.000000000,0.017875681,0.007442046,0.071996662,0.017930856,0.001478680,-0.003564440,0.005178481,-0.001262818,-0.001846451,-0.804807517,0.145695825,4.341137694,-0.006970007,-0.001536494,0.037864587,0.999258139,0.000000000,0.000000000,0.000000000,0.000000000,0.000000000,0.000000000,4.340784111,0.000000000,4.212685885
1772717118.552727938,0.017535000,0.007421000,0.072051000,-0.008859740,0.007747310,0.045372380,0.998900810,-0.017000000,0.016282000,0.090644000,-0.000048911,0.000529650,-0.000857381,0.010619527,-0.016748964,0.012981021,0.008042591,-0.014021987,0.998616026,0.000202920,0.000464732,0.000742480,0.000000000,0.000000000,0.000000000,0.000000000,0.017881642,0.007444711,0.071988794,0.017904427,0.001278634,-0.003667206,0.006148752,0.000761606,-0.000721736,-0.802420834,0.145636569,4.344456716,-0.006949170,-0.001535390,0.037893563,0.999257087,0.000000000,0.000000000,0.000000000,0.000000000,0.000000000,0.000000000,4.344262488,0.000000000,4.212316990
1772717118.562727928,0.017538000,0.007424000,0.072044000,-0.008390250,0.007143350,0.045554790,0.998901060,-0.016114000,0.015036000,0.091026000,-0.000296672,-0.000075057,0.000130553,0.008303283,-0.001455210,0.011949655,0.008668910,-0.014921400,1.000118117,-0.000437381,0.002329976,0.000554515,0.000000000,0.000000000,0.000000000,0.000000000,0.017881469,0.007445855,0.071987719,0.018016958,0.001316908,-0.003546270,0.006135181,-0.000486951,-0.000747655,-0.801912428,0.146886384,4.347370574,-0.006944284,-0.001546297,0.037918905,0.999256352,0.000000000,0.000000000,0.000000000,0.000000000,0.000000000,0.000000000,4.347172507,0.000000000,4.212316990
1772717118.572727919,0.017520000,0.007391000,0.072095000,-0.008817610,0.007813170,0.045538400,0.998893120,-0.016907000,0.016413000,0.090976000,-0.000343621,-0.001070411,0.001583375,-0.030068392,0.056791848,-0.001116801,0.008932736,-0.016577063,0.997499627,-0.000044248,-0.001535660,-0.002535299,0.000000000,0.000000000,0.000000000,0.000000000,0.017881218,0.007444247,0.071996376,0.018062554,0.001251804,-0.003415207,0.006346228,-0.001878466,-0.001379181,-0.800657658,0.147833024,4.349471940,-0.006933000,-0.001554263,0.037937187,0.999255550,0.000000000,0.000000000,0.000000000,0.000000000,0.000000000,0.000000000,4.349225501,0.000000000,4.212316990
1772717118.582727909,0.017523000,0.007392000,0.072112000,-0.009097960,0.008304540,0.045432040,0.998891480,-0.017425000,0.017418000,0.090751000,-0.000332724,-0.001067283,0.001901277,-0.054314719,0.081549226,-0.013107011,0.008337520,-0.016818809,0.997484098,-0.000227971,0.000558390,-0.001289375,0.000000000,0.000000000,0.000000000,0.000000000,0.017876206,0.007425058,0.072025678,0.018158376,0.001060189,-0.003195230,0.005847335,-0.002516193,-0.002291086,-0.800318772,0.148326827,4.351313609,-0.006929857,-0.001558569,0.037953223,0.999255041,0.000000000,0.000000000,0.000000000,0.000000000,0.000000000,0.000000000,4.351125484,0.000000000,4.212316990
1772717118.592728376,0.017521000,0.007361000,0.072121000,-0.009687430,0.008995090,0.045308920,0.998885550,-0.018543000,0.018849000,0.090482000,-0.000259590,-0.001175536,0.001864196,-0.075108094,0.098834189,-0.026213488,0.007871971,-0.015643232,0.997789704,-0.001551275,0.000201695,-0.000401684,0.000000000,0.000000000,0.000000000,0.000000000,0.017879536,0.007407801,0.072043053,0.018286488,0.000749439,-0.003242960,0.005788808,-0.001298272,-0.002620545,-0.801640984,0.152865830,4.355241603,-0.006939822,-0.001598826,0.037987177,0.999255643,0.000000000,0.000000000,0.000000000,0.000000000,0.000000000,0.000000000,4.353995452,0.000000000,4.212316990
1772717118.602728367,0.017519000,0.007359000,0.072146000,-0.010047880,0.009323450,0.045224640,0.998882800,-0.019235000,0.019536000,0.090301000,-0.000211864,-0.000032692,0.000059206,-0.045269612,0.048606802,-0.023453465,0.007483952,-0.014392885,0.998501356,-0.000685655,0.002226794,0.000004393,0.000000000,0.000000000,0.000000000,0.000000000,0.017667271,0.007391500,0.072099969,0.013434997,0.000633471,-0.001640546,0.004175976,0.000252278,-0.000913324,-0.804319055,0.163935162,4.363238715,-0.006959380,-0.001696727,0.038056189,0.999254753,0.000000000,0.000000000,0.000000000,0.000000000,0.000000000,0.000000000,4.360644320,0.000000000,4.212316990
1772717118.612728357,0.017530000,0.007383000,0.072118000,-0.009980260,0.009246150,0.045090130,0.998890280,-0.019109000,0.019373000,0.090034000,0.000013578,0.000887451,-0.001452045,0.001439892,-0.016852835,-0.010010170,0.008066310,-0.015163724,0.996589890,0.002475924,-0.003355075,-0.000757654,0.000000000,0.000000000,0.000000000,0.000000000,0.017693905,0.007387455,0.072096400,0.013649809,0.000627830,-0.001736492,0.005103151,-0.000294703,-0.002251081,-0.806997126,0.175004495,4.371235828,-0.006978938,-0.001794627,0.038125201,0.999247279,0.000000000,0.000000000,0.000000000,0.000000000,0.000000000,0.000000000,4.367293188,0.000000000,4.212316990
1772717118.622729301,0.017506000,0.007393000,0.072114000,-0.009781880,0.008793650,0.045051160,0.998898080,-0.018754000,0.018450000,0.089968000,0.000015404,0.000883041,-0.001544312,0.027547120,-0.038032347,0.002623945,0.008297237,-0.014576431,0.998988797,0.000787704,0.001845196,0.000683991,0.000000000,0.000000000,0.000000000,0.000000000,0.017755599,0.007403743,0.072058913,0.014219614,0.000666445,-0.002025464,0.005119218,0.000009744,-0.001190911,-0.807687125,0.174287361,4.374238220,-0.006985150,-0.001788786,0.038151415,0.999246715,0.000000000,0.000000000,0.000000000,0.000000000,0.000000000,0.000000000,4.373942690,0.000000000,4.212316990
1772717118.632729053,0.017516000,0.007360000,0.072118000,-0.010121830,0.009330260,0.045014370,0.998891490,-0.019386000,0.019552000,0.089878000,-0.000071657,0.000503932,-0.000918103,0.031269771,-0.037861819,0.008396251,0.006525206,-0.014335818,0.997855468,-0.000539082,0.000258627,-0.001637869,0.000000000,0.000000000,0.000000000,0.000000000,0.017789816,0.007409351,0.072046695,0.014700274,0.000712442,-0.002144338,0.003292509,-0.000211553,-0.002228566,-0.807225890,0.171018558,4.376387082,-0.006982184,-0.001760259,0.038170370,0.999245959,0.000000000,0.000000000,0.000000000,0.000000000,0.000000000,0.000000000,4.376186576,0.000000000,4.212316990
1772717118.642729044,0.017520000,0.007425000,0.072045000,-0.009191740,0.008146760,0.045272520,0.998899160,-0.017629000,0.017109000,0.090432000,-0.000004545,-0.000223499,0.000062586,0.014224724,-0.012896703,0.010910210,0.006349000,-0.014341764,0.996940547,-0.000850278,0.001564698,0.002110698,0.000000000,0.000000000,0.000000000,0.000000000,0.017797896,0.007395233,0.072066682,0.014830021,0.000681029,-0.002201705,0.003963475,-0.000343665,-0.003597685,-0.807303401,0.169258184,4.378150189,-0.006983420,-0.001745042,0.038185851,0.999245413,0.000000000,0.000000000,0.000000000,0.000000000,0.000000000,0.000000000,4.378004139,0.000000000,4.212316990
1772717118.652729273,0.017527000,0.007396000,0.072083000,-0.009306330,0.008518670,0.045327510,0.998892510,-0.017824000,0.017863000,0.090534000,0.000085993,-0.000699848,0.000967091,-0.003982374,0.007897946,0.007450418,0.006802993,-0.014796899,0.998230322,-0.000505539,0.000728989,0.003709134,0.000000000,0.000000000,0.000000000,0.000000000,0.017799910,0.007387336,0.072080428,0.014921987,0.000672164,-0.002346002,0.003865844,-0.000367278,-0.000529752,-0.808348161,0.167554146,4.379693470,-0.006993074,-0.001730625,0.038199400,0.999244728,0.000000000,0.000000000,0.000000000,0.000000000,0.000000000,0.000000000,4.379434966,0.000000000,4.212316990
1772717118.662729263,0.017516000,0.007367000,0.072126000,-0.009682080,0.009041600,0.045244960,0.998888080,-0.018529000,0.018940000,0.090353000,0.000156581,-0.000477728,0.000966722,-0.010549418,0.017693302,-0.001248610,0.007753763,-0.015212882,0.998218556,-0.000374564,0.004533833,-0.000507715,0.000000000,0.000000000,0.000000000,0.000000000,0.017810441,0.007389147,0.072079435,0.015046568,0.000680343,-0.002346748,0.005615412,-0.000627572,-0.002042502,-0.809350125,0.165305307,4.381510470,-0.007002535,-0.001711460,0.038215369,0.999244125,0.000000000,0.000000000,0.000000000,0.000000000,0.000000000,0.000000000,4.381290625,0.000000000,4.212316990
1772717118.672729254,0.017509000,0.007365000,0.072137000,-0.009928450,0.008951690,0.045157590,0.998890430,-0.019031000,0.018781000,0.090175000,-0.000162797,-0.000244497,0.000698430,-0.012386631,0.017726829,-0.007972950,0.008099243,-0.015371222,0.997801817,-0.000039851,0.006584923,-0.002878694,0.000000000,0.000000000,0.000000000,0.000000000,0.017813471,0.007390137,0.072070701,0.015285092,0.000631529,-0.002487105,0.005589167,-0.000809536,-0.002081294,-0.809837049,0.163947713,4.382799747,-0.007007215,-0.001699863,0.038226683,0.999243915,0.000000000,0.000000000,0.000000000,0.000000000,0.000000000,0.000000000,4.382781153,0.000000000,4.212316990
1772717118.682729483,0.017527000,0.007377000,0.072123000,-0.009806270,0.009021170,0.045208870,0.998888690,-0.018780000,0.018910000,0.090279000,-0.000135661,-0.000383189,0.000400360,-0.019377041,0.030319360,-0.011334374,0.007849877,-0.015391377,0.997829922,0.000255768,0.005563990,-0.002850082,0.000000000,0.000000000,0.000000000,0.000000000,0.017814032,0.007391611,0.072068066,0.015335638,0.000616367,-0.002519548,0.005276184,-0.000976469,-0.001835182,-0.809843651,0.163224265,4.382934537,-0.007007512,-0.001693565,0.038227904,0.999243856,0.000000000,0.000000000,0.000000000,0.000000000,0.000000000,0.000000000,4.382913835,0.000000000,4.212316990
1772717118.692729712,0.017520000,0.007377000,0.072107000,-0.009663690,0.008833110,0.045111600,0.998896160,-0.018513000,0.018520000,0.090090000,0.000102775,0.001026278,-0.001233752,0.015761561,-0.021049544,-0.002861032,0.007600510,-0.015411531,0.997858027,0.000551387,0.004543057,-0.002821470,0.000000000,0.000000000,0.000000000,0.000000000,0.017814260,0.007393150,0.072066249,0.015360963,0.000605722,-0.002537512,0.004963202,-0.001143401,-0.001589070,-0.809850252,0.162500817,4.383069328,-0.007007809,-0.001687267,0.038229125,0.999243798,0.000000000,0.000000000,0.000000000,0.000000000,0.000000000,0.000000000,4.383046518,0.000000000,4.212316990
1772717118.702729225,0.017516000,0.007396000,0.072097000,-0.009573870,0.008902940,0.045103120,0.998896780,-0.018328000,0.018651000,0.090074000,0.000046755,0.000853302,-0.000891025,0.023091039,-0.028477703,0.001166258,0.007351162,-0.015431684,0.997886130,0.000846985,0.003522197,-0.002792861,0.000000000,0.000000000,0.000000000,0.000000000,0.017814489,0.007394688,0.072064432,0.015386286,0.000595077,-0.002555475,0.004650539,-0.001245667,-0.001467497,-0.809856854,0.161777420,4.383204109,-0.007008106,-0.001680969,0.038230346,0.999243739,0.000000000,0.000000000,0.000000000,0.000000000,0.000000000,0.000000000,4.383179191,0.000000000,4.212316990
1772717118.712728739,0.017514000,0.007387000,0.072100000,-0.009634340,0.008890530,0.045152570,0.998894080,-0.018449000,0.018633000,0.090172000,0.000271420,0.000654317,-0.000798661,0.031209753,-0.038048034,0.007775980,0.007101814,-0.015451836,0.997914233,0.001142583,0.002501337,-0.002764251,0.000000000,0.000000000,0.000000000,0.000000000,0.017814718,0.007396227,0.072062616,0.015411609,0.000584432,-0.002573437,0.004339758,-0.000937269,-0.002136844,-0.809863455,0.161054024,4.383338890,-0.007008403,-0.001674671,0.038231567,0.999243681,0.000000000,0.000000000,0.000000000,0.000000000,0.000000000,0.000000000,4.383311864,0.000000000,4.212316990
1772717118.722729445,0.017524000,0.007388000,0.072106000,-0.009567050,0.008746190,0.045177430,0.998894880,-0.018327000,0.018339000,0.090225000,0.000167323,0.000230978,-0.000316096,0.029424147,-0.045358022,0.009028077,0.006852436,-0.015471992,0.997942339,0.001438217,0.001480356,-0.002735638,0.000000000,0.000000000,0.000000000,0.000000000,0.017814947,0.007397766,0.072060799,0.015436935,0.000573785,-0.002591402,0.004028940,-0.000628833,-0.002806270,-0.809870057,0.160330542,4.383473687,-0.007008700,-0.001668373,0.038232788,0.999243623,0.000000000,0.000000000,0.000000000,0.000000000,0.000000000,0.000000000,4.383444553,0.000000000,4.212316990
1772717118.732729912,0.017531000,0.007434000,0.072061000,-0.008841500,0.007713760,0.045309610,0.998904080,-0.016968000,0.016213000,0.090519000,0.000306539,0.000169479,-0.000374622,0.029968735,-0.049212334,0.013989476,0.006533412,-0.014660471,0.996983696,0.001883610,-0.000754233,0.000292004,0.000000000,0.000000000,0.000000000,0.000000000,0.017815176,0.007399305,0.072058983,0.015462260,0.000563140,-0.002609366,0.003718129,-0.000320406,-0.003475680,-0.809661817,0.159354498,4.383841421,-0.007007204,-0.001659815,0.038236059,0.999243564,0.000000000,0.000000000,0.000000000,0.000000000,0.000000000,0.000000000,4.383675564,0.000000000,4.212316990
1772717118.742729664,0.017518000,0.007379000,0.072112000,-0.009239990,0.008360360,0.045262210,0.998897420,-0.017706000,0.017540000,0.090407000,0.000511507,0.000437752,-0.001037505,0.045699471,-0.075599127,0.019450235,0.006663945,-0.014230583,0.996684205,0.000667054,-0.001003835,0.002477010,0.000000000,0.000000000,0.000000000,0.000000000,0.017815959,0.007399388,0.072054529,0.015506915,0.000563406,-0.002795357,0.004120886,-0.000201529,-0.003333921,-0.808939323,0.157773925,4.384766722,-0.007001419,-0.001645848,0.038244238,0.999243035,0.000000000,0.000000000,0.000000000,0.000000000,0.000000000,0.000000000,4.385347607,0.000000000,4.212316990
1772717118.752730370,0.017549000,0.007412000,0.072052000,-0.008605680,0.007601830,0.045496020,0.998898530,-0.016504000,0.015971000,0.090898000,0.000612632,0.000317281,-0.000911110,0.048388385,-0.075773326,0.020489431,0.007672670,-0.014909310,0.998845411,-0.001223670,0.001696695,0.000918263,0.000000000,0.000000000,0.000000000,0.000000000,0.017820339,0.007399641,0.072051899,0.015599081,0.000576452,-0.002988125,0.005030539,-0.000436801,-0.000888032,-0.807676517,0.156590297,4.387364995,-0.006990765,-0.001635263,0.038266982,0.999242252,0.000000000,0.000000000,0.000000000,0.000000000,0.000000000,0.000000000,4.387019811,0.000000000,4.212316990
