t,px,py,pz,qx,qy,qz,qw,roll,pitch,yaw,vx,vy,vz,wx_vicon,wy_vicon,wz_vicon,imu_acc_x,imu_acc_y,imu_acc_z,imu_gyro_x,imu_gyro_y,imu_gyro_z,motor_motor_m1,motor_motor_m2,motor_motor_m3,motor_motor_m4,est_stateEstimate_x,est_stateEstimate_y,est_stateEstimate_z,est_stateEstimate_vx,est_stateEstimate_vy,est_stateEstimate_vz,est_stateEstimate_ax,est_stateEstimate_ay,est_stateEstimate_az,att_stateEstimate_roll,att_stateEstimate_pitch,att_stateEstimate_yaw,att_stateEstimate_qx,att_stateEstimate_qy,att_stateEstimate_qz,att_stateEstimate_qw,sp_ctrltarget_x,sp_ctrltarget_y,sp_ctrltarget_z,sp_ctrltarget_yaw,pid_controller_roll,pid_controller_pitch,pid_controller_yaw,pid_controller_cmd_thrust,pwr_pm_vbat
1772429019.464108706,0.020564000,0.005764000,0.071940000,-0.008633310,0.017300950,0.027060860,0.999446770,-0.016331000,0.035057000,0.053852000,-0.009372406,0.018147745,-0.014083308,0.065915788,-0.256439304,-0.152804039,0.014247401,-0.004499787,1.001647347,-0.003815388,0.002996951,0.002500485,0.000000000,0.000000000,0.000000000,0.000000000,0.020968948,0.006261985,0.071716025,0.031308022,0.006487792,0.001086034,0.009691290,0.001568033,0.001068970,-0.338880867,0.254847054,2.058864334,-0.002916846,-0.002276723,0.017959299,0.999830837,0.000000000,0.000000000,0.000000000,0.000000000,0.000000000,0.000000000,2.059651314,0.000000000,4.154252052
1772429019.474108696,0.020580000,0.005754000,0.071932000,-0.008745670,0.017195180,0.027017730,0.999448790,-0.016563000,0.034851000,0.053763000,-0.008308186,0.015497859,-0.010596824,0.240477637,-0.460089074,-0.389829659,0.012527733,-0.004295128,0.999328635,-0.000873727,0.001639822,0.002487108,0.000000000,0.000000000,0.000000000,0.000000000,0.020965903,0.006261692,0.071713121,0.031251145,0.006411138,0.001105062,0.008589387,0.001706680,-0.000316016,-0.338955592,0.255238572,2.056856345,-0.002917477,-0.002280099,0.017941767,0.999831145,0.000000000,0.000000000,0.000000000,0.000000000,0.000000000,0.000000000,2.057699075,0.000000000,4.154252052
1772429019.484108210,0.020384000,0.006088000,0.071712000,-0.006403610,0.013182240,0.023505000,0.999616300,-0.012187000,0.026659000,0.046857000,-0.006527765,0.011809160,-0.007323162,0.309645042,-0.526084403,-0.473094654,0.013560283,-0.005374204,0.998324273,-0.000844859,-0.000848305,-0.000123241,0.000000000,0.000000000,0.000000000,0.000000000,0.020964997,0.006255640,0.071708285,0.031095675,0.006319629,0.000944143,0.008493129,0.001140908,-0.001652563,-0.339070121,0.254835381,2.054918809,-0.002918578,-0.002276550,0.017924868,0.999831417,0.000000000,0.000000000,0.000000000,0.000000000,0.000000000,0.000000000,2.055462486,0.000000000,4.154252052
1772429019.494108438,0.020352000,0.006174000,0.071664000,-0.004669700,0.010221680,0.020991180,0.999716500,-0.008910000,0.020635000,0.041896000,-0.004350723,0.007612420,-0.004381201,0.298720643,-0.487813776,-0.440840782,0.014593059,-0.006927769,0.999181427,0.001086650,-0.002515496,0.000143429,0.000000000,0.000000000,0.000000000,0.000000000,0.020967660,0.006246677,0.071706777,0.031038789,0.006161963,0.000763136,0.009928713,-0.000038597,-0.001054994,-0.338398079,0.254373398,2.053201810,-0.002912820,-0.002272370,0.017909913,0.999831711,0.000000000,0.000000000,0.000000000,0.000000000,0.000000000,0.000000000,2.053912282,0.000000000,4.154252052
1772429019.504107952,0.020337000,0.006179000,0.071671000,-0.003571670,0.008458630,0.019376580,0.999770100,-0.006815000,0.017053000,0.038699000,-0.002096641,0.003438407,-0.001889823,0.233240797,-0.378755695,-0.331088596,0.014084471,-0.006509273,0.999847536,0.001186069,-0.001655900,0.000415808,0.000000000,0.000000000,0.000000000,0.000000000,0.020975000,0.006233065,0.071711355,0.031066780,0.005935377,0.000694899,0.009964505,-0.000872159,-0.000060024,-0.337807679,0.253882088,2.051496124,-0.002907780,-0.002267948,0.017895057,0.999832054,0.000000000,0.000000000,0.000000000,0.000000000,0.000000000,0.000000000,2.052171867,0.000000000,4.154252052
1772429019.514107704,0.020342000,0.006157000,0.071684000,-0.002889050,0.007470330,0.018388270,0.999798840,-0.005503000,0.015044000,0.036738000,-0.000085101,-0.000182110,0.000032090,0.138358615,-0.232420308,-0.182080688,0.013261791,-0.004791546,0.999978239,0.000285682,-0.000885165,0.001000408,0.000000000,0.000000000,0.000000000,0.000000000,0.020986999,0.006212333,0.071722622,0.031085766,0.005690651,0.000721455,0.008216704,0.001283859,-0.000138160,-0.336780130,0.254980881,2.050278813,-0.002898667,-0.002277344,0.017884428,0.999832268,0.000000000,0.000000000,0.000000000,0.000000000,0.000000000,0.000000000,2.050731196,0.000000000,4.154252052
1772429019.524107695,0.020357000,0.006143000,0.071683000,-0.002476720,0.006964800,0.018051160,0.999809740,-0.004702000,0.014017000,0.036072000,0.001578887,-0.003116048,0.001705324,0.042558031,-0.078401679,-0.038412516,0.013234348,-0.003119203,0.999511931,-0.000248244,-0.002608142,0.000779768,0.000000000,0.000000000,0.000000000,0.000000000,0.021002525,0.006182530,0.071741731,0.031020588,0.005573057,0.000779084,0.009231866,0.002636344,-0.000800139,-0.336095525,0.254112258,2.048124335,-0.002892872,-0.002269604,0.017865665,0.999832578,0.000000000,0.000000000,0.000000000,0.000000000,0.000000000,0.000000000,2.049196797,0.000000000,4.154252052
1772429019.534107924,0.020367000,0.006139000,0.071680000,-0.002349400,0.006661130,0.018070920,0.999811760,-0.004458000,0.013405000,0.036115000,0.000618085,-0.001386248,0.000706294,-0.000906181,-0.014658592,0.018913530,0.013181760,-0.003849782,0.999083643,-0.000855697,-0.003842647,-0.006757607,0.000000000,0.000000000,0.000000000,0.000000000,0.021022093,0.006148335,0.071762666,0.031074395,0.005504820,0.000784719,0.008509214,0.002548197,-0.000992063,-0.335968927,0.253625864,2.046197232,-0.002891881,-0.002265291,0.017848866,0.999832912,0.000000000,0.000000000,0.000000000,0.000000000,0.000000000,0.000000000,2.046874781,0.000000000,4.154252052
1772429019.544107914,0.020352000,0.006131000,0.071685000,-0.002486200,0.006380840,0.018215240,0.999810640,-0.004739000,0.012850000,0.036403000,0.000251379,-0.000321951,0.000318979,-0.027185779,0.033262474,0.045786541,0.012457065,-0.004290239,0.999084460,0.002591567,-0.004842921,0.000182880,0.000000000,0.000000000,0.000000000,0.000000000,0.021035693,0.006120466,0.071779300,0.031058621,0.005448124,0.000768064,0.008221536,0.002058345,-0.000690606,-0.335783755,0.254231399,2.044664665,-0.002890201,-0.002270507,0.017835482,0.999833151,0.000000000,0.000000000,0.000000000,0.000000000,0.000000000,0.000000000,2.045585243,0.000000000,4.154252052
1772429019.554107904,0.020367000,0.006119000,0.071696000,-0.002661170,0.006759120,0.018482340,0.999802800,-0.005072000,0.013614000,0.036933000,-0.000098815,0.000161655,0.000146581,-0.040268225,0.069800165,0.053806111,0.012929652,-0.004081024,0.999700093,0.001959504,-0.002959039,0.001514149,0.000000000,0.000000000,0.000000000,0.000000000,0.021048749,0.006094475,0.071793994,0.031049592,0.005392631,0.000770010,0.008282722,0.001776428,-0.000241544,-0.335329943,0.255158355,2.043175016,-0.002886127,-0.002278487,0.017822469,0.999833391,0.000000000,0.000000000,0.000000000,0.000000000,0.000000000,0.000000000,2.043929514,0.000000000,4.154252052
1772429019.564108372,0.020358000,0.006135000,0.071694000,-0.002871450,0.007332620,0.018760700,0.999792990,-0.005467000,0.014770000,0.037484000,-0.000206410,0.000293998,-0.000062704,-0.039988276,0.083837761,0.049666622,0.013768774,-0.003672921,1.000503964,0.000078643,-0.000192166,0.001128381,0.000000000,0.000000000,0.000000000,0.000000000,0.021061414,0.006071087,0.071805802,0.031058001,0.005338150,0.000805197,0.009088782,0.002293141,0.000398556,-0.334591948,0.256171953,2.044603988,-0.002879502,-0.002287252,0.017834925,0.999833266,0.000000000,0.000000000,0.000000000,0.000000000,0.000000000,0.000000000,2.043172493,0.000000000,4.154252052
1772429019.574108362,0.020360000,0.006139000,0.071698000,-0.003119300,0.007708250,0.018963760,0.999785590,-0.005946000,0.015532000,0.037885000,0.000067249,0.000130051,-0.000240870,-0.033883088,0.073422986,0.044890695,0.014228256,-0.004426264,1.001186465,0.000493690,-0.000889546,-0.000664384,0.000000000,0.000000000,0.000000000,0.000000000,0.021081468,0.006035298,0.071826908,0.031163139,0.005278410,0.000915057,0.009728530,0.002046732,0.001393878,-0.333696802,0.256905375,2.048725136,-0.002871495,-0.002293615,0.017870882,0.999832647,0.000000000,0.000000000,0.000000000,0.000000000,0.000000000,0.000000000,2.047092397,0.000000000,4.154252052
1772429019.584108353,0.020360000,0.006138000,0.071687000,-0.003225630,0.008208880,0.019120090,0.999778290,-0.006137000,0.016538000,0.038193000,0.000463520,-0.000362296,-0.000075175,-0.029599415,0.051074821,0.046130908,0.013997232,-0.005964879,1.001533528,0.000851338,0.001537453,-0.002056293,0.000000000,0.000000000,0.000000000,0.000000000,0.021102063,0.005999177,0.071853195,0.031331333,0.005178105,0.001147466,0.009742447,0.000389198,0.001420415,-0.333261088,0.256520965,2.054721337,-0.002867633,-0.002290343,0.017923218,0.999831737,0.000000000,0.000000000,0.000000000,0.000000000,0.000000000,0.000000000,2.052401908,0.000000000,4.154252052
1772429019.594108820,0.020365000,0.006124000,0.071684000,-0.003349350,0.008291650,0.019420640,0.999771410,-0.006376000,0.016710000,0.038792000,0.000885995,-0.001237453,0.000495766,-0.033551389,0.034829772,0.055939856,0.013923467,-0.007894480,1.000388880,0.000548059,0.000104315,0.001165905,0.000000000,0.000000000,0.000000000,0.000000000,0.021122626,0.005965327,0.071882609,0.031493029,0.004943421,0.001337643,0.009639900,-0.001448220,0.000466303,-0.333517151,0.256426551,2.061537838,-0.002869746,-0.002289730,0.017982692,0.999830664,0.000000000,0.000000000,0.000000000,0.000000000,0.000000000,0.000000000,2.059269464,0.000000000,4.154252052
1772429019.604109287,0.020376000,0.006114000,0.071692000,-0.003488010,0.008228390,0.019696080,0.999766070,-0.006651000,0.016591000,0.039341000,0.001530615,-0.002354994,0.001395223,-0.046352577,0.049191595,0.077328764,0.014137027,-0.007216566,1.000518713,0.001737767,-0.002399845,0.002993455,0.000000000,0.000000000,0.000000000,0.000000000,0.021157318,0.005936200,0.071910125,0.031712697,0.004589667,0.001440257,0.009620860,-0.001375770,0.000373847,-0.332879323,0.255688057,2.068051379,-0.002864167,-0.002283349,0.018039553,0.999829675,0.000000000,0.000000000,0.000000000,0.000000000,0.000000000,0.000000000,2.065851401,0.000000000,4.154252052
1772429019.614109516,0.020399000,0.006083000,0.071716000,-0.003811170,0.008461930,0.020120890,0.999754480,-0.007281000,0.017074000,0.040184000,0.001923137,-0.003178500,0.002097826,-0.067207499,0.092615029,0.106179164,0.014153339,-0.005067092,1.000359510,-0.001533383,0.002284679,0.004209390,0.000000000,0.000000000,0.000000000,0.000000000,0.021184223,0.005910385,0.071929946,0.031880152,0.004336610,0.001513546,0.009363637,0.000989584,0.000513732,-0.331719059,0.257410777,2.073686801,-0.002853659,-0.002298338,0.018088701,0.999828756,0.000000000,0.000000000,0.000000000,0.000000000,0.000000000,0.000000000,2.071535601,0.000000000,4.154252052
1772429019.624109983,0.020418000,0.006047000,0.071745000,-0.004192770,0.009184770,0.020760330,0.999733500,-0.008003000,0.018540000,0.041452000,0.002276440,-0.003886328,0.002588658,-0.093472007,0.152617168,0.138743574,0.014519615,-0.004341379,0.999525489,-0.001556582,0.006029260,0.003491411,0.000000000,0.000000000,0.000000000,0.000000000,0.021188404,0.005886879,0.071942508,0.031941810,0.004294584,0.001530983,0.009706957,0.002440631,-0.000226801,-0.333417458,0.255935288,2.081130890,-0.002868562,-0.002285919,0.018153660,0.999827629,0.000000000,0.000000000,0.000000000,0.000000000,0.000000000,0.000000000,2.078094894,0.000000000,4.154252052
1772429019.634110689,0.020444000,0.006005000,0.071770000,-0.004731540,0.010160660,0.021525940,0.999705460,-0.009025000,0.020520000,0.042965000,0.002323196,-0.004238271,0.002631607,-0.114894435,0.215623938,0.169067374,0.014876646,-0.005030337,0.999434811,0.002569432,0.003697410,0.002663483,0.000000000,0.000000000,0.000000000,0.000000000,0.021190101,0.005872181,0.071949653,0.032034876,0.004359327,0.001478072,0.010151588,0.001183512,-0.000683079,-0.335540654,0.253936221,2.089316879,-0.002887242,-0.002269020,0.018225092,0.999826392,0.000000000,0.000000000,0.000000000,0.000000000,0.000000000,0.000000000,2.085818297,0.000000000,4.154252052
1772429019.644111156,0.020463000,0.005958000,0.071798000,-0.005380920,0.011333840,0.022439940,0.999669460,-0.010252000,0.022904000,0.044770000,0.002271467,-0.004314631,0.002629237,-0.124692554,0.247049654,0.192404226,0.013983498,-0.005814607,1.001159827,0.001090989,-0.002671183,0.005329450,0.000000000,0.000000000,0.000000000,0.000000000,0.021188821,0.005865085,0.071953854,0.032152543,0.004356284,0.001439040,0.009782811,0.000846053,0.000957792,-0.337010071,0.252092960,2.097795063,-0.002900190,-0.002253385,0.018299081,0.999824975,0.000000000,0.000000000,0.000000000,0.000000000,0.000000000,0.000000000,2.094728022,0.000000000,4.154252052
1772429019.654111147,0.020487000,0.005919000,0.071815000,-0.006052070,0.012669050,0.023421390,0.999627080,-0.011510000,0.025615000,0.046704000,0.002020826,-0.003968846,0.002610978,-0.124084774,0.252041532,0.197791205,0.013983625,-0.006387447,1.001547304,0.002181623,-0.002949961,-0.000990256,0.000000000,0.000000000,0.000000000,0.000000000,0.021188871,0.005856702,0.071960052,0.032292376,0.004321616,0.001533444,0.009594514,-0.000377865,0.001517755,-0.337210142,0.252084525,2.107020228,-0.002901755,-0.002253577,0.018379569,0.999823464,0.000000000,0.000000000,0.000000000,0.000000000,0.000000000,0.000000000,2.103901306,0.000000000,4.154252052
1772429019.664112091,0.020509000,0.005880000,0.071842000,-0.006732690,0.013950080,0.024470010,0.999580550,-0.012782000,0.028222000,0.048770000,0.001993048,-0.003552839,0.002618087,-0.116047728,0.237603152,0.187585626,0.013624211,-0.005862778,1.000802692,0.002327067,0.000311650,-0.000181177,0.000000000,0.000000000,0.000000000,0.000000000,0.021192429,0.005852714,0.071961913,0.032409336,0.004241805,0.001659955,0.009317840,0.000287997,0.001218756,-0.337470698,0.252418797,2.114076997,-0.002903836,-0.002256714,0.018441130,0.999822347,0.000000000,0.000000000,0.000000000,0.000000000,0.000000000,0.000000000,2.111391381,0.000000000,4.154252052
1772429019.674112797,0.020522000,0.005851000,0.071869000,-0.007250710,0.015005750,0.025368690,0.999539240,-0.013740000,0.030370000,0.050541000,0.001882927,-0.003104063,0.002484637,-0.100994269,0.206303639,0.162058838,0.013065849,-0.005034358,0.999277823,0.000616854,-0.000836288,0.001025225,0.000000000,0.000000000,0.000000000,0.000000000,0.021194208,0.005851182,0.071965851,0.032467430,0.004216311,0.001649879,0.008886688,0.001643920,-0.000697697,-0.335688156,0.252499460,2.111796971,-0.002888316,-0.002257073,0.018421269,0.999821366,0.000000000,0.000000000,0.000000000,0.000000000,0.000000000,0.000000000,2.117630106,0.000000000,4.154252052
1772429019.684112787,0.020543000,0.005820000,0.071901000,-0.007626600,0.015758160,0.026091990,0.999506240,-0.014431000,0.031904000,0.051968000,0.001632053,-0.002472652,0.002032364,-0.082596683,0.166928866,0.125442258,0.012201265,-0.002968668,0.999637143,0.001906023,-0.000468710,-0.001913510,0.000000000,0.000000000,0.000000000,0.000000000,0.021203150,0.005847730,0.071970285,0.032508713,0.004339739,0.001550266,0.007554345,0.002566168,-0.000381450,-0.338268738,0.249231400,2.126793008,-0.002911065,-0.002229355,0.018552144,0.999820276,0.000000000,0.000000000,0.000000000,0.000000000,0.000000000,0.000000000,2.124538543,0.000000000,4.154252052
1772429019.694112778,0.020552000,0.005800000,0.071916000,-0.008082540,0.016701450,0.026574910,0.999474620,-0.015278000,0.033821000,0.052907000,0.001076089,-0.001863910,0.001562162,-0.064339114,0.121037145,0.087104311,0.011768556,-0.002911095,1.000269964,-0.001864779,0.002762221,-0.001723766,0.000000000,0.000000000,0.000000000,0.000000000,0.021205832,0.005847586,0.071975731,0.032417549,0.004567932,0.001491663,0.006909306,0.003967881,0.000091184,-0.336552062,0.249665524,2.124796036,-0.002896056,-0.002232814,0.018534741,0.999819430,0.000000000,0.000000000,0.000000000,0.000000000,0.000000000,0.000000000,2.130284936,0.000000000,4.154252052
1772429019.704113483,0.020577000,0.005780000,0.071926000,-0.008386820,0.017194400,0.026953590,0.999453610,-0.015848000,0.034829000,0.053648000,0.000671349,-0.001316202,0.000863210,-0.047922118,0.084330893,0.055009556,0.012431684,-0.004490284,1.000762164,-0.003403660,0.003719875,0.001885687,0.000000000,0.000000000,0.000000000,0.000000000,0.021199000,0.005847109,0.071974509,0.032270221,0.004798265,0.001459877,0.007648567,0.000910050,0.000877997,-0.338206030,0.249725237,2.136427171,-0.002910250,-0.002233898,0.018636192,0.999818541,0.000000000,0.000000000,0.000000000,0.000000000,0.000000000,0.000000000,2.135469237,0.000000000,4.154252052
1772429019.714113474,0.020573000,0.005769000,0.071929000,-0.008584580,0.017391370,0.027098400,0.999444610,-0.016228000,0.035236000,0.053928000,0.000134674,-0.000739026,0.000380789,-0.034214905,0.053936379,0.033954990,0.013458407,-0.003745183,1.000601494,-0.000958310,-0.000003102,0.003152060,0.000000000,0.000000000,0.000000000,0.000000000,0.021197886,0.005848687,0.071966581,0.032223026,0.004878662,0.001442299,0.009159752,0.002329630,-0.000021984,-0.340936798,0.247597998,2.143193310,-0.002934292,-0.002215955,0.018695228,0.999817588,0.000000000,0.000000000,0.000000000,0.000000000,0.000000000,0.000000000,2.141180669,0.000000000,4.154252052
1772429019.724113941,0.020566000,0.005774000,0.071929000,-0.008683840,0.017634720,0.027213110,0.999436370,-0.016409000,0.035730000,0.054150000,-0.000207693,-0.000348951,0.000061208,-0.022176525,0.029613705,0.021107320,0.014116327,-0.003770063,1.000621995,-0.000342522,-0.001825570,0.002774187,0.000000000,0.000000000,0.000000000,0.000000000,0.021196540,0.005850267,0.071960498,0.032307835,0.005021434,0.001379290,0.009528933,0.002770369,0.000782845,-0.342925558,0.246243095,2.147834096,-0.002951776,-0.002204578,0.018735717,0.999816772,0.000000000,0.000000000,0.000000000,0.000000000,0.000000000,0.000000000,2.146081997,0.000000000,4.154252052
1772429019.734113932,0.020561000,0.005765000,0.071939000,-0.008766130,0.017609850,0.027318310,0.999433220,-0.016571000,0.035686000,0.054358000,0.000005284,-0.000118415,0.000165365,-0.010670226,0.012279639,0.011113025,0.014640671,-0.003569733,1.000483370,0.001293138,-0.000518097,-0.000150669,0.000000000,0.000000000,0.000000000,0.000000000,0.021196576,0.005852721,0.071961781,0.032406749,0.005166857,0.001404096,0.009962346,0.002570312,-0.000134575,-0.342964334,0.245727016,2.148664347,-0.002952183,-0.002200103,0.018742975,0.999815928,0.000000000,0.000000000,0.000000000,0.000000000,0.000000000,0.000000000,2.150580709,0.000000000,4.154252052
1772429019.744113922,0.020571000,0.005762000,0.071931000,-0.008818700,0.017833620,0.027395650,0.999426670,-0.016662000,0.036138000,0.054508000,0.000049378,-0.000082148,0.000366434,-0.001769314,0.002103719,0.002657689,0.013418355,-0.003958395,1.000071492,0.001814329,0.001527005,-0.002931619,0.000000000,0.000000000,0.000000000,0.000000000,0.021198430,0.005857124,0.071962712,0.032548207,0.005341440,0.001319840,0.009095127,0.002278359,0.000477968,-0.342608275,0.245359645,2.150561883,-0.002949100,-0.002196888,0.018759547,0.999815065,0.000000000,0.000000000,0.000000000,0.000000000,0.000000000,0.000000000,2.156574322,0.000000000,4.154252052
1772429019.754114389,0.020561000,0.005769000,0.071938000,-0.008828350,0.017759550,0.027414840,0.999427380,-0.016684000,0.035991000,0.054547000,0.000284091,-0.000181682,0.000418027,0.003969787,-0.014059591,-0.003236154,0.012149576,-0.002164378,1.001638359,0.000728973,-0.003773208,-0.000503077,0.000000000,0.000000000,0.000000000,0.000000000,0.021202429,0.005860066,0.071966733,0.032572759,0.005483581,0.001383941,0.007996699,0.003857049,0.001270813,-0.343023862,0.244900174,2.154661120,-0.002952722,-0.002193053,0.018795315,0.999814365,0.000000000,0.000000000,0.000000000,0.000000000,0.000000000,0.000000000,2.161096002,0.000000000,4.154252052
1772429019.764114380,0.020578000,0.005759000,0.071939000,-0.008823250,0.017716220,0.027366550,0.999429520,-0.016678000,0.035903000,0.054451000,0.000209926,-0.000260218,0.000146698,0.006742846,-0.019793720,-0.007639390,0.013725921,-0.002138181,0.999845496,-0.003156959,0.006920730,0.004055521,0.000000000,0.000000000,0.000000000,0.000000000,0.021202498,0.005864732,0.071970924,0.032552802,0.005797924,0.001428110,0.009091733,0.003683969,0.000625486,-0.343955199,0.244212649,2.159015009,-0.002960878,-0.002187319,0.018833304,0.999814062,0.000000000,0.000000000,0.000000000,0.000000000,0.000000000,0.000000000,2.164961968,0.000000000,4.154252052
1772429019.774114370,0.020586000,0.005762000,0.071953000,-0.008710380,0.017585000,0.027243970,0.999436170,-0.016464000,0.035632000,0.054212000,0.000017191,-0.000206372,-0.000097125,0.009603986,-0.019960987,-0.010022168,0.013862735,-0.006724162,1.000330109,-0.002163147,0.003015236,-0.000038153,0.000000000,0.000000000,0.000000000,0.000000000,0.021199182,0.005871476,0.071969974,0.032637626,0.005943961,0.001429243,0.009413364,0.000347674,0.000367254,-0.345732481,0.242760679,2.164143244,-0.002976526,-0.002175076,0.018878054,0.999813697,0.000000000,0.000000000,0.000000000,0.000000000,0.000000000,0.000000000,2.170286501,0.000000000,4.154252052
1772429019.784113884,0.020562000,0.005754000,0.071949000,-0.008630640,0.017326650,0.027230860,0.999441730,-0.016319000,0.035111000,0.054192000,-0.000173058,-0.000199670,-0.000247417,0.007114184,-0.015057593,-0.008132483,0.014110703,-0.005300994,1.001500983,-0.002843462,-0.003923727,0.003391511,0.000000000,0.000000000,0.000000000,0.000000000,0.021199195,0.005877488,0.071963024,0.032718525,0.005875008,0.001406596,0.010214990,0.001048390,0.001508787,-0.347870791,0.241921541,2.172664360,-0.002995160,-0.002168330,0.018952383,0.999811938,0.000000000,0.000000000,0.000000000,0.000000000,0.000000000,0.000000000,2.174568799,0.000000000,4.154252052
1772429019.794114113,0.020572000,0.005755000,0.071934000,-0.008687110,0.017280540,0.027228290,0.999442110,-0.016434000,0.035022000,0.054186000,-0.000122747,-0.000120008,-0.000358120,0.003321667,-0.004584679,-0.006113091,0.015516492,-0.002906030,1.001529914,-0.000342149,-0.000888450,0.003240039,0.000000000,0.000000000,0.000000000,0.000000000,0.021200968,0.005874797,0.071961399,0.032939197,0.005966172,0.001516569,0.011013900,0.003533887,0.001616748,-0.349235657,0.242157536,2.180354538,-0.003006884,-0.002170816,0.019019448,0.999810763,0.000000000,0.000000000,0.000000000,0.000000000,0.000000000,0.000000000,2.181574013,0.000000000,4.154252052
1772429019.804114342,0.020569000,0.005754000,0.071926000,-0.008672530,0.017580720,0.027231920,0.999436910,-0.016389000,0.035622000,0.054189000,-0.000104274,0.000022300,-0.000122941,0.000408686,0.000469371,-0.003133132,0.015713959,-0.003338727,1.000521628,0.004114578,0.001636292,0.001298326,0.000000000,0.000000000,0.000000000,0.000000000,0.021210896,0.005872537,0.071967349,0.033226676,0.006230352,0.001608344,0.010938136,0.002794807,0.000606365,-0.349424590,0.242281610,2.183003113,-0.003008462,-0.002171999,0.019042547,0.999809643,0.000000000,0.000000000,0.000000000,0.000000000,0.000000000,0.000000000,2.188332729,0.000000000,4.154252052
1772429019.814114809,0.020569000,0.005756000,0.071937000,-0.008614730,0.017419520,0.027162670,0.999442110,-0.016284000,0.035295000,0.054055000,0.000050602,0.000053186,0.000187646,0.001858693,0.012195421,-0.001891331,0.012387220,-0.003869390,0.999001628,0.001771229,0.000660499,0.002594835,0.000000000,0.000000000,0.000000000,0.000000000,0.021216494,0.005871224,0.071975752,0.033387680,0.006364423,0.001578883,0.008282974,0.002929058,-0.000953944,-0.349392599,0.242152240,2.188602999,-0.003008098,-0.002171012,0.019091411,0.999808697,0.000000000,0.000000000,0.000000000,0.000000000,0.000000000,0.000000000,2.194248710,0.000000000,4.154252052
1772429019.824115276,0.020570000,0.005758000,0.071938000,-0.008704500,0.017508930,0.027182560,0.999439230,-0.016458000,0.035479000,0.054090000,0.000086150,0.000274184,0.000339724,0.004271132,0.012687165,-0.003794640,0.014874390,-0.003582207,1.000777459,0.000249092,0.000214236,0.002444506,0.000000000,0.000000000,0.000000000,0.000000000,0.021220486,0.005876609,0.071977801,0.033423358,0.006578961,0.001474160,0.010560644,0.002467691,0.000493354,-0.349586418,0.242431334,2.198412186,-0.003009556,-0.002173738,0.019176985,0.999807707,0.000000000,0.000000000,0.000000000,0.000000000,0.000000000,0.000000000,2.199909467,0.000000000,4.154252052
1772429019.834115028,0.020575000,0.005757000,0.071946000,-0.008632870,0.017441690,0.027117890,0.999442790,-0.016321000,0.035340000,0.053964000,-0.000244270,0.000246193,0.000130264,0.005073189,0.001689896,-0.004151243,0.014006298,-0.004855581,1.001859272,0.002092284,-0.000264472,-0.001980444,0.000000000,0.000000000,0.000000000,0.000000000,0.021219473,0.005880322,0.071973526,0.033549624,0.006629274,0.001488238,0.009953758,0.002065370,0.001701960,-0.349665498,0.242387045,2.204499762,-0.003010138,-0.002173524,0.019230098,0.999806818,0.000000000,0.000000000,0.000000000,0.000000000,0.000000000,0.000000000,2.205566582,0.000000000,4.154252052
1772429019.844115019,0.020570000,0.005759000,0.071949000,-0.008583990,0.017517690,0.027168810,0.999440490,-0.016217000,0.035490000,0.054067000,-0.000098174,0.000146892,-0.000179779,0.000564241,-0.010464984,-0.004537344,0.014158614,-0.003379477,1.000732247,0.001635596,-0.004364608,0.001531154,0.000000000,0.000000000,0.000000000,0.000000000,0.021219365,0.005883597,0.071965534,0.033634452,0.006725190,0.001523283,0.009711258,0.002875240,0.001229908,-0.349471269,0.241876832,2.204251963,-0.003008534,-0.002169033,0.019227953,0.999806127,0.000000000,0.000000000,0.000000000,0.000000000,0.000000000,0.000000000,2.209667246,0.000000000,4.154252052
1772429019.854115248,0.020562000,0.005764000,0.071941000,-0.008538070,0.017714730,0.027121380,0.999438700,-0.016117000,0.035880000,0.053971000,-0.000035315,-0.000117347,-0.000235490,-0.002824409,-0.012644348,-0.002186349,0.014018043,-0.003935391,0.999703600,0.002438530,0.002778621,-0.001909676,0.000000000,0.000000000,0.000000000,0.000000000,0.021220217,0.005888365,0.071962145,0.033726162,0.006892214,0.001487461,0.009567545,0.002574777,0.000440537,-0.349608467,0.242632329,2.209258634,-0.003009509,-0.002175780,0.019271613,0.999805234,0.000000000,0.000000000,0.000000000,0.000000000,0.000000000,0.000000000,2.214566348,0.000000000,4.154252052
1772429019.864115715,0.020566000,0.005768000,0.071927000,-0.008640400,0.017332780,0.027076550,0.999445740,-0.016343000,0.035121000,0.053883000,0.000134382,-0.000287782,0.000049845,-0.004632883,-0.019312848,0.000079640,0.013307855,-0.005825231,1.001586688,0.001421999,0.002982298,0.000410264,0.000000000,0.000000000,0.000000000,0.000000000,0.021223524,0.005889295,0.071964272,0.033793830,0.006925409,0.001494779,0.009088788,0.000945784,0.001505430,-0.349368729,0.241585074,2.215179118,-0.003007482,-0.002166758,0.019323304,0.999804537,0.000000000,0.000000000,0.000000000,0.000000000,0.000000000,0.000000000,2.219090507,0.000000000,4.154252052
1772429019.874115944,0.020565000,0.005754000,0.071933000,-0.008656060,0.017182090,0.027094450,0.999447720,-0.016382000,0.034821000,0.053920000,0.000227487,-0.000319386,0.000277195,-0.006523425,-0.012680438,0.003059491,0.014213522,-0.004852266,1.000918501,-0.001518187,-0.002786531,-0.000190932,0.000000000,0.000000000,0.000000000,0.000000000,0.021229553,0.005888081,0.071971973,0.033865789,0.006855384,0.001652728,0.010057858,0.001688719,0.001074788,-0.350435353,0.240174210,2.225668941,-0.003016829,-0.002154904,0.019414843,0.999803764,0.000000000,0.000000000,0.000000000,0.000000000,0.000000000,0.000000000,2.223676320,0.000000000,4.154252052
1772429019.884116411,0.020580000,0.005750000,0.071945000,-0.008720690,0.017140460,0.027106200,0.999447550,-0.016513000,0.034742000,0.053942000,0.000235198,-0.000301399,0.000267522,-0.001945856,-0.004725184,0.002403884,0.014943393,-0.005199711,1.000454325,-0.000427799,-0.000299734,0.004659305,0.000000000,0.000000000,0.000000000,0.000000000,0.021232208,0.005888306,0.071975441,0.034084745,0.006916241,0.001632444,0.010430734,0.001455025,0.000767390,-0.350301400,0.240533909,2.228511375,-0.003015545,-0.002158094,0.019439637,0.999802680,0.000000000,0.000000000,0.000000000,0.000000000,0.000000000,0.000000000,2.229911983,0.000000000,4.154252052
1772429019.894116879,0.020573000,0.005746000,0.071953000,-0.008672550,0.017301520,0.027192040,0.999442860,-0.016405000,0.035063000,0.054113000,0.000021892,-0.000036500,0.000073388,0.003510281,0.002905084,0.001817555,0.013081916,-0.004995264,1.000975142,0.002449038,-0.001171158,-0.002796112,0.000000000,0.000000000,0.000000000,0.000000000,0.021233676,0.005888360,0.071973270,0.034219187,0.006911361,0.001647047,0.008804842,0.001420978,0.000916787,-0.350471774,0.240727097,2.231258189,-0.003016947,-0.002159881,0.019463595,0.999801634,0.000000000,0.000000000,0.000000000,0.000000000,0.000000000,0.000000000,2.235853460,0.000000000,4.154252052
1772429019.904116631,0.020576000,0.005754000,0.071951000,-0.008636350,0.017286410,0.027168900,0.999444070,-0.016335000,0.035030000,0.054068000,-0.000194309,0.000171562,-0.000260062,0.006265622,0.011017483,-0.002445310,0.013167110,-0.003544800,0.999805063,0.003339995,-0.004657284,-0.002039188,0.000000000,0.000000000,0.000000000,0.000000000,0.021232243,0.005890069,0.071967933,0.034200744,0.006975021,0.001594566,0.008768581,0.002767140,0.000091904,-0.351992854,0.240448830,2.239252999,-0.003030115,-0.002157923,0.019533327,0.999800849,0.000000000,0.000000000,0.000000000,0.000000000,0.000000000,0.000000000,2.241138406,0.000000000,4.154252052
1772429019.914116859,0.020568000,0.005757000,0.071939000,-0.008611630,0.017461680,0.027121190,0.999442530,-0.016277000,0.035378000,0.053971000,-0.000127506,0.000254041,-0.000382634,0.005876868,0.008328731,-0.006427103,0.012597298,-0.004285515,1.001606765,0.001486946,-0.002109633,-0.001215789,0.000000000,0.000000000,0.000000000,0.000000000,0.021230817,0.005892342,0.071966612,0.034182532,0.007127091,0.001572477,0.008281288,0.002034847,0.001679369,-0.352438893,0.241225413,2.245649501,-0.003033754,-0.002164944,0.019589107,0.999800224,0.000000000,0.000000000,0.000000000,0.000000000,0.000000000,0.000000000,2.244276345,0.000000000,4.154252052
1772429019.924116373,0.020567000,0.005756000,0.071925000,-0.008555820,0.017336080,0.027052280,0.999447060,-0.016175000,0.035123000,0.053837000,-0.000033722,0.000100447,-0.000183334,0.003802586,0.004892142,-0.006990328,0.012205515,-0.003174491,1.001654400,-0.005459137,-0.000070456,-0.000267805,0.000000000,0.000000000,0.000000000,0.000000000,0.021231925,0.005895702,0.071967876,0.034104445,0.007206760,0.001683720,0.008030462,0.003183936,0.001924027,-0.352180576,0.241824981,2.246415764,-0.003031383,-0.002170151,0.019595782,0.999799589,0.000000000,0.000000000,0.000000000,0.000000000,0.000000000,0.000000000,2.247957269,0.000000000,4.154252052
1772429019.934115887,0.020567000,0.005762000,0.071933000,-0.008592850,0.017262980,0.027041940,0.999448290,-0.016253000,0.034979000,0.053816000,0.000196543,-0.000062821,0.000164355,-0.002232964,0.003827869,-0.005839073,0.012819077,-0.002848041,1.002143995,0.000197400,-0.004747604,0.001200272,0.000000000,0.000000000,0.000000000,0.000000000,0.021234262,0.005898450,0.071970735,0.034044703,0.007372793,0.001794750,0.008650063,0.003516815,0.002224593,-0.352467331,0.241966934,2.246229406,-0.003033864,-0.002171434,0.019594146,0.999798981,0.000000000,0.000000000,0.000000000,0.000000000,0.000000000,0.000000000,2.251392858,0.000000000,4.154252052
1772429019.944115639,0.020574000,0.005751000,0.071941000,-0.008626910,0.017434950,0.027006130,0.999445980,-0.016313000,0.035324000,0.053741000,0.000164103,-0.000159480,0.000299845,-0.004021605,0.002886180,-0.002420840,0.013978715,-0.005248926,1.001397738,-0.002388903,0.002477095,0.004538072,0.000000000,0.000000000,0.000000000,0.000000000,0.021233681,0.005902009,0.071976680,0.034051168,0.007510950,0.001941667,0.009543160,0.001517472,0.001675789,-0.352995967,0.242051068,2.250959841,-0.003038372,-0.002172384,0.019635407,0.999798328,0.000000000,0.000000000,0.000000000,0.000000000,0.000000000,0.000000000,2.255349926,0.000000000,4.154252052
1772429019.954115629,0.020580000,0.005753000,0.071952000,-0.008584200,0.017486750,0.027026090,0.999444900,-0.016225000,0.035425000,0.053782000,0.000066647,-0.000105536,0.000212024,-0.005086456,-0.001066256,-0.002760005,0.014104534,-0.006629740,1.000913492,-0.001278117,0.003326575,0.003543208,0.000000000,0.000000000,0.000000000,0.000000000,0.021231129,0.005904817,0.071979825,0.034091167,0.007496806,0.002014764,0.009976846,-0.000601118,0.000679319,-0.353711110,0.242052494,2.258867247,-0.003044462,-0.002172729,0.019704385,0.999797724,0.000000000,0.000000000,0.000000000,0.000000000,0.000000000,0.000000000,2.258901833,0.000000000,4.154252052
1772429019.964115858,0.020573000,0.005754000,0.071945000,-0.008665530,0.017414830,0.027031460,0.999445310,-0.016391000,0.035286000,0.053791000,-0.000160043,-0.000013500,-0.000078943,-0.003582272,-0.002373199,-0.004645750,0.013667041,-0.007127878,1.000735921,0.002786653,-0.000572396,0.000250073,0.000000000,0.000000000,0.000000000,0.000000000,0.021228893,0.005906486,0.071978896,0.034117640,0.007384184,0.002006335,0.009969151,-0.000212424,0.000846578,-0.354260254,0.241598619,2.260827294,-0.003049294,-0.002168915,0.019721487,0.999797198,0.000000000,0.000000000,0.000000000,0.000000000,0.000000000,0.000000000,2.261874880,0.000000000,4.154252052
1772429019.974115133,0.020572000,0.005753000,0.071940000,-0.008715300,0.017409240,0.026984500,0.999446250,-0.016492000,0.035277000,0.053695000,-0.000167172,0.000082925,-0.000367949,-0.000778491,-0.002656478,-0.005608936,0.014076560,-0.006653159,1.000818109,0.001611034,-0.001064883,0.000041173,0.000000000,0.000000000,0.000000000,0.000000000,0.021228321,0.005907092,0.071977666,0.034162442,0.007294319,0.001996268,0.009988410,0.000166588,0.001000832,-0.354736775,0.240945759,2.260187274,-0.003053576,-0.002163284,0.019715912,0.999796731,0.000000000,0.000000000,0.000000000,0.000000000,0.000000000,0.000000000,2.263809225,0.000000000,4.154252052
1772429019.984115124,0.020567000,0.005756000,0.071931000,-0.008629470,0.017294580,0.026954330,0.999449800,-0.016328000,0.035043000,0.053639000,-0.000088403,0.000172242,-0.000166764,-0.000084618,-0.001897048,-0.004556873,0.014620037,-0.006024578,1.000941376,-0.000393255,-0.001018808,0.000319910,0.000000000,0.000000000,0.000000000,0.000000000,0.021230519,0.005905927,0.071975933,0.034237778,0.007242334,0.001983473,0.010081409,0.000519235,0.001119559,-0.355087139,0.240709877,2.260988570,-0.003056659,-0.002161308,0.019722903,0.999796396,0.000000000,0.000000000,0.000000000,0.000000000,0.000000000,0.000000000,2.265743709,0.000000000,4.154252052
1772429019.994114399,0.020566000,0.005756000,0.071936000,-0.008669890,0.017332970,0.026892530,0.999450450,-0.016409000,0.035120000,0.053513000,-0.000072086,0.000173951,0.000082634,0.001791995,0.008050484,0.000456082,0.014654446,-0.005463146,1.000837229,-0.001441735,-0.000860554,-0.000386037,0.000000000,0.000000000,0.000000000,0.000000000,0.021232035,0.005904730,0.071974533,0.034300606,0.007197869,0.001973942,0.010152673,0.000888693,0.001201353,-0.355385661,0.240645253,2.262381670,-0.003059248,-0.002160832,0.019735054,0.999796180,0.000000000,0.000000000,0.000000000,0.000000000,0.000000000,0.000000000,2.267237026,0.000000000,4.154252052
1772429020.004113436,0.020570000,0.005759000,0.071938000,-0.008629620,0.017417320,0.026928060,0.999448370,-0.016323000,0.035288000,0.053585000,0.000079953,0.000222863,0.000239666,0.003297810,0.012263984,0.006689214,0.014118918,-0.004976859,1.000478472,-0.001420175,-0.000576698,-0.002194450,0.000000000,0.000000000,0.000000000,0.000000000,0.021231081,0.005903418,0.071974336,0.034318204,0.007180597,0.001976216,0.009946877,0.001472790,0.000812341,-0.355859616,0.240811892,2.263516972,-0.003063333,-0.002162398,0.019744946,0.999795964,0.000000000,0.000000000,0.000000000,0.000000000,0.000000000,0.000000000,2.268426379,0.000000000,4.154252052
1772429020.014112711,0.020577000,0.005760000,0.071942000,-0.008645590,0.017568850,0.026997880,0.999443700,-0.016344000,0.035592000,0.053722000,-0.000071465,0.000142929,0.000149068,0.001982375,0.000832303,0.011396710,0.013583377,-0.004490560,1.000119706,-0.001398615,-0.000292836,-0.004002906,0.000000000,0.000000000,0.000000000,0.000000000,0.021230128,0.005902107,0.071974139,0.034335801,0.007163323,0.001978490,0.009741076,0.002056901,0.000423319,-0.356446868,0.241127865,2.264485860,-0.003068384,-0.002165282,0.019753379,0.999795765,0.000000000,0.000000000,0.000000000,0.000000000,0.000000000,0.000000000,2.269663336,0.000000000,4.154252052
1772429020.024113655,0.020569000,0.005761000,0.071951000,-0.008651420,0.017461880,0.027048450,0.999444150,-0.016360000,0.035380000,0.053824000,-0.000140987,0.000046309,0.000001321,-0.001466070,-0.011048837,0.011513899,0.013926840,-0.003837118,1.000192082,-0.001025931,-0.001173248,-0.005229808,0.000000000,0.000000000,0.000000000,0.000000000,0.021229916,0.005900995,0.071973970,0.034366020,0.007160050,0.001974987,0.009535240,0.002641110,0.000034233,-0.357034218,0.241443890,2.265454909,-0.003073435,-0.002168167,0.019761813,0.999795566,0.000000000,0.000000000,0.000000000,0.000000000,0.000000000,0.000000000,2.271147267,0.000000000,4.154252052
1772429020.034113169,0.020561000,0.005766000,0.071938000,-0.008611090,0.017530130,0.027158510,0.999440320,-0.016271000,0.035516000,0.054045000,-0.000090229,0.000014083,-0.000236519,-0.003048642,-0.017500053,0.008030199,0.015372659,-0.003047530,1.000774552,-0.000171464,-0.003041531,-0.005342102,0.000000000,0.000000000,0.000000000,0.000000000,0.021235502,0.005901443,0.071974015,0.034494792,0.007266151,0.001926358,0.010750416,0.004117988,0.001158523,-0.357998598,0.242241464,2.267166287,-0.003081679,-0.002175338,0.019776706,0.999795255,0.000000000,0.000000000,0.000000000,0.000000000,0.000000000,0.000000000,2.272778983,0.000000000,4.154252052
1772429020.044113159,0.020572000,0.005761000,0.071934000,-0.008647280,0.017254790,0.027132090,0.999445520,-0.016359000,0.034967000,0.053995000,0.000059246,-0.000093629,-0.000244406,-0.005006991,-0.015211542,0.000690468,0.016135877,-0.003618715,1.000585698,0.001073809,0.002470501,-0.000113013,0.000000000,0.000000000,0.000000000,0.000000000,0.021243490,0.005903525,0.071973111,0.034739269,0.007512472,0.001963425,0.011570767,0.002778794,0.000540091,-0.358284239,0.243021382,2.270313902,-0.003083977,-0.002182277,0.019804142,0.999794710,0.000000000,0.000000000,0.000000000,0.000000000,0.000000000,0.000000000,2.275359770,0.000000000,4.154252052
1772429020.054113626,0.020560000,0.005757000,0.071936000,-0.008658800,0.016993290,0.027135430,0.999449810,-0.016396000,0.034445000,0.054005000,0.000232790,-0.000154643,-0.000081993,-0.005757371,-0.008071166,-0.005010813,0.016193664,-0.004869342,1.000499629,0.001731752,0.001516759,0.001994350,0.000000000,0.000000000,0.000000000,0.000000000,0.021247968,0.005904059,0.071976191,0.034998581,0.007563275,0.001941673,0.011799527,0.002244643,0.000550597,-0.358567858,0.243873167,2.278029612,-0.003086157,-0.002189965,0.019871428,0.999794072,0.000000000,0.000000000,0.000000000,0.000000000,0.000000000,0.000000000,2.278783139,0.000000000,4.154252052
1772429020.064113140,0.020573000,0.005761000,0.071937000,-0.008749910,0.017226760,0.027085660,0.999446370,-0.016568000,0.034916000,0.053899000,0.000278652,-0.000025175,0.000124514,-0.003428520,0.000865892,-0.008232356,0.016874211,-0.005350455,1.001419742,0.000149212,0.000477613,0.000435884,0.000000000,0.000000000,0.000000000,0.000000000,0.021249697,0.005907736,0.071978843,0.035263151,0.007608684,0.001992931,0.012645649,0.001647598,0.000926566,-0.358484163,0.244074833,2.281412766,-0.003085327,-0.002191801,0.019900943,0.999793266,0.000000000,0.000000000,0.000000000,0.000000000,0.000000000,0.000000000,2.283034192,0.000000000,4.154252052
1772429020.074113607,0.020579000,0.005761000,0.071935000,-0.008726410,0.017372020,0.027046790,0.999445110,-0.016514000,0.035204000,0.053820000,0.000036403,0.000188539,0.000204390,-0.000128517,0.007549669,-0.007076877,0.014887173,-0.007242618,1.001919326,0.000055131,0.001371653,0.002382924,0.000000000,0.000000000,0.000000000,0.000000000,0.021251174,0.005914387,0.071976662,0.035558092,0.007519485,0.002000791,0.010855358,-0.000124113,0.002118167,-0.359030705,0.243796899,2.283702436,-0.003090100,-0.002189533,0.019920918,0.999792434,0.000000000,0.000000000,0.000000000,0.000000000,0.000000000,0.000000000,2.288186644,0.000000000,4.154252052
1772429020.084113836,0.020575000,0.005757000,0.071942000,-0.008707670,0.017327410,0.026992020,0.999447530,-0.016481000,0.035113000,0.053711000,-0.000159946,0.000277739,-0.000064744,0.005181393,0.012405423,-0.003079656,0.013465246,-0.004717808,1.004225739,0.000955030,0.001586166,0.001374719,0.000000000,0.000000000,0.000000000,0.000000000,0.021252900,0.005913963,0.071973493,0.035608387,0.007389639,0.002146706,0.009233102,0.001875415,0.003909130,-0.360132437,0.243892066,2.290780054,-0.003099561,-0.002190746,0.019982645,0.999791674,0.000000000,0.000000000,0.000000000,0.000000000,0.000000000,0.000000000,2.292134072,0.000000000,4.154252052
1772429020.094114065,0.020570000,0.005763000,0.071944000,-0.008708980,0.017287480,0.027003650,0.999447900,-0.016486000,0.035033000,0.053735000,-0.000178671,0.000146873,-0.000187801,0.006914336,0.007034636,0.000231318,0.013115796,-0.003005190,1.003032857,0.004321229,0.001523423,-0.003381227,0.000000000,0.000000000,0.000000000,0.000000000,0.021257350,0.005910020,0.071973168,0.035581148,0.007504713,0.002432474,0.008617873,0.003324255,0.003046833,-0.360482405,0.243993925,2.296672837,-0.003102484,-0.002191855,0.020034049,0.999790828,0.000000000,0.000000000,0.000000000,0.000000000,0.000000000,0.000000000,2.297318739,0.000000000,4.154252052
1772429020.104114294,0.020565000,0.005773000,0.071936000,-0.008603880,0.017319610,0.027015810,0.999447920,-0.016273000,0.035092000,0.053763000,-0.000121484,-0.000025777,-0.000125544,0.005068262,0.002278363,0.004101022,0.012646177,-0.002936535,0.999957218,0.001188527,-0.000996928,-0.000646044,0.000000000,0.000000000,0.000000000,0.000000000,0.021261170,0.005907568,0.071978714,0.035511336,0.007683626,0.002549435,0.008434854,0.003292382,0.000010259,-0.360307422,0.243924084,2.296058734,-0.003100981,-0.002191199,0.020028696,0.999790185,0.000000000,0.000000000,0.000000000,0.000000000,0.000000000,0.000000000,2.301016561,0.000000000,4.154252052
1772429020.114114285,0.020565000,0.005768000,0.071929000,-0.008632370,0.017434460,0.027070490,0.999444200,-0.016322000,0.035324000,0.053870000,0.000184654,-0.000140016,-0.000171970,0.000261710,0.011236360,0.004121327,0.013530474,-0.005393631,0.998221580,-0.000823899,-0.001679148,-0.002076645,0.000000000,0.000000000,0.000000000,0.000000000,0.021266268,0.005907871,0.071982346,0.035463483,0.007771314,0.002375408,0.009115532,0.001794870,-0.001352200,-0.360798690,0.244368497,2.299036264,-0.003105132,-0.002195243,0.020054654,0.999789621,0.000000000,0.000000000,0.000000000,0.000000000,0.000000000,0.000000000,2.304122490,0.000000000,4.154252052
1772429020.124114513,0.020573000,0.005758000,0.071929000,-0.008598680,0.017433830,0.027054960,0.999444920,-0.016255000,0.035321000,0.053840000,0.000433023,-0.000302506,-0.000081061,-0.001367115,0.013562147,0.003244070,0.015113959,-0.007014561,1.000757774,0.002430898,0.000192011,0.002391730,0.000000000,0.000000000,0.000000000,0.000000000,0.021267941,0.005908133,0.071979588,0.035506050,0.007696567,0.002215337,0.010677100,-0.000105961,0.000421575,-0.361162480,0.244491964,2.303306301,-0.003108202,-0.002196500,0.020091898,0.999789156,0.000000000,0.000000000,0.000000000,0.000000000,0.000000000,0.000000000,2.306600712,0.000000000,4.154252052
1772429020.134114265,0.020576000,0.005757000,0.071939000,-0.008665560,0.017486700,0.027089140,0.999442500,-0.016385000,0.035431000,0.053905000,0.000347630,-0.000260684,0.000107984,-0.002363173,0.010594129,0.002141978,0.013859472,-0.005944498,1.002019264,-0.001044220,0.000949851,0.001096459,0.000000000,0.000000000,0.000000000,0.000000000,0.021267929,0.005907590,0.071979048,0.035613326,0.007535840,0.002232389,0.010226407,0.000133058,0.002193477,-0.361243366,0.246052201,2.311631223,-0.003108474,-0.002210353,0.020164488,0.999788486,0.000000000,0.000000000,0.000000000,0.000000000,0.000000000,0.000000000,2.310211260,0.000000000,4.154252052
1772429020.144114256,0.020585000,0.005758000,0.071939000,-0.008702610,0.017583100,0.027091170,0.999440430,-0.016454000,0.035626000,0.053906000,0.000111500,0.000007751,0.000181585,-0.001633109,0.003973242,0.001459166,0.012768327,-0.004577409,1.001361115,-0.000717193,-0.003843605,0.000076949,0.000000000,0.000000000,0.000000000,0.000000000,0.021265809,0.005908943,0.071980873,0.035612504,0.007464980,0.002323121,0.008072704,0.001889531,0.001675346,-0.361701409,0.245039374,2.315788128,-0.003112569,-0.002201709,0.020200777,0.999787781,0.000000000,0.000000000,0.000000000,0.000000000,0.000000000,0.000000000,2.314167064,0.000000000,4.154252052
1772429020.154114008,0.020579000,0.005758000,0.071930000,-0.008681640,0.017659170,0.027044950,0.999440520,-0.016410000,0.035776000,0.053813000,-0.000216414,0.000249787,0.000198116,0.000984271,-0.007031385,-0.001534169,0.013306643,-0.004696146,1.000209812,0.001044190,-0.005218856,0.000302887,0.000000000,0.000000000,0.000000000,0.000000000,0.021261826,0.005912068,0.071981474,0.035492319,0.007510035,0.002339283,0.009012801,0.001886327,0.000620502,-0.361879049,0.246059002,2.319102416,-0.003113875,-0.002210727,0.020229660,0.999787173,0.000000000,0.000000000,0.000000000,0.000000000,0.000000000,0.000000000,2.317675970,0.000000000,4.154252052
1772429020.164113998,0.020577000,0.005759000,0.071941000,-0.008621640,0.017441110,0.027096950,0.999443460,-0.016299000,0.035337000,0.053923000,-0.000296581,0.000295435,0.000032032,-0.000136080,-0.011262940,-0.004043377,0.014357455,-0.005601746,0.999292525,0.001621228,-0.001318580,0.001235271,0.000000000,0.000000000,0.000000000,0.000000000,0.021259516,0.005912229,0.071982030,0.035494997,0.007493570,0.002263247,0.010340857,0.001469889,-0.000605974,-0.361560081,0.247093954,2.317877495,-0.003110933,-0.002219667,0.020218949,0.999786455,0.000000000,0.000000000,0.000000000,0.000000000,0.000000000,0.000000000,2.321145399,0.000000000,4.154252052
1772429020.174113512,0.020567000,0.005770000,0.071938000,-0.008648040,0.017473700,0.027097390,0.999442650,-0.016350000,0.035404000,0.053922000,-0.000348777,0.000154118,-0.000046542,0.000001429,-0.013251343,-0.003005896,0.014308391,-0.005821885,0.999368538,0.002368985,-0.001401299,0.001630206,0.000000000,0.000000000,0.000000000,0.000000000,0.021259008,0.005910195,0.071981557,0.035573678,0.007461612,0.002100655,0.009723391,0.001074419,-0.000742634,-0.362024366,0.247752401,2.325021436,-0.003114729,-0.002225688,0.020281252,0.999785834,0.000000000,0.000000000,0.000000000,0.000000000,0.000000000,0.000000000,2.324833360,0.000000000,4.154252052
1772429020.184113264,0.020569000,0.005767000,0.071938000,-0.008640540,0.017344840,0.027041330,0.999446480,-0.016344000,0.035145000,0.053812000,-0.000204274,-0.000053302,0.000061849,-0.000661913,-0.015800975,-0.000394272,0.014558067,-0.006358245,1.000647737,-0.002336722,-0.000920001,-0.001904731,0.000000000,0.000000000,0.000000000,0.000000000,0.021261167,0.005908429,0.071975980,0.035622928,0.007367953,0.001978722,0.010367495,-0.000055707,0.000526237,-0.361350576,0.248316313,2.329880529,-0.003108655,-0.002230620,0.020323642,0.999785194,0.000000000,0.000000000,0.000000000,0.000000000,0.000000000,0.000000000,2.328503794,0.000000000,4.154252052
1772429020.194112778,0.020568000,0.005762000,0.071942000,-0.008679980,0.017226160,0.026978540,0.999449890,-0.016432000,0.034909000,0.053687000,0.000107110,-0.000177661,-0.000133120,-0.002126411,-0.005219191,0.002896056,0.014857810,-0.004993160,1.001302844,-0.001893874,-0.000919900,0.002043584,0.000000000,0.000000000,0.000000000,0.000000000,0.021258971,0.005904704,0.071975471,0.035692637,0.007258362,0.001984611,0.010413174,0.001581021,0.001244363,-0.361771372,0.248657610,2.329521349,-0.003112273,-0.002233663,0.020320489,0.999784588,0.000000000,0.000000000,0.000000000,0.000000000,0.000000000,0.000000000,2.332071775,0.000000000,4.154252052
1772429020.204113007,0.020575000,0.005763000,0.071931000,-0.008713900,0.017397590,0.027048880,0.999444720,-0.016488000,0.035255000,0.053824000,0.000145824,-0.000203400,-0.000212821,-0.002160316,0.003603167,0.006090840,0.014857334,-0.002671107,1.001064536,-0.000046993,0.000307873,0.001822065,0.000000000,0.000000000,0.000000000,0.000000000,0.021264820,0.005901655,0.071975550,0.035783005,0.007372187,0.002018175,0.010440272,0.003525762,0.001142276,-0.362408347,0.248767995,2.331141986,-0.003117779,-0.002234783,0.020334615,0.999783903,0.000000000,0.000000000,0.000000000,0.000000000,0.000000000,0.000000000,2.335374447,0.000000000,4.154252052
1772429020.214112759,0.020565000,0.005758000,0.071937000,-0.008642100,0.017323570,0.027174770,0.999443210,-0.016344000,0.035105000,0.054080000,0.000162413,-0.000124767,0.000005886,0.001069133,0.011018442,0.009112262,0.016260028,-0.006572770,1.000824162,-0.000114058,0.000543434,0.002393771,0.000000000,0.000000000,0.000000000,0.000000000,0.021268559,0.005904448,0.071970675,0.035933885,0.007469352,0.002032847,0.011712684,0.000505398,0.000719029,-0.362882718,0.248557445,2.335797307,-0.003121865,-0.002233157,0.020375228,0.999783088,0.000000000,0.000000000,0.000000000,0.000000000,0.000000000,0.000000000,2.339998102,0.000000000,4.154252052
1772429020.224112749,0.020578000,0.005756000,0.071938000,-0.008638000,0.017262550,0.027145590,0.999445100,-0.016340000,0.034982000,0.054022000,0.000133023,0.000066803,0.000201748,0.003960010,0.010996879,0.008785708,0.014469251,-0.003626081,0.999987606,-0.001097377,0.000104149,-0.000580606,0.000000000,0.000000000,0.000000000,0.000000000,0.021268388,0.005906982,0.071976959,0.036107178,0.007412646,0.002024508,0.010060695,0.003203197,-0.000214576,-0.363911905,0.249365939,2.340175600,-0.003130615,-0.002240514,0.020413386,0.999782721,0.000000000,0.000000000,0.000000000,0.000000000,0.000000000,0.000000000,2.343371059,0.000000000,4.154252052
1772429020.234113216,0.020577000,0.005763000,0.071927000,-0.008697640,0.017617020,0.027195930,0.999437030,-0.016438000,0.035695000,0.054116000,0.000054526,0.000141356,0.000173563,0.004528383,0.011534160,0.004362041,0.011966943,-0.001801643,0.999462820,-0.001928641,-0.002894582,-0.000716222,0.000000000,0.000000000,0.000000000,0.000000000,0.021271785,0.005908280,0.071979803,0.036050627,0.007640477,0.001916960,0.007918215,0.004221128,-0.000509504,-0.364620622,0.250266378,2.341179305,-0.003136618,-0.002248523,0.020422103,0.999782970,0.000000000,0.000000000,0.000000000,0.000000000,0.000000000,0.000000000,2.341782959,0.000000000,4.154252052
1772429020.244112730,0.020569000,0.005764000,0.071945000,-0.008643740,0.017475800,0.027207200,0.999439670,-0.016338000,0.035410000,0.054142000,-0.000073971,0.000137898,0.000113015,0.002965234,0.004948951,-0.002509639,0.013500469,-0.004135352,1.000204488,-0.000362072,0.001721965,-0.000052952,0.000000000,0.000000000,0.000000000,0.000000000,0.021272587,0.005911160,0.071978551,0.035895352,0.007843419,0.001791583,0.008868519,0.002480732,0.000100191,-0.364703697,0.250175528,2.339055151,-0.003137401,-0.002247688,0.020403571,0.999783309,0.000000000,0.000000000,0.000000000,0.000000000,0.000000000,0.000000000,2.340078001,0.000000000,4.154252052
1772429020.254113197,0.020576000,0.005763000,0.071946000,-0.008565100,0.017596940,0.027173330,0.999439140,-0.016175000,0.035647000,0.054075000,-0.000152953,0.000059130,-0.000051457,0.001271997,-0.003467274,-0.005830162,0.012611954,-0.004109484,1.001419617,-0.001809689,0.002192983,0.004578316,0.000000000,0.000000000,0.000000000,0.000000000,0.021267221,0.005913707,0.071969598,0.035797898,0.007854581,0.001723840,0.008078790,0.003206848,0.001451677,-0.364395151,0.249188885,2.337005762,-0.003134925,-0.002238969,0.020385725,0.999783733,0.000000000,0.000000000,0.000000000,0.000000000,0.000000000,0.000000000,2.337358107,0.000000000,4.154252052
1772429020.264113665,0.020576000,0.005763000,0.071942000,-0.008580290,0.017362120,0.027153790,0.999443650,-0.016219000,0.035178000,0.054039000,-0.000057867,-0.000099884,-0.000151846,0.001649297,-0.007473878,-0.006345727,0.012203286,-0.003100436,1.000833447,-0.001680248,-0.001057025,-0.001685359,0.000000000,0.000000000,0.000000000,0.000000000,0.021264182,0.005914292,0.071968926,0.035589839,0.008011722,0.001794821,0.007290102,0.003719850,0.000825529,-0.364100046,0.247345705,2.334715020,-0.003132723,-0.002222772,0.020365795,0.999784143,0.000000000,0.000000000,0.000000000,0.000000000,0.000000000,0.000000000,2.335689803,0.000000000,4.154252052
1772429020.274113894,0.020567000,0.005763000,0.071928000,-0.008649420,0.017610080,0.027099980,0.999440180,-0.016346000,0.035677000,0.053925000,0.000113073,-0.000262180,-0.000157945,-0.000152336,-0.001722857,-0.007253667,0.012931871,-0.002829806,0.999878742,0.001380041,-0.000726348,-0.001785292,0.000000000,0.000000000,0.000000000,0.000000000,0.021263080,0.005915284,0.071969773,0.035371303,0.008245293,0.001758711,0.008663421,0.003543290,0.000286124,-0.364369024,0.246766530,2.332248706,-0.003135220,-0.002217699,0.020344287,0.999784607,0.000000000,0.000000000,0.000000000,0.000000000,0.000000000,0.000000000,2.332829570,0.000000000,4.154252052
1772429020.284114361,0.020570000,0.005760000,0.071936000,-0.008618210,0.017324040,0.027046150,0.999446900,-0.016301000,0.035102000,0.053823000,0.000226205,-0.000120552,-0.000061830,-0.001918756,0.011972753,-0.006184278,0.012753927,-0.002193299,0.998587181,0.002285376,-0.001421703,0.000661926,0.000000000,0.000000000,0.000000000,0.000000000,0.021257726,0.005924114,0.071967881,0.035117659,0.008680813,0.001533379,0.008514071,0.003097795,0.000958969,-0.363355612,0.244447766,2.329508975,-0.003126843,-0.002197214,0.020320471,0.999785132,0.000000000,0.000000000,0.000000000,0.000000000,0.000000000,0.000000000,2.330352683,0.000000000,4.154252052
1772429020.294114828,0.020575000,0.005756000,0.071937000,-0.008610610,0.017379850,0.027058010,0.999445680,-0.016282000,0.035214000,0.053846000,0.000094950,-0.000023854,0.000194309,-0.001777786,0.010554381,-0.003405427,0.014395222,-0.003328741,1.000577880,0.000353501,-0.002070461,0.000001537,0.000000000,0.000000000,0.000000000,0.000000000,0.021254503,0.005930960,0.071964924,0.034959732,0.009008638,0.001386596,0.009407604,0.003671469,0.001252827,-0.362263690,0.246297134,2.327045433,-0.003117036,-0.002213088,0.020298947,0.999785619,0.000000000,0.000000000,0.000000000,0.000000000,0.000000000,0.000000000,2.327909318,0.000000000,4.154252052
1772429020.304114342,0.020587000,0.005757000,0.071935000,-0.008612850,0.017736630,0.027043860,0.999439770,-0.016268000,0.035927000,0.053813000,0.000131838,0.000029837,0.000120396,-0.001326766,0.009913475,-0.002275288,0.015424169,-0.004225100,1.000209003,0.000965724,0.000487718,0.000780836,0.000000000,0.000000000,0.000000000,0.000000000,0.021255308,0.005933903,0.071960893,0.035012798,0.009098965,0.001392446,0.011890296,0.002381073,-0.000057593,-0.361574036,0.246666846,2.324973385,-0.003110993,-0.002216136,0.020280872,0.999785993,0.000000000,0.000000000,0.000000000,0.000000000,0.000000000,0.000000000,2.325850855,0.000000000,4.154252052
1772429020.314114332,0.020573000,0.005757000,0.071945000,-0.008652900,0.017767830,0.027029210,0.999439270,-0.016347000,0.035991000,0.053781000,0.000006605,0.000147397,-0.000006857,-0.000637010,0.003251879,-0.000009224,0.013757853,-0.004612056,1.000838934,-0.001298094,-0.000023416,0.001675940,0.000000000,0.000000000,0.000000000,0.000000000,0.021254076,0.005937616,0.071964263,0.035162639,0.009072179,0.001351746,0.009296389,0.001979377,0.001115500,-0.361032183,0.246770062,2.323549057,-0.003106275,-0.002216902,0.020268450,0.999786275,0.000000000,0.000000000,0.000000000,0.000000000,0.000000000,0.000000000,2.324044317,0.000000000,4.154252052
1772429020.324113846,0.020579000,0.005768000,0.071944000,-0.008633080,0.017624800,0.027013500,0.999442400,-0.016315000,0.035704000,0.053753000,-0.000183431,0.000143629,-0.000157071,-0.000523680,-0.000940671,0.001102635,0.014438328,-0.003271142,1.001575440,0.000265318,-0.000318637,0.001956627,0.000000000,0.000000000,0.000000000,0.000000000,0.021256202,0.005936240,0.071967495,0.035151552,0.009071406,0.001432091,0.010498121,0.003431403,0.001883738,-0.360539551,0.246581145,2.321660690,-0.003102047,-0.002215115,0.020251991,0.999786070,0.000000000,0.000000000,0.000000000,0.000000000,0.000000000,0.000000000,2.324059422,0.000000000,4.154252052
1772429020.334114075,0.020569000,0.005760000,0.071932000,-0.008657680,0.017449190,0.027061130,0.999443980,-0.016372000,0.035355000,0.053850000,-0.000135606,0.000127700,-0.000039316,0.001757004,-0.011092910,0.001630037,0.014278132,-0.003605302,1.001316714,-0.002149172,-0.001719265,-0.000158130,0.000000000,0.000000000,0.000000000,0.000000000,0.021259324,0.005938365,0.071971768,0.035288330,0.009183663,0.001587358,0.009427819,0.003051308,0.000930233,-0.360414658,0.248115770,2.326737022,-0.003100586,-0.002228620,0.020296241,0.999785426,0.000000000,0.000000000,0.000000000,0.000000000,0.000000000,0.000000000,2.327452466,0.000000000,4.154252052
1772429020.344114065,0.020578000,0.005761000,0.071929000,-0.008646600,0.017569990,0.027024720,0.999442940,-0.016345000,0.035595000,0.053775000,-0.000020027,0.000008877,0.000117638,0.003102730,-0.009649745,0.003588905,0.013839879,-0.003898930,0.999098239,-0.003664951,0.002807956,0.000639541,0.000000000,0.000000000,0.000000000,0.000000000,0.021260005,0.005936188,0.071974322,0.035267181,0.009219077,0.001538949,0.009375308,0.002984735,-0.000385900,-0.360727390,0.247786794,2.330167573,-0.003103307,-0.002225898,0.020326174,0.999785083,0.000000000,0.000000000,0.000000000,0.000000000,0.000000000,0.000000000,2.330540177,0.000000000,4.154252052
1772429020.354114294,0.020572000,0.005765000,0.071941000,-0.008571150,0.017557080,0.027095200,0.999441910,-0.016192000,0.035567000,0.053919000,0.000204254,-0.000110237,0.000235140,0.003276662,0.000708869,0.004199326,0.013972658,-0.003018689,0.999422836,0.000710912,0.001436987,0.000842420,0.000000000,0.000000000,0.000000000,0.000000000,0.021260951,0.005934571,0.071971519,0.035269658,0.009295689,0.001401347,0.009691855,0.003347122,-0.000612911,-0.361145806,0.246708563,2.331642597,-0.003107120,-0.002216604,0.020339066,0.999784974,0.000000000,0.000000000,0.000000000,0.000000000,0.000000000,0.000000000,2.330170526,0.000000000,4.154252052
1772429020.364114285,0.020576000,0.005759000,0.071944000,-0.008590630,0.017474880,0.027088610,0.999443360,-0.016236000,0.035403000,0.053907000,0.001099768,-0.002215192,0.001667950,-0.023853584,0.052444120,0.046380643,0.014745134,-0.002867678,1.000535460,0.002020468,0.000573322,-0.000049161,0.000000000,0.000000000,0.000000000,0.000000000,0.021259284,0.005934353,0.071969466,0.035296664,0.009345529,0.001364236,0.009982776,0.003595742,0.000058458,-0.361264637,0.246751454,2.332842433,-0.003108126,-0.002217032,0.020349533,0.999784612,0.000000000,0.000000000,0.000000000,0.000000000,0.000000000,0.000000000,2.332655717,0.000000000,4.154252052
1772429020.374114513,0.020580000,0.005763000,0.071947000,-0.008572660,0.017559460,0.027110900,0.999441430,-0.016195000,0.035572000,0.053951000,0.000325331,-0.000645494,0.000343551,-0.019914272,0.033460691,0.035288336,0.015108527,-0.003062222,1.001329049,0.002491640,-0.000795461,-0.000702500,0.000000000,0.000000000,0.000000000,0.000000000,0.021257440,0.005934222,0.071967497,0.035325085,0.009393293,0.001334308,0.010263160,0.003803792,0.000837926,-0.361210376,0.246705334,2.332338613,-0.003107671,-0.002216607,0.020345139,0.999784710,0.000000000,0.000000000,0.000000000,0.000000000,0.000000000,0.000000000,2.332383485,0.000000000,4.154252052
