t,px,py,pz,qx,qy,qz,qw,roll,pitch,yaw,vx,vy,vz,wx_vicon,wy_vicon,wz_vicon,imu_acc_x,imu_acc_y,imu_acc_z,imu_gyro_x,imu_gyro_y,imu_gyro_z,motor_motor_m1,motor_motor_m2,motor_motor_m3,motor_motor_m4,est_stateEstimate_x,est_stateEstimate_y,est_stateEstimate_z,est_stateEstimate_vx,est_stateEstimate_vy,est_stateEstimate_vz,est_stateEstimate_ax,est_stateEstimate_ay,est_stateEstimate_az,att_stateEstimate_roll,att_stateEstimate_pitch,att_stateEstimate_yaw,att_stateEstimate_qx,att_stateEstimate_qy,att_stateEstimate_qz,att_stateEstimate_qw,sp_ctrltarget_x,sp_ctrltarget_y,sp_ctrltarget_z,sp_ctrltarget_yaw,pid_controller_roll,pid_controller_pitch,pid_controller_yaw,pid_controller_cmd_thrust,pwr_pm_vbat
1772724275.421577454,0.017510000,0.007597000,0.071345000,-0.003659260,0.005734950,-0.032776500,0.999439550,-0.007691000,0.011224000,-0.065609000,-0.000073757,-0.000183761,-0.001982053,0.029929761,0.051991411,0.019451847,0.012027217,-0.008417607,0.997991401,-0.001493424,-0.002561979,-0.002185731,0.000000000,0.000000000,0.000000000,0.000000000,0.017889367,0.007541102,0.071333380,0.020937939,-0.003398824,0.000015838,0.005791732,-0.000373144,-0.001504579,-0.447365749,0.346693271,-2.986348042,-0.003981483,-0.002922688,-0.026069318,0.999647245,0.000000000,0.000000000,0.000000000,0.000000000,0.000000000,0.000000000,-0.686006427,0.000000000,4.228152752
1772724275.431577682,0.017517000,0.007591000,0.071338000,-0.003575540,0.005880520,-0.032711700,0.999441130,-0.007532000,0.011521000,-0.065480000,-0.000032731,0.000435587,-0.000819232,0.006730558,0.034810466,0.008300200,0.012534542,-0.008937698,0.998312872,0.000435079,-0.001634527,-0.002176116,0.000000000,0.000000000,0.000000000,0.000000000,0.017805926,0.007553393,0.071336398,0.020121246,-0.003248502,-0.000136608,0.006612966,-0.002086377,-0.001893781,-0.447854334,0.350391654,-2.992400491,-0.003986741,-0.002954630,-0.026122252,0.999645601,0.000000000,0.000000000,0.000000000,0.000000000,0.000000000,0.000000000,-0.686006427,0.000000000,4.228152752
1772724275.441577911,0.017507000,0.007602000,0.071331000,-0.003590550,0.006100590,-0.032677580,0.999440880,-0.007576000,0.011960000,-0.065414000,-0.000026787,0.000667988,-0.000152215,-0.005355566,0.019895925,0.001580364,0.012483035,-0.008716714,1.000219689,0.001375985,0.002252799,0.003509283,0.000000000,0.000000000,0.000000000,0.000000000,0.017838672,0.007545630,0.071338213,0.020232819,-0.003245900,-0.000315691,0.005878900,-0.001635810,0.000605219,-0.447648196,0.353626021,-2.998525468,-0.003985839,-0.002982679,-0.026175788,0.999644147,0.000000000,0.000000000,0.000000000,0.000000000,0.000000000,0.000000000,-0.686006427,0.000000000,4.228152752
1772724275.451577425,0.017511000,0.007616000,0.071320000,-0.003596340,0.006093710,-0.032689960,0.999440490,-0.007588000,0.011946000,-0.065439000,-0.000039841,0.000611345,0.000133683,-0.008888442,0.007424649,-0.001704025,0.012832662,-0.008955658,0.998869093,0.000676515,-0.000231931,0.001474554,0.000000000,0.000000000,0.000000000,0.000000000,0.017783940,0.007552044,0.071335672,0.019764811,-0.003256493,-0.000454327,0.006398944,-0.001351733,-0.000729867,-0.447439728,0.354786320,-3.002744649,-0.003984395,-0.002992702,-0.026212627,0.999643061,0.000000000,0.000000000,0.000000000,0.000000000,0.000000000,0.000000000,-0.686006427,0.000000000,4.228152752
1772724275.461577654,0.017511000,0.007610000,0.071330000,-0.003621560,0.006237840,-0.032682050,0.999439770,-0.007647000,0.012232000,-0.065424000,-0.000055808,0.000363559,0.000153147,-0.006427653,-0.002425792,-0.002549759,0.012549139,-0.008511329,0.998396981,-0.000501331,-0.003610345,-0.000394256,0.000000000,0.000000000,0.000000000,0.000000000,0.017843465,0.007545509,0.071328518,0.020138632,-0.003301294,-0.000434395,0.006899998,-0.001037358,-0.001647018,-0.446903354,0.353219569,-3.006505357,-0.003979456,-0.002979027,-0.026245367,0.999642295,0.000000000,0.000000000,0.000000000,0.000000000,0.000000000,0.000000000,-0.686006427,0.000000000,4.228152752
1772724275.471577644,0.017511000,0.007613000,0.071341000,-0.003638610,0.006057760,-0.032772060,0.999437870,-0.007671000,0.011871000,-0.065603000,-0.000058605,0.000022533,0.000020862,-0.000533410,-0.009478229,-0.001951834,0.012477060,-0.008544991,1.000196918,0.000373235,-0.001653549,-0.002200823,0.000000000,0.000000000,0.000000000,0.000000000,0.017876079,0.007548347,0.071319772,0.020399099,-0.003315225,-0.000581258,0.006141362,-0.001130254,-0.000038672,-0.446472428,0.353443136,-3.010892258,-0.003975862,-0.002980923,-0.026283633,0.999641302,0.000000000,0.000000000,0.000000000,0.000000000,0.000000000,0.000000000,-0.686006427,0.000000000,4.228152752
1772724275.481577873,0.017502000,0.007621000,0.071330000,-0.003690890,0.006044120,-0.032686090,0.999440580,-0.007773000,0.011840000,-0.065431000,0.000066647,-0.000364142,0.000020455,0.006588725,-0.014226654,-0.002873865,0.012967907,-0.009222614,1.000719099,-0.000159832,0.000898599,-0.001226730,0.000000000,0.000000000,0.000000000,0.000000000,0.017891606,0.007547188,0.071319295,0.020536020,-0.003315235,-0.000694169,0.006602974,-0.001868253,0.000710026,-0.446083491,0.354564026,-3.015546661,-0.003972848,-0.002990630,-0.026324262,0.999640207,0.000000000,0.000000000,0.000000000,0.000000000,0.000000000,0.000000000,-0.686006427,0.000000000,4.228152752
1772724275.491577864,0.017518000,0.007604000,0.071326000,-0.003622200,0.006011040,-0.032682510,0.999441140,-0.007634000,0.011779000,-0.065423000,0.000169328,-0.000439433,-0.000065715,0.007209879,-0.013152593,-0.001987282,0.013177629,-0.009338365,0.999820736,-0.001601254,0.001055133,0.001591270,0.000000000,0.000000000,0.000000000,0.000000000,0.017900641,0.007548141,0.071324337,0.020455696,-0.003323709,-0.000536310,0.005570572,-0.001943472,0.000974940,-0.446938590,0.366074714,-3.018444403,-0.003983026,-0.003090746,-0.026349951,0.999639129,0.000000000,0.000000000,0.000000000,0.000000000,0.000000000,0.000000000,-0.686006427,0.000000000,4.228152752
1772724275.501577139,0.017512000,0.007600000,0.071325000,-0.003548660,0.005859470,-0.032755830,0.999439910,-0.007478000,0.011480000,-0.065568000,0.000269950,-0.000229662,-0.000121542,0.004840868,-0.012746914,-0.001338066,0.012939586,-0.008776698,0.999600080,-0.001038522,0.001039409,0.001946313,0.000000000,0.000000000,0.000000000,0.000000000,0.017737048,0.007566456,0.071328140,0.014351778,-0.003154708,0.000038947,0.003794412,-0.001456099,0.001481904,-0.450863472,0.396968900,-3.017453472,-0.004024333,-0.003359384,-0.026342448,0.999638306,0.000000000,0.000000000,0.000000000,0.000000000,0.000000000,0.000000000,-0.686006427,0.000000000,4.228152752
1772724275.511578083,0.017506000,0.007607000,0.071330000,-0.003470680,0.005927050,-0.032745330,0.999440130,-0.007326000,0.011620000,-0.065546000,-0.000016103,-0.000153924,0.000146989,-0.000295375,-0.001592466,0.000380415,0.013735274,-0.008852083,1.000501505,-0.000593984,0.000105597,-0.000362106,0.000000000,0.000000000,0.000000000,0.000000000,0.017587046,0.007591564,0.071333080,0.014314342,-0.003135541,0.000054275,0.007163208,-0.000978678,0.000961855,-0.450733371,0.389244983,-3.044403591,-0.004022194,-0.003291089,-0.026577280,0.999633330,0.000000000,0.000000000,0.000000000,0.000000000,0.000000000,0.000000000,-0.686006427,0.000000000,4.228152752
1772724275.521578312,0.017521000,0.007596000,0.071333000,-0.003520570,0.005835100,-0.032775580,0.999439500,-0.007420000,0.011433000,-0.065607000,-0.000136616,0.000133100,0.000270047,-0.004065593,0.005664448,0.000756262,0.011241184,-0.009631750,1.001755201,-0.003730969,-0.001138769,-0.000511616,0.000000000,0.000000000,0.000000000,0.000000000,0.017702275,0.007565134,0.071334559,0.014887143,-0.003268276,0.000089247,0.004436941,-0.002295304,0.001313143,-0.449961126,0.384423556,-3.053227778,-0.004014595,-0.003248899,-0.026654073,0.999630492,0.000000000,0.000000000,0.000000000,0.000000000,0.000000000,0.000000000,-0.686006427,0.000000000,4.228152752
1772724275.531577826,0.017519000,0.007606000,0.071331000,-0.003669310,0.005883650,-0.032695930,0.999441290,-0.007720000,0.011521000,-0.065450000,-0.000397689,0.000245591,0.000107479,-0.004888994,0.008937229,0.004185324,0.012121907,-0.010805729,0.999730065,-0.000119283,0.000124915,-0.001691194,0.000000000,0.000000000,0.000000000,0.000000000,0.017700344,0.007563916,0.071334296,0.015288187,-0.003368521,0.000187849,0.005099318,-0.002919841,0.000772682,-0.449852628,0.382325235,-3.056587013,-0.004013256,-0.003230502,-0.026683305,0.999629763,0.000000000,0.000000000,0.000000000,0.000000000,0.000000000,0.000000000,-0.686006427,0.000000000,4.228152752
1772724275.541577578,0.017505000,0.007612000,0.071335000,-0.003641430,0.005927890,-0.032703240,0.999440890,-0.007667000,0.011611000,-0.065464000,-0.000231294,0.000213384,-0.000037549,-0.000898236,0.007623622,0.004199314,0.012857923,-0.010269574,1.000009031,0.002649275,-0.001717191,-0.001891016,0.000000000,0.000000000,0.000000000,0.000000000,0.017685195,0.007567231,0.071331487,0.015454759,-0.003517772,0.000284642,0.005952569,-0.003124554,0.000089606,-0.449103840,0.380705197,-3.060605994,-0.004006460,-0.003216404,-0.026718288,0.999628926,0.000000000,0.000000000,0.000000000,0.000000000,0.000000000,0.000000000,-0.686006427,0.000000000,4.228152752
1772724275.551577091,0.017493000,0.007606000,0.071337000,-0.003613800,0.006154960,-0.032674450,0.999440560,-0.007626000,0.012067000,-0.065408000,-0.000252098,0.000206935,-0.000191978,0.006319334,0.001293934,0.000992544,0.012264279,-0.009781559,1.000151038,-0.000749072,-0.004631314,0.000632685,0.000000000,0.000000000,0.000000000,0.000000000,0.017798775,0.007542554,0.071333725,0.015916660,-0.003790205,0.000289562,0.006089657,-0.002149361,-0.000272103,-0.448147927,0.379308499,-3.064626891,-0.003997908,-0.003204302,-0.026753291,0.999628028,0.000000000,0.000000000,0.000000000,0.000000000,0.000000000,0.000000000,-0.686006427,0.000000000,4.228152752
1772724275.561576605,0.017512000,0.007613000,0.071326000,-0.003531200,0.006024960,-0.032692040,0.999441070,-0.007453000,0.011813000,-0.065441000,0.000097689,0.000090773,-0.000151826,0.007783867,-0.002898143,-0.001809990,0.012212926,-0.009628885,1.000927374,-0.000285011,0.001058697,-0.000654083,0.000000000,0.000000000,0.000000000,0.000000000,0.017814002,0.007540663,0.071333915,0.016188975,-0.003929929,0.000276580,0.004899995,-0.001605284,0.000816053,-0.448012727,0.379382680,-3.067611916,-0.003996830,-0.003204877,-0.026779331,0.999627335,0.000000000,0.000000000,0.000000000,0.000000000,0.000000000,0.000000000,-0.686006427,0.000000000,4.228152752
1772724275.571576357,0.017501000,0.007605000,0.071328000,-0.003486420,0.005868700,-0.032691860,0.999442170,-0.007353000,0.011503000,-0.065439000,0.000480906,-0.000105381,-0.000038345,0.004579177,-0.011507666,-0.007472172,0.012072674,-0.009705992,1.000607351,-0.002616490,0.000113388,-0.000665701,0.000000000,0.000000000,0.000000000,0.000000000,0.017824715,0.007535197,0.071334686,0.016378881,-0.004016835,0.000313495,0.005765179,-0.002487119,0.000807449,-0.448088888,0.377926506,-3.070781374,-0.003997243,-0.003192045,-0.026806932,0.999626667,0.000000000,0.000000000,0.000000000,0.000000000,0.000000000,0.000000000,-0.686006427,0.000000000,4.228152752
1772724275.581576347,0.017516000,0.007617000,0.071329000,-0.003494020,0.005890360,-0.032750470,0.999440090,-0.007371000,0.011546000,-0.065557000,0.000519795,-0.000098796,0.000000039,-0.002232239,-0.007414404,-0.007282776,0.011307725,-0.008915045,0.999499411,-0.001837048,0.000491152,0.002091032,0.000000000,0.000000000,0.000000000,0.000000000,0.017833952,0.007531454,0.071337177,0.016550309,-0.004113952,0.000397681,0.004527607,-0.001863795,-0.000492684,-0.448785196,0.376448811,-3.074033336,-0.004003061,-0.003178878,-0.026835271,0.999625944,0.000000000,0.000000000,0.000000000,0.000000000,0.000000000,0.000000000,-0.686006427,0.000000000,4.228152752
1772724275.591576338,0.017512000,0.007609000,0.071327000,-0.003506120,0.005866290,-0.032779350,0.999439250,-0.007393000,0.011496000,-0.065614000,0.000169192,0.000088656,0.000044969,-0.007123440,-0.000286284,-0.004809546,0.010935066,-0.008992173,0.998040431,0.000223158,0.000116172,0.000137095,0.000000000,0.000000000,0.000000000,0.000000000,0.017833560,0.007531586,0.071336477,0.016659390,-0.004204863,0.000390116,0.003926593,-0.001691129,-0.001635170,-0.449623517,0.375409254,-3.077245808,-0.004010220,-0.003169501,-0.026863283,0.999625181,0.000000000,0.000000000,0.000000000,0.000000000,0.000000000,0.000000000,-0.686006427,0.000000000,4.228152752
1772724275.601576328,0.017529000,0.007603000,0.071334000,-0.003666950,0.005875080,-0.032808140,0.999437670,-0.007716000,0.011503000,-0.065674000,-0.000114394,0.000026787,-0.000063734,-0.010165523,0.003857583,0.000006359,0.011220920,-0.008936665,0.997845015,-0.000183307,-0.000421834,-0.000529348,0.000000000,0.000000000,0.000000000,0.000000000,0.017833224,0.007531734,0.071334179,0.016679566,-0.004229218,0.000315050,0.004333026,-0.001526565,-0.001766848,-0.449860066,0.375103365,-3.078494240,-0.004012246,-0.003166734,-0.026874169,0.999624813,0.000000000,0.000000000,0.000000000,0.000000000,0.000000000,0.000000000,-0.686006427,0.000000000,4.228152752
1772724275.611576796,0.017511000,0.007611000,0.071331000,-0.003610320,0.005860980,-0.032863180,0.999436150,-0.007602000,0.011478000,-0.065783000,-0.000138015,0.000072688,-0.000232770,-0.008228714,0.002248981,0.002411995,0.011611503,-0.008839285,0.997873280,-0.001033080,-0.000968170,-0.000875629,0.000000000,0.000000000,0.000000000,0.000000000,0.017832822,0.007532294,0.071333425,0.016680739,-0.004225683,0.000278175,0.004777802,-0.001362301,-0.001860081,-0.449898321,0.375022398,-3.079079443,-0.004012577,-0.003165998,-0.026879272,0.999624667,0.000000000,0.000000000,0.000000000,0.000000000,0.000000000,0.000000000,-0.686006427,0.000000000,4.228152752
1772724275.621577263,0.017509000,0.007612000,0.071324000,-0.003647420,0.006104310,-0.032719420,0.999439280,-0.007691000,0.011963000,-0.065498000,-0.000402273,0.000065715,-0.000272630,-0.005172060,0.004165290,0.005108731,0.012002086,-0.008741905,0.997901545,-0.001882853,-0.001514506,-0.001221910,0.000000000,0.000000000,0.000000000,0.000000000,0.017832420,0.007532854,0.071332672,0.016681912,-0.004222148,0.000241300,0.005222579,-0.001198036,-0.001953313,-0.449936577,0.374941431,-3.079664646,-0.004012908,-0.003165262,-0.026884375,0.999624520,0.000000000,0.000000000,0.000000000,0.000000000,0.000000000,0.000000000,-0.686006427,0.000000000,4.228152752
1772724275.631577492,0.017505000,0.007619000,0.071322000,-0.003700120,0.005913250,-0.032706290,0.999440660,-0.007783000,0.011578000,-0.065471000,-0.000255789,0.000034654,-0.000111752,-0.000705208,0.003726489,0.004008928,0.012392660,-0.008644527,0.997929809,-0.002732606,-0.002060829,-0.001568183,0.000000000,0.000000000,0.000000000,0.000000000,0.017832018,0.007533414,0.071331918,0.016683084,-0.004218613,0.000204426,0.005667345,-0.001033776,-0.002046544,-0.449974832,0.374860466,-3.080249835,-0.004013239,-0.003164526,-0.026889478,0.999624374,0.000000000,0.000000000,0.000000000,0.000000000,0.000000000,0.000000000,-0.686006427,0.000000000,4.228152752
1772724275.641577959,0.017512000,0.007604000,0.071319000,-0.003696410,0.005809670,-0.032718390,0.999440890,-0.007769000,0.011371000,-0.065494000,-0.000066589,-0.000193609,0.000134305,0.001973896,0.003180257,0.003757610,0.012783243,-0.008547147,0.997958073,-0.003582379,-0.002607165,-0.001914464,0.000000000,0.000000000,0.000000000,0.000000000,0.017831616,0.007533975,0.071331164,0.016684257,-0.004215078,0.000167551,0.006112121,-0.000869512,-0.002139776,-0.450013088,0.374779499,-3.080835037,-0.004013570,-0.003163791,-0.026894581,0.999624228,0.000000000,0.000000000,0.000000000,0.000000000,0.000000000,0.000000000,-0.686006427,0.000000000,4.228152752
1772724275.651577950,0.017507000,0.007611000,0.071326000,-0.003653830,0.006017050,-0.032760970,0.999438420,-0.007698000,0.011788000,-0.065581000,0.000108800,-0.000237452,0.000392036,0.000126558,0.001194939,0.000585670,0.012879896,-0.008526168,0.998376115,-0.004347000,-0.001869529,-0.002293769,0.000000000,0.000000000,0.000000000,0.000000000,0.017831214,0.007534535,0.071330410,0.016685429,-0.004211543,0.000130678,0.006113153,-0.000810230,-0.001509129,-0.450135788,0.374655047,-3.081656001,-0.004014634,-0.003162647,-0.026901741,0.999624082,0.000000000,0.000000000,0.000000000,0.000000000,0.000000000,0.000000000,-0.686006427,0.000000000,4.228152752
1772724275.661577940,0.017503000,0.007609000,0.071328000,-0.003662100,0.006115360,-0.032703120,0.999439690,-0.007721000,0.011985000,-0.065466000,0.000087490,-0.000182479,0.000270435,0.001207663,0.001087801,-0.003911416,0.011932981,-0.008604676,0.999219876,-0.003199080,0.001248943,-0.002690411,0.000000000,0.000000000,0.000000000,0.000000000,0.017833848,0.007530133,0.071325647,0.016856586,-0.004181141,-0.000036908,0.005473280,-0.000875802,-0.000842354,-0.451671876,0.373572065,-3.086489074,-0.004027913,-0.003152669,-0.026943908,0.999622969,0.000000000,0.000000000,0.000000000,0.000000000,0.000000000,0.000000000,-0.686006427,0.000000000,4.228152752
1772724275.671578646,0.017514000,0.007599000,0.071338000,-0.003621930,0.005925150,-0.032747070,0.999439540,-0.007628000,0.011607000,-0.065552000,0.000123135,-0.000173504,0.000123077,0.001137111,0.007927814,-0.004312731,0.011526158,-0.009108930,0.997701005,0.000850631,-0.001524887,-0.000715803,0.000000000,0.000000000,0.000000000,0.000000000,0.017835725,0.007529834,0.071324521,0.017026702,-0.004146224,-0.000089606,0.004885557,-0.001830650,-0.001849281,-0.452638652,0.371681700,-3.090678140,-0.004036017,-0.003135804,-0.026980414,0.999621978,0.000000000,0.000000000,0.000000000,0.000000000,0.000000000,0.000000000,-0.686006427,0.000000000,4.228152752
1772724275.681579113,0.017512000,0.007604000,0.071335000,-0.003672220,0.006022300,-0.032703160,0.999440220,-0.007735000,0.011798000,-0.065465000,-0.000020319,-0.000043396,-0.000126204,-0.000382747,0.004970713,-0.004554139,0.011951141,-0.010577882,0.998056560,0.000429174,-0.001295685,0.002701619,0.000000000,0.000000000,0.000000000,0.000000000,0.017835397,0.007529723,0.071324485,0.017098786,-0.004104633,-0.000237649,0.004837949,-0.002940401,-0.001762105,-0.452600731,0.371592467,-3.093991016,-0.004035755,-0.003134918,-0.027009310,0.999621192,0.000000000,0.000000000,0.000000000,0.000000000,0.000000000,0.000000000,-0.686006427,0.000000000,4.228152752
1772724275.691578388,0.017504000,0.007609000,0.071328000,-0.003690880,0.005976940,-0.032817420,0.999436680,-0.007771000,0.011705000,-0.065694000,-0.000115676,-0.000118862,-0.000326593,0.000336452,-0.002235972,-0.002530784,0.013353970,-0.008909472,0.998892190,-0.001358078,-0.001066102,-0.000602379,0.000000000,0.000000000,0.000000000,0.000000000,0.017839848,0.007525039,0.071327259,0.017156736,-0.004235501,-0.000408416,0.007024124,-0.001906843,-0.001312327,-0.452799589,0.371939393,-3.096856003,-0.004037650,-0.003137797,-0.027034317,0.999620475,0.000000000,0.000000000,0.000000000,0.000000000,0.000000000,0.000000000,-0.686006427,0.000000000,4.228152752
1772724275.701578379,0.017515000,0.007599000,0.071319000,-0.003639440,0.006062560,-0.032837550,0.999435690,-0.007674000,0.011880000,-0.065734000,-0.000141395,0.000039821,-0.000298582,0.001354823,-0.004770717,-0.000986937,0.014934879,-0.007605248,0.999790835,-0.001150343,0.001729434,0.000788893,0.000000000,0.000000000,0.000000000,0.000000000,0.017770717,0.007541019,0.071329315,0.016785675,-0.004184437,-0.000524487,0.008564224,-0.000502189,-0.000396269,-0.454790557,0.376204022,-3.099388648,-0.004056094,-0.003174439,-0.027056610,0.999619748,0.000000000,0.000000000,0.000000000,0.000000000,0.000000000,0.000000000,-0.686006427,0.000000000,4.228152752
1772724275.711578608,0.017507000,0.007600000,0.071329000,-0.003618640,0.006110180,-0.032800380,0.999436690,-0.007635000,0.011976000,-0.065660000,-0.000046814,0.000008333,-0.000055614,0.001736067,-0.011204450,0.002684197,0.013625159,-0.007981913,0.999832482,0.002656884,-0.002493798,0.003001234,0.000000000,0.000000000,0.000000000,0.000000000,0.017793260,0.007537542,0.071323687,0.017314499,-0.004117929,-0.000564949,0.007487027,-0.000620827,-0.000113063,-0.455538519,0.372026213,-3.103035327,-0.004061733,-0.003137689,-0.027088301,0.999618935,0.000000000,0.000000000,0.000000000,0.000000000,0.000000000,0.000000000,-0.686006427,0.000000000,4.228152752
1772724275.721578360,0.017499000,0.007606000,0.071320000,-0.003656240,0.005911400,-0.032744760,0.999439580,-0.007696000,0.011577000,-0.065547000,-0.000023932,0.000010684,0.000078788,0.003651280,-0.022733377,0.005261675,0.012399069,-0.008184332,0.999222009,0.004684467,0.001882103,-0.002010964,0.000000000,0.000000000,0.000000000,0.000000000,0.017831497,0.007527589,0.071315536,0.017896112,-0.004042269,-0.000601413,0.005765333,-0.000538315,-0.001207573,-0.454947645,0.370382265,-3.106202804,-0.004056277,-0.003123376,-0.027115859,0.999618256,0.000000000,0.000000000,0.000000000,0.000000000,0.000000000,0.000000000,-0.686006427,0.000000000,4.228152752
1772724275.731578827,0.017506000,0.007602000,0.071325000,-0.003607160,0.005714780,-0.032704930,0.999442200,-0.007585000,0.011187000,-0.065465000,0.000023174,0.000155361,0.000081546,0.004610309,-0.020798075,0.006292591,0.011813385,-0.008219266,0.999854321,0.000724912,-0.004346660,-0.001031664,0.000000000,0.000000000,0.000000000,0.000000000,0.017845665,0.007525424,0.071315383,0.018186835,-0.004025708,-0.000604923,0.005386992,-0.000714446,0.000177312,-0.453046897,0.368097907,-3.106415781,-0.004039162,-0.003103891,-0.027117588,0.999618199,0.000000000,0.000000000,0.000000000,0.000000000,0.000000000,0.000000000,-0.686006427,0.000000000,4.228152752
1772724275.741579533,0.017515000,0.007607000,0.071329000,-0.003623680,0.005695200,-0.032742810,0.999441010,-0.007617000,0.011147000,-0.065541000,0.000061791,0.000225855,-0.000004390,0.004154867,-0.014096096,0.004770875,0.011516088,-0.008763254,0.997174751,-0.001422557,0.002031141,0.001369759,0.000000000,0.000000000,0.000000000,0.000000000,0.017851453,0.007526612,0.071312613,0.018298127,-0.003964438,-0.000655323,0.005462764,-0.001293726,-0.002730879,-0.451793770,0.368715174,-3.103561587,-0.004028299,-0.003109672,-0.027092680,0.999618923,0.000000000,0.000000000,0.000000000,0.000000000,0.000000000,0.000000000,-0.686006427,0.000000000,4.228152752
1772724275.751579523,0.017510000,0.007602000,0.071331000,-0.003594140,0.005590980,-0.032694230,0.999443300,-0.007550000,0.010941000,-0.065443000,0.000212277,-0.000089724,-0.000100874,0.003154565,-0.008681969,0.002060845,0.011134256,-0.009835681,0.997484225,-0.003584343,-0.001963635,0.000111261,0.000000000,0.000000000,0.000000000,0.000000000,0.017858829,0.007527296,0.071313164,0.018380869,-0.003933184,-0.000725186,0.004103349,-0.002126743,-0.002537704,-0.451400173,0.368397280,-3.100200712,-0.004024699,-0.003107110,-0.027063339,0.999619706,0.000000000,0.000000000,0.000000000,0.000000000,0.000000000,0.000000000,-0.686006427,0.000000000,4.228152752
1772724275.761579514,0.017500000,0.007611000,0.071316000,-0.003543740,0.005583970,-0.032674240,0.999444170,-0.007449000,0.010930000,-0.065402000,0.000187238,-0.000117638,-0.000053283,-0.001336790,0.001115825,-0.000962994,0.011821385,-0.008080343,1.000027034,0.002715494,0.002514637,0.001951423,0.000000000,0.000000000,0.000000000,0.000000000,0.017864584,0.007528260,0.071313680,0.018414523,-0.003959290,-0.000932249,0.005539880,-0.001251169,-0.000151136,-0.452296695,0.368608066,-3.096807771,-0.004032477,-0.003108857,-0.027033774,0.999620469,0.000000000,0.000000000,0.000000000,0.000000000,0.000000000,0.000000000,-0.686006427,0.000000000,4.228152752
1772724275.771579504,0.017516000,0.007607000,0.071324000,-0.003538620,0.005763120,-0.032703730,0.999442210,-0.007451000,0.011289000,-0.065463000,0.000039083,-0.000086849,-0.000091550,-0.004035094,0.005125735,-0.002098028,0.011847327,-0.005479805,0.999751899,0.000599853,-0.001625024,0.003428981,0.000000000,0.000000000,0.000000000,0.000000000,0.017864045,0.007528665,0.071310061,0.018427881,-0.003973518,-0.001025346,0.005791013,0.002504666,-0.000209534,-0.451836795,0.367789229,-3.093360780,-0.004028179,-0.003101943,-0.027003665,0.999621319,0.000000000,0.000000000,0.000000000,0.000000000,0.000000000,0.000000000,-0.686006427,0.000000000,4.228152752
1772724275.781579256,0.017514000,0.007601000,0.071324000,-0.003620160,0.005674680,-0.032666010,0.999443660,-0.007608000,0.011107000,-0.065387000,0.000099029,-0.000129526,-0.000012277,-0.001982543,0.003695800,-0.002270072,0.010710469,-0.007918378,1.000987131,0.000468543,0.004767743,-0.000127880,0.000000000,0.000000000,0.000000000,0.000000000,0.017863995,0.007531919,0.071304702,0.018486213,-0.003787183,-0.000992340,0.003840467,-0.000285613,0.000721606,-0.451046315,0.367965925,-3.089650718,-0.004021224,-0.003103801,-0.026971283,0.999622221,0.000000000,0.000000000,0.000000000,0.000000000,0.000000000,0.000000000,-0.686006427,0.000000000,4.228152752
1772724275.791578293,0.017514000,0.007593000,0.071324000,-0.003647630,0.005529180,-0.032760580,0.999441280,-0.007654000,0.010813000,-0.065576000,0.000039277,0.000029118,0.000053788,0.001206048,0.001400238,-0.003498974,0.011990694,-0.008736804,1.000528390,-0.001475933,-0.002292371,-0.002284229,0.000000000,0.000000000,0.000000000,0.000000000,0.017869533,0.007532896,0.071305526,0.018517532,-0.003544306,-0.000892560,0.005669310,-0.001523298,0.000738163,-0.450610016,0.366384071,-3.086324679,-0.004016957,-0.003090221,-0.026942205,0.999623063,0.000000000,0.000000000,0.000000000,0.000000000,0.000000000,0.000000000,-0.686006427,0.000000000,4.228152752
1772724275.801578760,0.017514000,0.007611000,0.071324000,-0.003657220,0.005797410,-0.032767110,0.999439510,-0.007691000,0.011349000,-0.065591000,-0.000112840,0.000084654,0.000117075,0.007694324,-0.002233837,-0.001399425,0.012200369,-0.008709381,0.998713029,0.001093014,-0.000308848,0.000518786,0.000000000,0.000000000,0.000000000,0.000000000,0.017871279,0.007531195,0.071306979,0.018532159,-0.003527742,-0.000785217,0.005896523,-0.000880934,-0.000996688,-0.451161762,0.367677783,-3.088470189,-0.004022132,-0.003101302,-0.026960980,0.999622856,0.000000000,0.000000000,0.000000000,0.000000000,0.000000000,0.000000000,-0.686006427,0.000000000,4.228152752
1772724275.811579466,0.017508000,0.007604000,0.071325000,-0.003518720,0.005705640,-0.032719300,0.999442100,-0.007407000,0.011175000,-0.065493000,-0.000133042,0.000237549,-0.000061810,0.010070204,-0.001261387,-0.000189013,0.012810785,-0.008152035,0.999146758,0.001474158,0.001480701,-0.001879679,0.000000000,0.000000000,0.000000000,0.000000000,0.017872297,0.007529353,0.071308159,0.018592164,-0.003542232,-0.000732346,0.006168052,-0.000926944,-0.000306417,-0.451225354,0.367998266,-3.086961299,-0.004022721,-0.003104136,-0.026947828,0.999622726,0.000000000,0.000000000,0.000000000,0.000000000,0.000000000,0.000000000,-0.686006427,0.000000000,4.228152752
1772724275.821579456,0.017513000,0.007605000,0.071323000,-0.003461460,0.005619350,-0.032725590,0.999442580,-0.007287000,0.011006000,-0.065504000,0.000007789,0.000214239,-0.000025389,0.007369591,0.005935473,-0.000094966,0.013613862,-0.007788205,0.999115513,0.000855545,-0.001946941,-0.002215373,0.000000000,0.000000000,0.000000000,0.000000000,0.017873742,0.007536199,0.071308841,0.018688182,-0.003514947,-0.000788144,0.007283228,-0.000595078,-0.000961939,-0.451126739,0.367428563,-3.084693265,-0.004021666,-0.003099269,-0.026928022,0.999623398,0.000000000,0.000000000,0.000000000,0.000000000,0.000000000,0.000000000,-0.686006427,0.000000000,4.228152752
1772724275.831579924,0.017505000,0.007612000,0.071324000,-0.003451510,0.005649050,-0.032749470,0.999441670,-0.007270000,0.011066000,-0.065552000,-0.000103477,0.000070260,0.000076884,-0.001438138,0.005299982,0.001517000,0.013553712,-0.008057077,0.999249028,0.000322406,-0.003629212,0.000144890,0.000000000,0.000000000,0.000000000,0.000000000,0.017872829,0.007536453,0.071309242,0.018836314,-0.003479176,-0.000815343,0.007207046,-0.000594915,-0.000556475,-0.450824098,0.367059407,-3.082182156,-0.004018871,-0.003096208,-0.026906098,0.999624009,0.000000000,0.000000000,0.000000000,0.000000000,0.000000000,0.000000000,-0.686006427,0.000000000,4.228152752
1772724275.841580391,0.017513000,0.007606000,0.071327000,-0.003446890,0.005723980,-0.032712810,0.999442460,-0.007265000,0.011216000,-0.065480000,-0.000051651,-0.000119037,0.000122980,-0.009099477,0.006988352,0.001572653,0.013384654,-0.008580516,0.998500797,-0.000112022,0.000349005,0.002692030,0.000000000,0.000000000,0.000000000,0.000000000,0.017876990,0.007537360,0.071307797,0.019091277,-0.003403722,-0.000890122,0.006927588,-0.001066032,-0.001318116,-0.450235554,0.368375882,-3.079009118,-0.004013960,-0.003107941,-0.026878445,0.999624721,0.000000000,0.000000000,0.000000000,0.000000000,0.000000000,0.000000000,-0.686006427,0.000000000,4.228152752
1772724275.851580858,0.017515000,0.007609000,0.071321000,-0.003604300,0.005820870,-0.032749180,0.999440150,-0.007586000,0.011399000,-0.065555000,-0.000111403,-0.000091880,0.000053089,-0.014230928,0.011356588,0.002850249,0.013863155,-0.008160195,0.998303275,-0.000174588,0.001765192,0.001429756,0.000000000,0.000000000,0.000000000,0.000000000,0.017876983,0.007541798,0.071307478,0.019243443,-0.003363887,-0.000881502,0.007368961,-0.000751167,-0.001305177,-0.449686651,0.368421646,-3.075765731,-0.004009095,-0.003108582,-0.026850138,0.999625496,0.000000000,0.000000000,0.000000000,0.000000000,0.000000000,0.000000000,-0.686006427,0.000000000,4.228152752
1772724275.861581087,0.017504000,0.007607000,0.071328000,-0.003638770,0.005889780,-0.032721420,0.999440530,-0.007659000,0.011535000,-0.065500000,-0.000074262,-0.000134926,-0.000028147,-0.013155644,0.013561055,0.003964171,0.013757907,-0.007846984,0.999814264,0.000797982,0.001653457,-0.001877227,0.000000000,0.000000000,0.000000000,0.000000000,0.017882117,0.007541850,0.071308024,0.019450852,-0.003376199,-0.001019791,0.007704000,-0.000688702,-0.000252783,-0.449397033,0.366994044,-3.072501800,-0.004006146,-0.003096311,-0.026821610,0.999626333,0.000000000,0.000000000,0.000000000,0.000000000,0.000000000,0.000000000,-0.686006427,0.000000000,4.228152752
1772724275.871580601,0.017502000,0.007604000,0.071331000,-0.003709630,0.005823970,-0.032663080,0.999442570,-0.007796000,0.011399000,-0.065384000,0.000125680,-0.000107615,-0.000241181,-0.005338000,0.008437112,0.002653780,0.013112140,-0.009153655,0.999334606,0.000090247,0.001188264,-0.001298334,0.000000000,0.000000000,0.000000000,0.000000000,0.017887109,0.007542861,0.071305921,0.019645867,-0.003315078,-0.001041574,0.007063466,-0.001259811,-0.000169115,-0.449129306,0.365530677,-3.069776351,-0.004003394,-0.003083703,-0.026797779,0.999627028,0.000000000,0.000000000,0.000000000,0.000000000,0.000000000,0.000000000,-0.686006427,0.000000000,4.228152752
1772724275.881580353,0.017514000,0.007602000,0.071322000,-0.003669620,0.005964840,-0.032656140,0.999442110,-0.007725000,0.011684000,-0.065371000,0.000207382,0.000058644,-0.000215463,0.002500791,0.002295043,-0.001032460,0.011145647,-0.008581789,0.998841261,-0.002208766,-0.001747707,-0.001415453,0.000000000,0.000000000,0.000000000,0.000000000,0.017889227,0.007543546,0.071305575,0.019804260,-0.003289665,-0.001030846,0.004953804,-0.001228768,-0.001478728,-0.448737251,0.364802106,-3.067308303,-0.003999738,-0.003077526,-0.026776214,0.999627633,0.000000000,0.000000000,0.000000000,0.000000000,0.000000000,0.000000000,-0.686006427,0.000000000,4.228152752
1772724275.891580343,0.017507000,0.007605000,0.071317000,-0.003686460,0.005900780,-0.032682120,0.999441580,-0.007755000,0.011554000,-0.065422000,0.000388501,0.000178710,-0.000185995,0.010457031,-0.004691338,-0.003540295,0.013667342,-0.007200653,0.999683462,-0.000674051,0.002863739,-0.001469429,0.000000000,0.000000000,0.000000000,0.000000000,0.017888629,0.007543097,0.071307634,0.019882459,-0.003303192,-0.001036736,0.007528461,0.000192632,0.000066027,-0.449099865,0.364749816,-3.064641454,-0.004002818,-0.003077078,-0.026752959,0.999628260,0.000000000,0.000000000,0.000000000,0.000000000,0.000000000,0.000000000,-0.686006427,0.000000000,4.228152752
1772724275.901580095,0.017520000,0.007610000,0.071318000,-0.003625850,0.006043470,-0.032719170,0.999439740,-0.007644000,0.011843000,-0.065497000,0.000240890,0.000286733,-0.000139278,0.009740268,-0.007667598,-0.006631662,0.013796868,-0.008025700,1.000077255,-0.000011146,0.004020346,0.000349478,0.000000000,0.000000000,0.000000000,0.000000000,0.017768654,0.007566925,0.071311049,0.017916714,-0.002876315,-0.001104649,0.005967630,-0.000127347,-0.000239992,-0.450491624,0.373886378,-3.064786781,-0.004017095,-0.003156450,-0.026754572,0.999627519,0.000000000,0.000000000,0.000000000,0.000000000,0.000000000,0.000000000,-0.686006427,0.000000000,4.228152752
1772724275.911580086,0.017520000,0.007608000,0.071314000,-0.003485790,0.005773520,-0.032755950,0.999440630,-0.007346000,0.011312000,-0.065567000,-0.000158100,0.000255400,-0.000041414,0.006045117,-0.005735077,-0.005273860,0.013665556,-0.008982616,1.000471754,0.000023296,0.003099875,0.001602993,0.000000000,0.000000000,0.000000000,0.000000000,0.017602288,0.007599573,0.071314326,0.016207877,-0.002494493,-0.001130019,0.006716336,-0.001259378,0.000573280,-0.452057896,0.385321814,-3.065685092,-0.004033451,-0.003255809,-0.026762834,0.999626133,0.000000000,0.000000000,0.000000000,0.000000000,0.000000000,0.000000000,-0.686006427,0.000000000,4.228152752
1772724275.921579599,0.017515000,0.007615000,0.071326000,-0.003547830,0.005776630,-0.032793920,0.999439140,-0.007471000,0.011314000,-0.065643000,-0.000434752,0.000066744,0.000093765,-0.003001785,-0.002572778,-0.001190792,0.013896506,-0.009813670,1.000468667,-0.001384863,-0.001363966,-0.000189475,0.000000000,0.000000000,0.000000000,0.000000000,0.017700277,0.007582077,0.071306434,0.016932995,-0.002602485,-0.001071857,0.006783703,-0.002193706,0.000318480,-0.453197379,0.393867636,-3.065541869,-0.004045379,-0.003330097,-0.026761903,0.999627039,0.000000000,0.000000000,0.000000000,0.000000000,0.000000000,0.000000000,-0.686006427,0.000000000,4.228152752
1772724275.931579828,0.017512000,0.007615000,0.071317000,-0.003516100,0.005760680,-0.032765440,0.999440280,-0.007406000,0.011285000,-0.065586000,-0.000319794,-0.000085995,-0.000006507,-0.008306262,0.000101434,0.001600252,0.014600862,-0.010224175,0.999653969,-0.000227121,0.001074548,-0.000033177,0.000000000,0.000000000,0.000000000,0.000000000,0.017766692,0.007569235,0.071301233,0.017492388,-0.002739908,-0.000983715,0.007422594,-0.002538889,-0.000480829,-0.453232071,0.394516774,-3.062766026,-0.004045753,-0.003335849,-0.026737713,0.999627670,0.000000000,0.000000000,0.000000000,0.000000000,0.000000000,0.000000000,-0.686006427,0.000000000,4.228152752
1772724275.941579819,0.017499000,0.007610000,0.071319000,-0.003662460,0.005890070,-0.032767820,0.999438920,-0.007707000,0.011534000,-0.065593000,-0.000326923,-0.000240307,-0.000071406,-0.009460961,0.004279519,0.003235917,0.014293981,-0.009784006,0.999270588,-0.000220848,-0.002974365,-0.000422184,0.000000000,0.000000000,0.000000000,0.000000000,0.017805904,0.007559596,0.071301380,0.017968577,-0.002904026,-0.000951067,0.007371545,-0.002014268,-0.000523047,-0.453163696,0.393166021,-3.059938884,-0.004044759,-0.003324181,-0.026713002,0.999628342,0.000000000,0.000000000,0.000000000,0.000000000,0.000000000,0.000000000,-0.686006427,0.000000000,4.228152752
1772724275.951579571,0.017501000,0.007607000,0.071315000,-0.003692410,0.005954710,-0.032708690,0.999440370,-0.007771000,0.011661000,-0.065476000,0.000066628,-0.000419192,-0.000015054,-0.005176076,0.007815750,0.000241586,0.012506187,-0.010083847,0.999341918,-0.002156151,0.003920035,-0.000199069,0.000000000,0.000000000,0.000000000,0.000000000,0.017838202,0.007552036,0.071300542,0.018437601,-0.003052155,-0.000962309,0.005608406,-0.002578505,-0.000528138,-0.452779228,0.393672916,-3.057326114,-0.004041447,-0.003328785,-0.026690217,0.999628955,0.000000000,0.000000000,0.000000000,0.000000000,0.000000000,0.000000000,-0.686006427,0.000000000,4.228152752
1772724275.961580038,0.017507000,0.007602000,0.071322000,-0.003746230,0.005897490,-0.032724090,0.999440000,-0.007875000,0.011543000,-0.065507000,0.000278361,-0.000578555,0.000228808,0.002451226,0.001054736,-0.003573293,0.012915422,-0.009747407,0.998399664,-0.001659695,0.002460877,-0.002129645,0.000000000,0.000000000,0.000000000,0.000000000,0.017859734,0.007540741,0.071303036,0.018742015,-0.003260789,-0.000964977,0.005740486,-0.002348313,-0.001268068,-0.452861231,0.391271743,-3.054781968,-0.004041530,-0.003307909,-0.026667944,0.999629754,0.000000000,0.000000000,0.000000000,0.000000000,0.000000000,0.000000000,-0.686006427,0.000000000,4.228152752
1772724275.971579552,0.017516000,0.007603000,0.071316000,-0.003621310,0.005796270,-0.032767880,0.999439620,-0.007619000,0.011349000,-0.065592000,0.000368648,-0.000239763,0.000389064,0.004914762,0.001941011,-0.005072811,0.013916016,-0.008925576,0.997229850,-0.000632157,-0.000456601,0.000625657,0.000000000,0.000000000,0.000000000,0.000000000,0.017873546,0.007533091,0.071308213,0.018932979,-0.003520142,-0.001049822,0.007476003,-0.001430038,-0.003471123,-0.452436106,0.388959678,-3.055316757,-0.004037299,-0.003287820,-0.026672518,0.999629566,0.000000000,0.000000000,0.000000000,0.000000000,0.000000000,0.000000000,-0.686006427,0.000000000,4.228152752
1772724275.981580019,0.017507000,0.007594000,0.071324000,-0.003567580,0.005986740,-0.032785220,0.999438120,-0.007524000,0.011733000,-0.065628000,0.000131954,0.000151457,0.000105439,0.008641613,0.001396552,-0.003775008,0.012472859,-0.009815171,0.998348523,-0.001581645,0.002435246,-0.003617797,0.000000000,0.000000000,0.000000000,0.000000000,0.017876368,0.007537450,0.071306147,0.019229178,-0.003508352,-0.001289615,0.005967290,-0.001719693,-0.001007920,-0.452080511,0.388104989,-3.052102336,-0.004033907,-0.003280560,-0.026644439,0.999630314,0.000000000,0.000000000,0.000000000,0.000000000,0.000000000,0.000000000,-0.686006427,0.000000000,4.228152752
1772724275.991580725,0.017519000,0.007592000,0.071330000,-0.003578660,0.005885020,-0.032875850,0.999435710,-0.007541000,0.011528000,-0.065809000,-0.000327972,0.000396523,-0.000061286,0.003642232,0.002696087,-0.000258418,0.013216797,-0.009447101,1.000434645,0.001550244,0.002692301,0.000154962,0.000000000,0.000000000,0.000000000,0.000000000,0.017875637,0.007544195,0.071295555,0.019420109,-0.003565097,-0.001481988,0.005828093,-0.002073533,0.000209375,-0.452851293,0.386928256,-3.050279826,-0.004040305,-0.003270180,-0.026628524,0.999630836,0.000000000,0.000000000,0.000000000,0.000000000,0.000000000,0.000000000,-0.686006427,0.000000000,4.228152752
1772724276.001580715,0.017508000,0.007601000,0.071334000,-0.003589140,0.005907510,-0.032803070,0.999437930,-0.007562000,0.011573000,-0.065663000,-0.000468901,0.000496659,-0.000167580,-0.003383228,0.003878172,0.004205325,0.011996307,-0.009108534,1.001381696,-0.003313305,0.000033448,-0.000153663,0.000000000,0.000000000,0.000000000,0.000000000,0.017874087,0.007542555,0.071292524,0.019524880,-0.003663703,-0.001486627,0.005823934,-0.001688830,0.001406249,-0.452039051,0.384779867,-3.047696844,-0.004032648,-0.003251719,-0.026605897,0.999631460,0.000000000,0.000000000,0.000000000,0.000000000,0.000000000,0.000000000,-0.686006427,0.000000000,4.228152752
1772724276.011580706,0.017506000,0.007622000,0.071315000,-0.003619330,0.006045620,-0.032740290,0.999439050,-0.007631000,0.011848000,-0.065539000,-0.000416298,0.000299437,-0.000100486,-0.008534567,0.002800569,0.007041071,0.012093906,-0.008986324,1.001439994,-0.002527306,0.000220253,-0.000102482,0.000000000,0.000000000,0.000000000,0.000000000,0.017875300,0.007539821,0.071294434,0.019614957,-0.003718073,-0.001414699,0.005888109,-0.001558905,0.001305782,-0.451970464,0.384202963,-3.046771447,-0.004031890,-0.003246735,-0.026597803,0.999631776,0.000000000,0.000000000,0.000000000,0.000000000,0.000000000,0.000000000,-0.686006427,0.000000000,4.228152752
1772724276.021581173,0.017492000,0.007614000,0.071311000,-0.003576370,0.005906960,-0.032734320,0.999440230,-0.007536000,0.011573000,-0.065526000,-0.000057343,-0.000070416,-0.000140132,-0.006095635,0.003294143,0.004835731,0.012323782,-0.008885819,1.001409108,-0.001174333,0.000692632,-0.000015192,0.000000000,0.000000000,0.000000000,0.000000000,0.017876590,0.007538954,0.071295161,0.019631192,-0.003725393,-0.001381535,0.005952288,-0.001428973,0.001205309,-0.452166102,0.384065117,-3.046323588,-0.004033552,-0.003245502,-0.026593897,0.999631888,0.000000000,0.000000000,0.000000000,0.000000000,0.000000000,0.000000000,-0.686006427,0.000000000,4.228152752
1772724276.031581163,0.017496000,0.007607000,0.071325000,-0.003739690,0.005948520,-0.032699020,0.999440550,-0.007865000,0.011646000,-0.065457000,0.000148621,-0.000432751,0.000171135,-0.004803073,0.004740209,0.001164999,0.012553646,-0.008785320,1.001378223,0.000178577,0.001164988,0.000072093,0.000000000,0.000000000,0.000000000,0.000000000,0.017877880,0.007538087,0.071295887,0.019647427,-0.003732712,-0.001348373,0.006016464,-0.001299048,0.001104842,-0.452361731,0.383927278,-3.045875750,-0.004035214,-0.003244270,-0.026589991,0.999632001,0.000000000,0.000000000,0.000000000,0.000000000,0.000000000,0.000000000,-0.686006427,0.000000000,4.228152752
1772724276.041581154,0.017508000,0.007602000,0.071328000,-0.003745330,0.006019860,-0.032723010,0.999439310,-0.007881000,0.011788000,-0.065506000,0.000513345,-0.000650583,0.000555304,-0.002931347,0.000107111,-0.005098423,0.012783511,-0.008684820,1.001347338,0.001531486,0.001637344,0.000159379,0.000000000,0.000000000,0.000000000,0.000000000,0.017879170,0.007537220,0.071296614,0.019663662,-0.003740032,-0.001315211,0.006080639,-0.001169122,0.001004374,-0.452557360,0.383789439,-3.045427912,-0.004036876,-0.003243038,-0.026586086,0.999632114,0.000000000,0.000000000,0.000000000,0.000000000,0.000000000,0.000000000,-0.686006427,0.000000000,4.228152752
1772724276.051581144,0.017509000,0.007592000,0.071329000,-0.003679250,0.006025940,-0.032727560,0.999439370,-0.007749000,0.011805000,-0.065514000,0.000470086,-0.000423874,0.000552429,-0.002176938,-0.005329569,-0.005204251,0.013013376,-0.008584321,1.001316454,0.002884395,0.002109701,0.000246665,0.000000000,0.000000000,0.000000000,0.000000000,0.017880460,0.007536353,0.071297340,0.019679896,-0.003747351,-0.001282049,0.006144815,-0.001039197,0.000903907,-0.452752990,0.383651599,-3.044980074,-0.004038538,-0.003241806,-0.026582180,0.999632226,0.000000000,0.000000000,0.000000000,0.000000000,0.000000000,0.000000000,-0.686006427,0.000000000,4.228152752
1772724276.061581612,0.017519000,0.007592000,0.071328000,-0.003655280,0.006020910,-0.032817280,0.999436550,-0.007702000,0.011795000,-0.065693000,0.000199281,0.000084771,0.000081546,-0.001403461,-0.008693984,-0.000978818,0.013221013,-0.008426392,1.001188282,0.003992582,0.002354151,0.000370062,0.000000000,0.000000000,0.000000000,0.000000000,0.017881750,0.007535486,0.071298067,0.019696132,-0.003754671,-0.001248886,0.006350059,-0.000832275,0.000738715,-0.452948628,0.383513754,-3.044532215,-0.004040200,-0.003240574,-0.026578274,0.999632339,0.000000000,0.000000000,0.000000000,0.000000000,0.000000000,0.000000000,-0.686006427,0.000000000,4.228152752
1772724276.071582317,0.017510000,0.007600000,0.071342000,-0.003755260,0.005871140,-0.032778130,0.999438350,-0.007892000,0.011490000,-0.065615000,-0.000320979,0.000418027,-0.000302292,-0.000433239,-0.012257883,0.004524663,0.013209607,-0.007702826,1.000101852,0.002689659,0.000353519,0.000849116,0.000000000,0.000000000,0.000000000,0.000000000,0.017885127,0.007531148,0.071300844,0.019789190,-0.003760495,-0.001135553,0.006913740,-0.000579624,0.000305462,-0.451690819,0.382227136,-3.041789071,-0.004028851,-0.003229738,-0.026554265,0.999632954,0.000000000,0.000000000,0.000000000,0.000000000,0.000000000,0.000000000,-0.686006427,0.000000000,4.228152752
1772724276.081582069,0.017513000,0.007598000,0.071336000,-0.003727130,0.005832300,-0.032782980,0.999438530,-0.007833000,0.011414000,-0.065624000,-0.000552234,0.000500506,-0.000477701,-0.003398840,-0.011018638,0.008843722,0.014523906,-0.009524518,0.999092705,0.001489990,-0.001134483,0.000472902,0.000000000,0.000000000,0.000000000,0.000000000,0.017891922,0.007525528,0.071304532,0.019948132,-0.003733314,-0.001012017,0.007427222,-0.001725800,-0.001054439,-0.449732951,0.381677674,-3.039128150,-0.004011571,-0.003225492,-0.026530981,0.999633652,0.000000000,0.000000000,0.000000000,0.000000000,0.000000000,0.000000000,-0.686006427,0.000000000,4.228152752
1772724276.091582298,0.017501000,0.007610000,0.071317000,-0.003773910,0.005753570,-0.032654800,0.999443000,-0.007920000,0.011254000,-0.065367000,-0.000578283,0.000383178,-0.000540366,-0.001981950,-0.002676356,0.010464764,0.013410530,-0.009408555,0.998720898,0.000108615,0.002278594,-0.002002407,0.000000000,0.000000000,0.000000000,0.000000000,0.017898133,0.007524095,0.071308668,0.020119551,-0.003712516,-0.000983621,0.006717443,-0.001822900,-0.000727579,-0.448437352,0.381327682,-3.036916834,-0.004000125,-0.003222816,-0.026511641,0.999634242,0.000000000,0.000000000,0.000000000,0.000000000,0.000000000,0.000000000,-0.686006427,0.000000000,4.228152752
1772724276.101582766,0.017494000,0.007612000,0.071314000,-0.003740900,0.005812750,-0.032587770,0.999444970,-0.007857000,0.011375000,-0.065233000,-0.000385976,0.000065326,-0.000355886,0.000874590,0.005400311,0.008202950,0.014005894,-0.008508890,0.997706026,0.001894295,0.001431956,-0.001945382,0.000000000,0.000000000,0.000000000,0.000000000,0.017900909,0.007525723,0.071315200,0.020343500,-0.003779479,-0.001007594,0.007334699,-0.001143336,-0.002037686,-0.447995050,0.379977134,-3.034480493,-0.003995886,-0.003211222,-0.026490329,0.999634840,0.000000000,0.000000000,0.000000000,0.000000000,0.000000000,0.000000000,-0.686006427,0.000000000,4.228152752
1772724276.111583233,0.017492000,0.007612000,0.071316000,-0.003740400,0.005882250,-0.032588220,0.999444550,-0.007861000,0.011514000,-0.065235000,0.000135315,-0.000279157,-0.000067016,0.003344214,0.013432184,0.003323239,0.013442933,-0.008006994,0.997921985,0.001280130,-0.000099325,0.000385513,0.000000000,0.000000000,0.000000000,0.000000000,0.017904031,0.007526422,0.071313693,0.020496559,-0.003815414,-0.001098867,0.006997318,-0.000662334,-0.001598868,-0.447321206,0.378989422,-3.031799479,-0.003989705,-0.003202855,-0.026466890,0.999635507,0.000000000,0.000000000,0.000000000,0.000000000,0.000000000,0.000000000,-0.686006427,0.000000000,4.228152752
1772724276.121583700,0.017499000,0.007601000,0.071317000,-0.003729470,0.005880430,-0.032622240,0.999443500,-0.007839000,0.011511000,-0.065303000,0.000542095,-0.000561131,0.000511927,0.003076539,0.012249766,0.000524723,0.012100060,-0.008593322,0.998259070,0.001108364,-0.000496573,0.001042498,0.000000000,0.000000000,0.000000000,0.000000000,0.017901600,0.007531960,0.071303730,0.020653088,-0.003769495,-0.001283499,0.005332615,-0.001201906,-0.001692996,-0.446511320,0.378880559,-3.028738792,-0.003982529,-0.003202199,-0.026440164,0.999636230,0.000000000,0.000000000,0.000000000,0.000000000,0.000000000,0.000000000,-0.686006427,0.000000000,4.228152752
1772724276.131583452,0.017501000,0.007599000,0.071325000,-0.003676520,0.006024530,-0.032610260,0.999443220,-0.007742000,0.011803000,-0.065279000,0.000754604,-0.000643571,0.000567891,0.006473033,0.004579124,-0.004361897,0.012776887,-0.008864796,0.998438442,-0.000954206,0.003284061,-0.000975246,0.000000000,0.000000000,0.000000000,0.000000000,0.017898055,0.007536371,0.071295936,0.020707609,-0.003700933,-0.001424676,0.006490131,-0.001594212,-0.001895906,-0.446276903,0.378797134,-3.025917431,-0.003980386,-0.003201623,-0.026415541,0.999636934,0.000000000,0.000000000,0.000000000,0.000000000,0.000000000,0.000000000,-0.686006427,0.000000000,4.228152752
1772724276.141583920,0.017515000,0.007593000,0.071332000,-0.003690600,0.005989260,-0.032650380,0.999442070,-0.007769000,0.011731000,-0.065360000,0.000478711,-0.000271873,0.000326477,0.005803700,-0.004205970,-0.006805118,0.012213164,-0.008652914,0.998658578,-0.000721897,0.004740918,-0.001311503,0.000000000,0.000000000,0.000000000,0.000000000,0.017895810,0.007538502,0.071291954,0.020692782,-0.003739248,-0.001529017,0.005337660,-0.001237166,-0.001217451,-0.446614619,0.378060883,-3.023724244,-0.003983101,-0.003195198,-0.026396394,0.999637436,0.000000000,0.000000000,0.000000000,0.000000000,0.000000000,0.000000000,-0.686006427,0.000000000,4.228152752
1772724276.151584864,0.017523000,0.007587000,0.071331000,-0.003639280,0.006011320,-0.032632360,0.999442720,-0.007667000,0.011779000,-0.065323000,0.000040152,0.000018551,0.000069289,0.003350079,-0.013087925,-0.008249197,0.010379427,-0.008532292,0.998314279,0.001079929,0.000343934,0.001467967,0.000000000,0.000000000,0.000000000,0.000000000,0.017898644,0.007533945,0.071289477,0.020817152,-0.003765622,-0.001594071,0.003519852,-0.000905274,-0.001472184,-0.446989713,0.377003892,-3.021446293,-0.003986067,-0.003185971,-0.026376499,0.999637996,0.000000000,0.000000000,0.000000000,0.000000000,0.000000000,0.000000000,-0.686006427,0.000000000,4.228152752
1772724276.161585093,0.017517000,0.007589000,0.071338000,-0.003628280,0.005814160,-0.032677590,0.999442450,-0.007633000,0.011385000,-0.065412000,-0.000502603,0.000428808,-0.000249806,-0.000319711,-0.015085513,-0.008061840,0.010910873,-0.008586584,0.997763538,-0.001528033,-0.002770259,0.002628129,0.000000000,0.000000000,0.000000000,0.000000000,0.017900652,0.007530820,0.071291261,0.020705512,-0.003761869,-0.001631466,0.003941032,-0.001237114,-0.002066814,-0.446574493,0.376578859,-3.019235258,-0.003982286,-0.003182435,-0.026357182,0.999638479,0.000000000,0.000000000,0.000000000,0.000000000,0.000000000,0.000000000,-0.686006427,0.000000000,4.228152752
1772724276.171585560,0.017504000,0.007602000,0.071320000,-0.003570650,0.005704770,-0.032801300,0.999439230,-0.007512000,0.011169000,-0.065658000,-0.000809364,0.000657266,-0.000477972,0.000218269,-0.016218945,-0.005512255,0.012830374,-0.008706442,0.999206225,-0.003743530,-0.000509369,-0.001487183,0.000000000,0.000000000,0.000000000,0.000000000,0.017907264,0.007525761,0.071295524,0.020556700,-0.003765988,-0.001774903,0.005864311,-0.001406981,-0.000992201,-0.445770030,0.376570709,-3.015301907,-0.003975157,-0.003182686,-0.026322849,0.999639463,0.000000000,0.000000000,0.000000000,0.000000000,0.000000000,0.000000000,-0.686006427,0.000000000,4.228152752
1772724276.181585312,0.017495000,0.007610000,0.071324000,-0.003685960,0.005737580,-0.032808770,0.999438380,-0.007745000,0.011227000,-0.065674000,-0.000545164,0.000530226,-0.000352623,0.001315060,-0.012755280,-0.003023494,0.012107048,-0.007235130,1.000927620,0.002986680,-0.004092218,-0.000770412,0.000000000,0.000000000,0.000000000,0.000000000,0.017915538,0.007519375,0.071296273,0.020635886,-0.003833967,-0.001837259,0.005400950,0.000139480,0.000743954,-0.447242825,0.376544881,-3.013823789,-0.003987957,-0.003182174,-0.026309995,0.999639889,0.000000000,0.000000000,0.000000000,0.000000000,0.000000000,0.000000000,-0.686006427,0.000000000,4.228152752
1772724276.191585302,0.017493000,0.007605000,0.071319000,-0.003695040,0.005620110,-0.032778650,0.999440000,-0.007755000,0.010992000,-0.065613000,-0.000161325,0.000316706,-0.000105750,0.001213015,-0.006014939,-0.002482435,0.012478293,-0.007828084,1.000739669,-0.000203420,-0.001481399,-0.000037240,0.000000000,0.000000000,0.000000000,0.000000000,0.017915770,0.007518765,0.071300001,0.020699677,-0.003709287,-0.001655165,0.006401291,-0.000327775,0.000420313,-0.446394312,0.377554969,-3.013838591,-0.003980788,-0.003191179,-0.026310137,0.999640193,0.000000000,0.000000000,0.000000000,0.000000000,0.000000000,0.000000000,-0.686006427,0.000000000,4.228152752
1772724276.201585054,0.017488000,0.007619000,0.071315000,-0.003626670,0.005727910,-0.032747310,0.999440670,-0.007625000,0.011212000,-0.065551000,0.000249126,-0.000053963,0.000164375,0.004468776,0.002423013,-0.001104921,0.015035098,-0.009457608,1.000450847,-0.001852940,-0.000621412,-0.000079072,0.000000000,0.000000000,0.000000000,0.000000000,0.017910320,0.007525649,0.071295208,0.020652675,-0.003506482,-0.001502585,0.008320970,-0.002269511,0.000570072,-0.445976909,0.377294941,-3.012258509,-0.003977043,-0.003189062,-0.026296331,0.999640072,0.000000000,0.000000000,0.000000000,0.000000000,0.000000000,0.000000000,-0.686006427,0.000000000,4.228152752
1772724276.211585045,0.017501000,0.007610000,0.071322000,-0.003523270,0.005586390,-0.032755190,0.999441580,-0.007409000,0.010936000,-0.065564000,0.000538268,-0.000583023,0.000465832,0.006115293,0.005767034,-0.001755937,0.014198518,-0.008826999,1.000634058,-0.000561484,-0.002228332,-0.001361141,0.000000000,0.000000000,0.000000000,0.000000000,0.017902533,0.007534331,0.071295800,0.020812264,-0.003553788,-0.001378583,0.007187198,-0.001129156,0.000999481,-0.446147403,0.376497888,-3.009502832,-0.003978271,-0.003182165,-0.026272267,0.999640748,0.000000000,0.000000000,0.000000000,0.000000000,0.000000000,0.000000000,-0.686006427,0.000000000,4.228152752
1772724276.221585512,0.017518000,0.007596000,0.071332000,-0.003586690,0.005649210,-0.032843040,0.999438120,-0.007541000,0.011057000,-0.065741000,0.000456780,-0.000579643,0.000391531,0.006722507,0.009117183,-0.001672713,0.012382824,-0.007823445,1.000583373,0.001852098,-0.001352268,-0.002245719,0.000000000,0.000000000,0.000000000,0.000000000,0.017900440,0.007535152,0.071295041,0.021011792,-0.003613322,-0.001266051,0.005973279,-0.000192579,0.000074612,-0.446283743,0.376476446,-3.007043525,-0.003979387,-0.003182032,-0.026250817,0.999641316,0.000000000,0.000000000,0.000000000,0.000000000,0.000000000,0.000000000,-0.686006427,0.000000000,4.228152752
1772724276.231585503,0.017499000,0.007605000,0.071330000,-0.003564370,0.005808040,-0.032855550,0.999436880,-0.007507000,0.011376000,-0.065767000,0.000044891,-0.000148427,0.000154740,0.002325288,0.009072224,-0.001963980,0.012406177,-0.007536190,1.000868843,0.003796050,-0.000425992,-0.000332376,0.000000000,0.000000000,0.000000000,0.000000000,0.017898391,0.007541860,0.071293616,0.021066957,-0.003543769,-0.001198870,0.005925963,-0.000114084,0.000681238,-0.445521820,0.376860229,-3.004349894,-0.003972754,-0.003185648,-0.026227313,0.999641996,0.000000000,0.000000000,0.000000000,0.000000000,0.000000000,0.000000000,-0.686006427,0.000000000,4.228152752
1772724276.241586208,0.017509000,0.007591000,0.071333000,-0.003491400,0.005809500,-0.032813000,0.999438530,-0.007361000,0.011384000,-0.065681000,-0.000223019,0.000063831,-0.000227487,-0.000751884,0.003299460,-0.000079423,0.014097142,-0.008307416,1.000815532,0.001409765,-0.001475998,0.001099072,0.000000000,0.000000000,0.000000000,0.000000000,0.017902070,0.007543379,0.071296269,0.021058525,-0.003437875,-0.001069789,0.007189428,-0.001076754,0.001296298,-0.443986595,0.377509638,-3.002318039,-0.003959453,-0.003191735,-0.026209566,0.999642609,0.000000000,0.000000000,0.000000000,0.000000000,0.000000000,0.000000000,-0.686006427,0.000000000,4.228152752
1772724276.251586676,0.017510000,0.007585000,0.071332000,-0.003547550,0.005813570,-0.032797880,0.999438800,-0.007473000,0.011388000,-0.065652000,-0.000407071,0.000393143,-0.000498738,-0.001546538,-0.001541920,0.003898660,0.014732689,-0.009262776,0.998160220,-0.002171598,-0.001161019,-0.006441403,0.000000000,0.000000000,0.000000000,0.000000000,0.017910822,0.007539483,0.071302927,0.021154705,-0.003397190,-0.000887405,0.007866600,-0.001924228,-0.001339848,-0.443054209,0.379818940,-3.004042651,-0.003951895,-0.003212034,-0.026224661,0.999642163,0.000000000,0.000000000,0.000000000,0.000000000,0.000000000,0.000000000,-0.686006427,0.000000000,4.228152752
1772724276.261586905,0.017495000,0.007616000,0.071321000,-0.003541850,0.005808950,-0.032749880,0.999440420,-0.007461000,0.011380000,-0.065555000,-0.000491240,0.000374068,-0.000342638,-0.003462413,-0.000026177,0.006313388,0.013942757,-0.008525373,0.996852586,-0.001157889,-0.000875423,-0.001562870,0.000000000,0.000000000,0.000000000,0.000000000,0.017915113,0.007537153,0.071308421,0.021307623,-0.003429533,-0.000838155,0.006883748,-0.001566195,-0.003363459,-0.443088267,0.381836915,-3.008081122,-0.003952767,-0.003229491,-0.026259958,0.999641225,0.000000000,0.000000000,0.000000000,0.000000000,0.000000000,0.000000000,-0.686006427,0.000000000,4.228152752
1772724276.271586895,0.017489000,0.007620000,0.071311000,-0.003582970,0.005710920,-0.032837350,0.999437970,-0.007538000,0.011180000,-0.065730000,-0.000108780,0.000162665,-0.000076515,-0.008276027,0.004600972,0.002981979,0.014850483,-0.008256909,0.997904260,0.000396272,0.000672562,-0.003298667,0.000000000,0.000000000,0.000000000,0.000000000,0.017915685,0.007535652,0.071311018,0.021458750,-0.003490170,-0.000971478,0.008056970,-0.001283992,-0.001841442,-0.442959203,0.382829067,-3.007906953,-0.003951864,-0.003238181,-0.026258467,0.999641085,0.000000000,0.000000000,0.000000000,0.000000000,0.000000000,0.000000000,-0.686006427,0.000000000,4.228152752
1772724276.281586885,0.017502000,0.007598000,0.071318000,-0.003596400,0.005738540,-0.032740440,0.999440940,-0.007565000,0.011235000,-0.065537000,0.000209072,-0.000082284,0.000250389,-0.006367580,0.009766425,0.000071232,0.014858825,-0.007298536,1.000720472,0.004399631,-0.000514456,0.002941649,0.000000000,0.000000000,0.000000000,0.000000000,0.017921342,0.007528399,0.071312005,0.021644280,-0.003520303,-0.001159088,0.008876537,0.000143792,0.000216525,-0.442681076,0.382085504,-3.005521732,-0.003949200,-0.003231841,-0.026237629,0.999641643,0.000000000,0.000000000,0.000000000,0.000000000,0.000000000,0.000000000,-0.686006427,0.000000000,4.228152752
1772724276.291587114,0.017496000,0.007605000,0.071325000,-0.003624240,0.005839620,-0.032697090,0.999441680,-0.007627000,0.011436000,-0.065451000,0.000546251,-0.000482751,0.000370008,0.000063010,0.005900191,-0.001523059,0.014922338,-0.007333503,1.000672434,0.001853973,-0.001438670,0.000782228,0.000000000,0.000000000,0.000000000,0.000000000,0.017924074,0.007528061,0.071308960,0.021885861,-0.003455606,-0.001180510,0.008279080,-0.000333872,0.001346167,-0.440812111,0.381523853,-3.001714006,-0.003932660,-0.003227499,-0.026204340,0.999642503,0.000000000,0.000000000,0.000000000,0.000000000,0.000000000,0.000000000,-0.686006427,0.000000000,4.228152752
1772724276.301587820,0.017494000,0.007600000,0.071335000,-0.003688790,0.006097790,-0.032751190,0.999438130,-0.007773000,0.011947000,-0.065562000,0.000532790,-0.000554449,0.000275078,0.001443899,-0.004474826,-0.003982208,0.014671959,-0.008878699,0.999593095,0.000519777,-0.002528800,-0.000355635,0.000000000,0.000000000,0.000000000,0.000000000,0.017920879,0.007541301,0.071302012,0.022075994,-0.003293846,-0.001057050,0.007981921,-0.001475371,-0.000602068,-0.438910184,0.381708501,-2.997168227,-0.003915983,-0.003229701,-0.026164637,0.999643637,0.000000000,0.000000000,0.000000000,0.000000000,0.000000000,0.000000000,-0.686006427,0.000000000,4.228152752
1772724276.311587811,0.017524000,0.007596000,0.071329000,-0.003646660,0.005852340,-0.032844580,0.999436680,-0.007674000,0.011459000,-0.065747000,0.000152681,-0.000123232,0.000052215,0.004704043,-0.010621457,-0.001939090,0.012380379,-0.008275511,0.999652185,-0.000023625,0.000947770,-0.004625750,0.000000000,0.000000000,0.000000000,0.000000000,0.017922303,0.007544560,0.071298004,0.022252300,-0.003277402,-0.001005100,0.005900429,-0.001206615,-0.000009531,-0.438583368,0.381873267,-2.993931476,-0.003913078,-0.003231323,-0.026136398,0.999644427,0.000000000,0.000000000,0.000000000,0.000000000,0.000000000,0.000000000,-0.686006427,0.000000000,4.228152752
