t,px,py,pz,qx,qy,qz,qw,roll,pitch,yaw,vx,vy,vz,wx_vicon,wy_vicon,wz_vicon,imu_acc_x,imu_acc_y,imu_acc_z,imu_gyro_x,imu_gyro_y,imu_gyro_z,motor_motor_m1,motor_motor_m2,motor_motor_m3,motor_motor_m4,est_stateEstimate_x,est_stateEstimate_y,est_stateEstimate_z,est_stateEstimate_vx,est_stateEstimate_vy,est_stateEstimate_vz,est_stateEstimate_ax,est_stateEstimate_ay,est_stateEstimate_az,att_stateEstimate_roll,att_stateEstimate_pitch,att_stateEstimate_yaw,att_stateEstimate_qx,att_stateEstimate_qy,att_stateEstimate_qz,att_stateEstimate_qw,sp_ctrltarget_x,sp_ctrltarget_y,sp_ctrltarget_z,sp_ctrltarget_yaw,pid_controller_roll,pid_controller_pitch,pid_controller_yaw,pid_controller_cmd_thrust,pwr_pm_vbat
1772724027.167388678,0.016172000,0.009399000,0.071313000,-0.009900630,0.015977960,-0.004607930,0.999812710,-0.019956000,0.031864000,-0.009536000,0.001697397,-0.007055316,0.005038638,-0.244408942,0.357022462,0.031394252,0.010023152,-0.008052676,0.999459844,-0.000260995,-0.002043334,-0.002598647,0.000000000,0.000000000,0.000000000,0.000000000,0.016831650,0.009565366,0.071284512,0.034256012,0.006646346,-0.000546808,0.010325757,0.002256705,0.000206385,-0.550093171,-0.020015605,-0.407665202,-0.004799793,0.000191744,-0.003556660,0.999981133,0.000000000,0.000000000,0.000000000,0.000000000,0.000000000,0.000000000,0.957877100,0.000000000,4.185924053
1772724027.177390099,0.016197000,0.009352000,0.071351000,-0.010526390,0.017014960,-0.004573620,0.999789360,-0.021218000,0.033933000,-0.009509000,0.000203026,-0.000645323,0.000360656,-0.101763708,0.157772636,0.007922187,0.010710651,-0.007222930,1.000634977,0.000922422,-0.004384371,-0.000940335,0.000000000,0.000000000,0.000000000,0.000000000,0.016816261,0.009616107,0.071246255,0.034270289,0.006825226,-0.000723792,0.009793710,0.002648263,0.000486615,-0.549495494,-0.019688789,-0.407805269,-0.004794588,0.000188879,-0.003557896,0.999981165,0.000000000,0.000000000,0.000000000,0.000000000,0.000000000,0.000000000,0.957877100,0.000000000,4.185924053
1772724027.187390327,0.016174000,0.009364000,0.071347000,-0.011067900,0.017700790,-0.004465370,0.999772100,-0.022305000,0.035302000,-0.009326000,-0.000601851,0.002775927,-0.002177165,-0.010695824,0.027446972,-0.009039759,0.010504796,-0.007867902,1.000387626,0.001255040,-0.002427127,0.000123978,0.000000000,0.000000000,0.000000000,0.000000000,0.016820545,0.009584365,0.071268717,0.034429780,0.006794576,-0.000529877,0.009143609,0.002331965,0.000453390,-0.549075917,-0.019289823,-0.407497003,-0.004790939,0.000185372,-0.003555224,0.999981178,0.000000000,0.000000000,0.000000000,0.000000000,0.000000000,0.000000000,0.957877100,0.000000000,4.185924053
1772724027.197390318,0.016176000,0.009377000,0.071324000,-0.011315920,0.018271270,-0.004498450,0.999758910,-0.022808000,0.036440000,-0.009415000,-0.000862684,0.003844784,-0.003020269,0.037534513,-0.044994743,-0.019827912,0.008273214,-0.007826767,0.999335299,0.001137500,-0.000959497,-0.001364047,0.000000000,0.000000000,0.000000000,0.000000000,0.016823922,0.009557986,0.071286601,0.034537147,0.006737466,-0.000394612,0.008794265,0.002045464,-0.000327069,-0.548740965,-0.019054273,-0.406711612,-0.004788025,0.000183273,-0.003548381,0.999981224,0.000000000,0.000000000,0.000000000,0.000000000,0.000000000,0.000000000,0.957877100,0.000000000,4.185924053
1772724027.207391262,0.016154000,0.009550000,0.071186000,-0.009850590,0.016132390,-0.004986970,0.999808900,-0.019870000,0.032166000,-0.010295000,-0.000724925,0.003197596,-0.002614101,0.051663504,-0.070593070,-0.024746294,0.008778510,-0.007376935,0.997987361,-0.000879894,0.003202878,0.000685697,0.000000000,0.000000000,0.000000000,0.000000000,0.016843699,0.009564423,0.071257865,0.034572658,0.006789793,-0.000544952,0.009131872,0.001868022,-0.002621967,-0.548851918,-0.019042876,-0.406619451,-0.004788994,0.000183173,-0.003547577,0.999981225,0.000000000,0.000000000,0.000000000,0.000000000,0.000000000,0.000000000,0.957877100,0.000000000,4.185924053
1772724027.217391253,0.016172000,0.009408000,0.071297000,-0.010503620,0.017018310,-0.004784120,0.999788560,-0.021179000,0.033935000,-0.009930000,-0.000334025,0.001470712,-0.001404105,0.040503049,-0.060343644,-0.024074260,0.009611517,-0.007544381,0.998201957,-0.000901816,0.000847231,-0.000239727,0.000000000,0.000000000,0.000000000,0.000000000,0.016796057,0.009567714,0.071238601,0.034106205,0.006751520,-0.000696852,0.009283407,0.002200489,-0.001610514,-0.549475752,-0.020167207,-0.406256469,-0.004794403,0.000192989,-0.003544361,0.999981181,0.000000000,0.000000000,0.000000000,0.000000000,0.000000000,0.000000000,0.957877100,0.000000000,4.185924053
1772724027.227391958,0.016176000,0.009386000,0.071328000,-0.010979600,0.017680700,-0.004659230,0.999772540,-0.022135000,0.035258000,-0.009711000,0.000478447,-0.001874977,0.001034281,-0.006309551,0.005902920,-0.009731626,0.009189444,-0.007960554,0.999108624,-0.003926898,-0.002983723,-0.000856150,0.000000000,0.000000000,0.000000000,0.000000000,0.016684519,0.009553101,0.071248999,0.033254083,0.006585919,-0.000717279,0.010093438,0.001742321,-0.000125652,-0.545231972,-0.006562241,-0.408129360,-0.004757790,0.000074212,-0.003561277,0.999981344,0.000000000,0.000000000,0.000000000,0.000000000,0.000000000,0.000000000,0.957877100,0.000000000,4.185924053
1772724027.237391949,0.016146000,0.009549000,0.071191000,-0.009764660,0.015974920,-0.005254630,0.999810900,-0.019705000,0.031847000,-0.010825000,0.000383247,-0.001559113,0.000957185,-0.023450174,0.025012592,-0.002103930,0.008682326,-0.008803085,0.998979090,-0.003944057,0.002997621,-0.001006505,0.000000000,0.000000000,0.000000000,0.000000000,0.016711928,0.009527965,0.071278975,0.033317943,0.006526883,-0.000668702,0.008660922,0.001534113,-0.001296101,-0.546324850,-0.006249792,-0.407497696,-0.004767337,0.000071493,-0.003555777,0.999981366,0.000000000,0.000000000,0.000000000,0.000000000,0.000000000,0.000000000,0.957877100,0.000000000,4.185924053
1772724027.247391224,0.016169000,0.009408000,0.071284000,-0.010490950,0.016954180,-0.005037670,0.999788540,-0.021162000,0.033802000,-0.010435000,0.000299236,-0.000750177,0.000399389,-0.018441915,0.021486764,0.000089573,0.008747686,-0.009069472,0.998997040,-0.001913849,-0.001007463,0.002887910,0.000000000,0.000000000,0.000000000,0.000000000,0.016782270,0.009506774,0.071309974,0.033736188,0.006476018,-0.000655128,0.009224481,0.000687277,-0.001423738,-0.546941979,-0.007847521,-0.406559815,-0.004772674,0.000085415,-0.003547526,0.999981388,0.000000000,0.000000000,0.000000000,0.000000000,0.000000000,0.000000000,0.957877100,0.000000000,4.185924053
1772724027.257391453,0.016190000,0.009363000,0.071318000,-0.010970170,0.017543640,-0.004827780,0.999774260,-0.022120000,0.034981000,-0.010045000,-0.000073930,-0.000091470,0.000313940,-0.006286294,0.005876806,0.002355311,0.009513150,-0.008800236,0.999630548,-0.000904923,0.004366090,0.000115280,0.000000000,0.000000000,0.000000000,0.000000000,0.016809630,0.009504381,0.071311598,0.033936105,0.006429027,-0.000758840,0.009152235,0.000702882,-0.000139733,-0.545894447,-0.005041858,-0.405368003,-0.004763620,0.000060850,-0.003537242,0.999981403,0.000000000,0.000000000,0.000000000,0.000000000,0.000000000,0.000000000,0.957877100,0.000000000,4.185924053
1772724027.267391920,0.016185000,0.009362000,0.071327000,-0.011239990,0.018064340,-0.004746430,0.999762380,-0.022663000,0.036021000,-0.009903000,-0.000229210,-0.000554610,0.000942364,-0.011643457,0.013843387,0.008447330,0.009490208,-0.009589600,1.001023936,0.000681577,-0.000908058,-0.000857641,0.000000000,0.000000000,0.000000000,0.000000000,0.016680753,0.009525631,0.071275522,0.032933469,0.006382699,-0.000711220,0.009325835,-0.000306847,0.001828735,-0.543767992,0.001130532,-0.406158500,-0.004745254,0.000006953,-0.003544397,0.999981445,0.000000000,0.000000000,0.000000000,0.000000000,0.000000000,0.000000000,0.957877100,0.000000000,4.185924053
1772724027.277391911,0.016150000,0.009548000,0.071203000,-0.009872790,0.015929530,-0.005151510,0.999811100,-0.019917000,0.031757000,-0.010621000,-0.000785005,0.002084373,-0.000987040,0.030662734,-0.045230554,-0.005523514,0.009330380,-0.007982219,1.000385943,0.001173453,-0.002470687,-0.001755864,0.000000000,0.000000000,0.000000000,0.000000000,0.016748352,0.009551952,0.071267335,0.033403212,0.006389381,-0.000632179,0.009053173,0.001469220,-0.000510230,-0.542414593,0.002696603,-0.406275738,-0.004733492,-0.000006750,-0.003545485,0.999981503,0.000000000,0.000000000,0.000000000,0.000000000,0.000000000,0.000000000,0.957877100,0.000000000,4.185924053
1772724027.287391901,0.016161000,0.009412000,0.071306000,-0.010414360,0.016841380,-0.004956130,0.999791650,-0.021005000,0.033579000,-0.010267000,-0.001202051,0.004374880,-0.002972834,0.087657024,-0.120787716,-0.030719508,0.010131501,-0.008308588,0.999206188,0.001731581,0.000384775,-0.000336754,0.000000000,0.000000000,0.000000000,0.000000000,0.016781280,0.009585283,0.071241078,0.033657829,0.006492921,-0.000671897,0.010436907,0.001138223,-0.000665638,-0.541215389,0.002544911,-0.405492717,-0.004723022,-0.000005496,-0.003538646,0.999981523,0.000000000,0.000000000,0.000000000,0.000000000,0.000000000,0.000000000,0.957877100,0.000000000,4.185924053
1772724027.297391891,0.016151000,0.009395000,0.071330000,-0.010803190,0.017375120,-0.004859960,0.999778860,-0.021785000,0.034644000,-0.010099000,-0.000606396,0.002017320,-0.001482930,0.075713867,-0.104597956,-0.032769120,0.010587210,-0.008965530,0.998458298,-0.000528124,0.001101688,0.000607983,0.000000000,0.000000000,0.000000000,0.000000000,0.016828318,0.009519039,0.071286472,0.034153789,0.006220627,-0.000597348,0.010678053,-0.000027152,-0.001631848,-0.539977035,0.002475942,-0.404852583,-0.004712214,-0.000004958,-0.003533057,0.999981623,0.000000000,0.000000000,0.000000000,0.000000000,0.000000000,0.000000000,0.957877100,0.000000000,4.185924053
1772724027.307390690,0.016142000,0.009552000,0.071188000,-0.009528870,0.015503950,-0.005333510,0.999820170,-0.019230000,0.030906000,-0.010966000,0.000212680,-0.000805557,0.000563429,0.029309274,-0.039808151,-0.017115868,0.010336575,-0.007995774,0.998070694,-0.003644704,-0.000035458,-0.000442018,0.000000000,0.000000000,0.000000000,0.000000000,0.016835276,0.009518523,0.071288914,0.034314106,0.006140907,-0.000696493,0.010160753,0.001425793,-0.002330377,-0.539566212,0.002412161,-0.404074999,-0.004708627,-0.000004446,-0.003526269,0.999981701,0.000000000,0.000000000,0.000000000,0.000000000,0.000000000,0.000000000,0.957877100,0.000000000,4.185924053
1772724027.317391157,0.016134000,0.009582000,0.071168000,-0.008732260,0.014385880,-0.005657020,0.999842380,-0.017633000,0.028672000,-0.011569000,0.000763852,-0.002798304,0.002063337,-0.027228661,0.037810196,0.004313612,0.009673921,-0.007650265,0.997074139,-0.000469416,-0.000293633,-0.003508075,0.000000000,0.000000000,0.000000000,0.000000000,0.016828699,0.009567994,0.071255460,0.034349405,0.006311511,-0.000917880,0.009389664,0.002445723,-0.002437904,-0.539431227,0.002420337,-0.403513428,-0.004707449,-0.000004545,-0.003521369,0.999981701,0.000000000,0.000000000,0.000000000,0.000000000,0.000000000,0.000000000,0.957877100,0.000000000,4.185924053
1772724027.327391148,0.016162000,0.009419000,0.071304000,-0.009770050,0.015960860,-0.005361620,0.999810510,-0.019719000,0.031816000,-0.011039000,0.000726129,-0.003509516,0.002948087,-0.076492636,0.103965210,0.022065897,0.009176256,-0.007433920,0.997116121,-0.000260543,0.000587840,-0.001952624,0.000000000,0.000000000,0.000000000,0.000000000,0.016825878,0.009576515,0.071252050,0.034363475,0.006378525,-0.001088191,0.008578580,0.002858397,-0.002302704,-0.538832925,0.002771103,-0.404074140,-0.004702238,-0.000007601,-0.003526276,0.999981701,0.000000000,0.000000000,0.000000000,0.000000000,0.000000000,0.000000000,0.957877100,0.000000000,4.185924053
1772724027.337391138,0.016175000,0.009365000,0.071347000,-0.010562550,0.016961640,-0.005085360,0.999787410,-0.021307000,0.033815000,-0.010533000,0.000512304,-0.003191089,0.002512899,-0.097781238,0.135465779,0.032225589,0.008730458,-0.007258181,0.997484621,-0.000984310,0.001827632,0.001055855,0.000000000,0.000000000,0.000000000,0.000000000,0.016823349,0.009551323,0.071275479,0.034290393,0.006381726,-0.001190615,0.007966407,0.001762430,-0.002166553,-0.537592078,0.002560318,-0.401742201,-0.004691404,-0.000005895,-0.003505918,0.999981834,0.000000000,0.000000000,0.000000000,0.000000000,0.000000000,0.000000000,0.957877100,0.000000000,4.185924053
1772724027.347390890,0.016172000,0.009360000,0.071351000,-0.011101460,0.017780780,-0.004774070,0.999768880,-0.022383000,0.035455000,-0.009947000,-0.000023756,-0.001151955,0.000883760,-0.080045158,0.108746770,0.028244747,0.009783271,-0.008006302,0.998116893,0.000694007,-0.001810501,0.000378379,0.000000000,0.000000000,0.000000000,0.000000000,0.016814790,0.009585046,0.071245892,0.034141023,0.006574353,-0.001505633,0.009265215,0.001028381,-0.002616548,-0.537252841,0.001590485,-0.399953712,-0.004688414,0.000002484,-0.003490271,0.999981934,0.000000000,0.000000000,0.000000000,0.000000000,0.000000000,0.000000000,0.957877100,0.000000000,4.185887090
1772724027.357391119,0.016170000,0.009371000,0.071337000,-0.011407290,0.018112650,-0.004729090,0.999759690,-0.022997000,0.036117000,-0.009876000,-0.000319359,0.000987235,-0.000805129,-0.033500695,0.050034481,0.015591120,0.010099156,-0.008610710,0.996311707,0.000633919,-0.002987201,-0.006377247,0.000000000,0.000000000,0.000000000,0.000000000,0.016803083,0.009657189,0.071181374,0.034068850,0.006770585,-0.001957808,0.010080332,0.001072780,-0.002835443,-0.536340079,0.003637693,-0.401404271,-0.004680511,-0.000015349,-0.003503013,0.999981929,0.000000000,0.000000000,0.000000000,0.000000000,0.000000000,0.000000000,0.957877100,0.000000000,4.185688116
1772724027.367391109,0.016153000,0.009395000,0.071327000,-0.011484630,0.018367270,-0.004790670,0.999753870,-0.023157000,0.036624000,-0.010008000,-0.000804721,0.003703062,-0.002787562,0.039994454,-0.051782362,-0.006809026,0.008815418,-0.007972764,0.998966446,-0.001803240,-0.002757795,0.000867810,0.000000000,0.000000000,0.000000000,0.000000000,0.016810170,0.009615374,0.071213856,0.034136658,0.006559339,-0.002039526,0.009336102,0.001740517,-0.001411855,-0.535659681,0.004714551,-0.402675106,-0.004674607,-0.000024715,-0.003514147,0.999981891,0.000000000,0.000000000,0.000000000,0.000000000,0.000000000,0.000000000,0.957877100,0.000000000,4.185489148
1772724027.377391100,0.016142000,0.009555000,0.071180000,-0.009951700,0.016119450,-0.005165850,0.999807200,-0.020078000,0.032135000,-0.010656000,-0.000696235,0.003052378,-0.002176271,0.067931140,-0.090044677,-0.016509133,0.007347809,-0.006249858,1.001139735,-0.000774394,0.000256207,0.000623814,0.000000000,0.000000000,0.000000000,0.000000000,0.016823474,0.009551019,0.071263826,0.034141735,0.006337670,-0.001870974,0.007985306,0.002463002,0.000264015,-0.535889127,0.004976690,-0.401365979,-0.004676617,-0.000027049,-0.003502733,0.999981951,0.000000000,0.000000000,0.000000000,0.000000000,0.000000000,0.000000000,0.957877100,0.000000000,4.185290179
1772724027.387390375,0.016154000,0.009426000,0.071304000,-0.010564800,0.017039900,-0.004941650,0.999786780,-0.021307000,0.033975000,-0.010247000,0.000121170,0.000009091,-0.000098677,0.044049270,-0.057675736,-0.005108309,0.008690564,-0.006398225,0.999961484,0.000574218,0.000269543,-0.000993860,0.000000000,0.000000000,0.000000000,0.000000000,0.016827291,0.009523101,0.071286995,0.034020319,0.006360791,-0.001665183,0.007883120,0.003217608,-0.000033801,-0.535897587,0.005147358,-0.399924069,-0.004676696,-0.000028597,-0.003490157,0.999981999,0.000000000,0.000000000,0.000000000,0.000000000,0.000000000,0.000000000,0.957877100,0.000000000,4.185091224
1772724027.397390842,0.016161000,0.009387000,0.071342000,-0.010910100,0.017736380,-0.004737450,0.999771950,-0.021999000,0.035369000,-0.009866000,0.000399272,-0.000464131,0.000022047,0.031966380,-0.042071908,-0.000182696,0.009243502,-0.006655112,0.999567389,0.000691952,-0.000093645,-0.001303700,0.000000000,0.000000000,0.000000000,0.000000000,0.016828373,0.009512739,0.071295751,0.033963684,0.006387643,-0.001577288,0.008724729,0.002345257,-0.000393015,-0.535726987,0.005016822,-0.399758274,-0.004675203,-0.000027470,-0.003488705,0.999981999,0.000000000,0.000000000,0.000000000,0.000000000,0.000000000,0.000000000,0.957877100,0.000000000,4.184892246
1772724027.407390833,0.016135000,0.009557000,0.071193000,-0.009597040,0.015546440,-0.005179380,0.999819670,-0.019362000,0.030993000,-0.010661000,0.000546336,-0.000820047,0.000198131,0.013722559,-0.020430879,-0.000388908,0.009478304,-0.006955679,0.999489136,0.000313962,-0.000608436,-0.001086804,0.000000000,0.000000000,0.000000000,0.000000000,0.016828320,0.009511803,0.071296507,0.033960628,0.006399303,-0.001571160,0.009566298,0.001472947,-0.000752211,-0.535556396,0.004886292,-0.399592487,-0.004673710,-0.000026343,-0.003487253,0.999981999,0.000000000,0.000000000,0.000000000,0.000000000,0.000000000,0.000000000,0.957877100,0.000000000,4.184693278
1772724027.417391300,0.016163000,0.009413000,0.071295000,-0.010241960,0.016610140,-0.004977360,0.999797200,-0.020658000,0.033118000,-0.010299000,0.000488586,-0.001893274,0.001203080,-0.024148067,0.032062947,0.003399089,0.009713117,-0.007256261,0.999410880,-0.000064047,-0.001123252,-0.000869899,0.000000000,0.000000000,0.000000000,0.000000000,0.016828267,0.009510868,0.071297263,0.033957573,0.006410965,-0.001565031,0.010407907,0.000600596,-0.001111425,-0.535385796,0.004755756,-0.399426692,-0.004672218,-0.000025216,-0.003485801,0.999981999,0.000000000,0.000000000,0.000000000,0.000000000,0.000000000,0.000000000,0.957877100,0.000000000,4.184494300
1772724027.427391529,0.016190000,0.009349000,0.071332000,-0.010811500,0.017482170,-0.004704150,0.999777650,-0.021798000,0.034862000,-0.009790000,0.000136302,-0.000279306,0.000076144,-0.020436273,0.025347324,-0.002244820,0.009947924,-0.007556836,0.999332625,-0.000442046,-0.001638055,-0.000652998,0.000000000,0.000000000,0.000000000,0.000000000,0.016828213,0.009509932,0.071298019,0.033954517,0.006422625,-0.001558902,0.010606070,0.000463638,-0.001144385,-0.535215200,0.004625224,-0.399260901,-0.004670725,-0.000024089,-0.003484349,0.999981999,0.000000000,0.000000000,0.000000000,0.000000000,0.000000000,0.000000000,0.957877100,0.000000000,4.184295326
1772724027.437392235,0.016148000,0.009533000,0.071206000,-0.009739390,0.015841230,-0.005235810,0.999813380,-0.019652000,0.031580000,-0.010784000,-0.000230745,0.000244225,0.000113226,-0.016966241,0.021687070,-0.004021801,0.010182743,-0.007857425,0.999254366,-0.000820063,-0.002152883,-0.000436087,0.000000000,0.000000000,0.000000000,0.000000000,0.016828160,0.009508996,0.071298775,0.033951461,0.006434287,-0.001552773,0.010620192,0.000537025,-0.001084025,-0.535205776,0.004613780,-0.399167554,-0.004670642,-0.000023993,-0.003483533,0.999982003,0.000000000,0.000000000,0.000000000,0.000000000,0.000000000,0.000000000,0.957877100,0.000000000,4.184096343
1772724027.447391510,0.016164000,0.009408000,0.071311000,-0.010529850,0.016956630,-0.005010830,0.999788220,-0.021239000,0.033807000,-0.010383000,-0.000813210,0.003153444,-0.002131905,0.043347469,-0.068981865,-0.019000308,0.010417528,-0.008157971,0.999176119,-0.001198026,-0.002667638,-0.000219208,0.000000000,0.000000000,0.000000000,0.000000000,0.016828107,0.009508061,0.071299532,0.033948406,0.006445947,-0.001546644,0.010634311,0.000610402,-0.001023673,-0.535257364,0.004647419,-0.399101644,-0.004671093,-0.000024288,-0.003482960,0.999982013,0.000000000,0.000000000,0.000000000,0.000000000,0.000000000,0.000000000,0.957877100,0.000000000,4.183897389
1772724027.457392216,0.016160000,0.009382000,0.071334000,-0.011017090,0.017626220,-0.004872550,0.999772070,-0.022216000,0.035144000,-0.010138000,-0.000810354,0.004002686,-0.003178288,0.094126947,-0.146571556,-0.028296635,0.010652346,-0.008458560,0.999097860,-0.001576043,-0.003182466,-0.000002297,0.000000000,0.000000000,0.000000000,0.000000000,0.016828053,0.009507125,0.071300288,0.033945350,0.006457608,-0.001540515,0.010648433,0.000683790,-0.000963313,-0.535308959,0.004681063,-0.399035725,-0.004671545,-0.000024582,-0.003482386,0.999982022,0.000000000,0.000000000,0.000000000,0.000000000,0.000000000,0.000000000,0.957877100,0.000000000,4.183698406
1772724027.467391968,0.016137000,0.009558000,0.071193000,-0.009649130,0.015664840,-0.005290440,0.999816740,-0.019471000,0.031227000,-0.010887000,-0.000149453,0.001764354,-0.001705905,0.091862131,-0.135716875,-0.021681926,0.010887142,-0.008759120,0.999019609,-0.001954024,-0.003697244,0.000214593,0.000000000,0.000000000,0.000000000,0.000000000,0.016828000,0.009506190,0.071301044,0.033942295,0.006469268,-0.001534387,0.010662553,0.000757170,-0.000902959,-0.535360550,0.004714703,-0.398969812,-0.004671996,-0.000024877,-0.003481812,0.999982032,0.000000000,0.000000000,0.000000000,0.000000000,0.000000000,0.000000000,0.957877100,0.000000000,4.183499442
1772724027.477392435,0.016134000,0.009592000,0.071154000,-0.008565910,0.014001630,-0.005534180,0.999849960,-0.017292000,0.027908000,-0.011311000,0.000228103,0.000551347,-0.000622713,0.073831394,-0.103234618,-0.015782028,0.011121955,-0.009059702,0.998941352,-0.002332033,-0.004212060,0.000431499,0.000000000,0.000000000,0.000000000,0.000000000,0.016827947,0.009505254,0.071301800,0.033939239,0.006480929,-0.001528258,0.010676674,0.000830556,-0.000842600,-0.535412144,0.004748346,-0.398903895,-0.004672447,-0.000025172,-0.003481238,0.999982041,0.000000000,0.000000000,0.000000000,0.000000000,0.000000000,0.000000000,0.957877100,0.000000000,4.183300464
1772724027.487392664,0.016140000,0.009593000,0.071145000,-0.007930390,0.012910150,-0.005706160,0.999868930,-0.016012000,0.025729000,-0.011620000,0.000057574,0.001408690,-0.001152596,0.074302268,-0.101012463,-0.020610388,0.010375461,-0.008569179,0.999753278,-0.000976352,-0.003302499,0.002105698,0.000000000,0.000000000,0.000000000,0.000000000,0.016824687,0.009508366,0.071301137,0.033990149,0.006466258,-0.001545001,0.010690795,0.000903940,-0.000782242,-0.535463737,0.004781988,-0.398837979,-0.004672898,-0.000025466,-0.003480665,0.999982051,0.000000000,0.000000000,0.000000000,0.000000000,0.000000000,0.000000000,0.957877100,0.000000000,4.183101490
1772724027.497392416,0.016177000,0.009400000,0.071304000,-0.009277770,0.015194870,-0.005235160,0.999827800,-0.018721000,0.030292000,-0.010756000,0.000077426,-0.000020240,0.000260445,0.034221224,-0.046271330,-0.016228270,0.009517430,-0.007966857,1.000611035,0.000468737,-0.002299564,0.003838053,0.000000000,0.000000000,0.000000000,0.000000000,0.016820184,0.009513047,0.071299924,0.034061976,0.006441379,-0.001570610,0.009625208,0.001836683,-0.000371607,-0.535437508,0.004789208,-0.398361530,-0.004672669,-0.000025550,-0.003476507,0.999982068,0.000000000,0.000000000,0.000000000,0.000000000,0.000000000,0.000000000,0.957877100,0.000000000,4.182902527
1772724027.507392406,0.016149000,0.009537000,0.071212000,-0.008677280,0.014332900,-0.005554120,0.999844200,-0.017519000,0.028569000,-0.011360000,-0.000267748,0.001023772,-0.000623160,0.034419552,-0.056623694,-0.019835071,0.007730166,-0.005651721,0.999873832,-0.001186307,-0.002966693,0.002216792,0.000000000,0.000000000,0.000000000,0.000000000,0.016811693,0.009582576,0.071237567,0.034025710,0.006683621,-0.001777283,0.008222852,0.003088498,-0.000024594,-0.535220112,0.004905764,-0.396982579,-0.004670775,-0.000026630,-0.003464478,0.999982119,0.000000000,0.000000000,0.000000000,0.000000000,0.000000000,0.000000000,0.957877100,0.000000000,4.182703558
1772724027.517392635,0.016134000,0.009576000,0.071188000,-0.008344680,0.013719120,-0.005756720,0.999854500,-0.016852000,0.027342000,-0.011745000,-0.000459508,0.002161547,-0.001782923,0.056781800,-0.091589736,-0.022883260,0.008517897,-0.006084365,0.999310730,-0.002175913,0.000038638,-0.001051371,0.000000000,0.000000000,0.000000000,0.000000000,0.016809701,0.009592305,0.071231728,0.033936408,0.006809798,-0.001757995,0.008791172,0.002860054,-0.000615873,-0.535054555,0.005602779,-0.396219570,-0.004669351,-0.000032748,-0.003457848,0.999982119,0.000000000,0.000000000,0.000000000,0.000000000,0.000000000,0.000000000,0.957877100,0.000000000,4.182504584
1772724027.527391911,0.016142000,0.009590000,0.071148000,-0.007813140,0.012857990,-0.005829360,0.999869810,-0.015780000,0.025624000,-0.011862000,-0.000074687,-0.000456555,0.000119345,0.022831143,-0.039176731,-0.004387718,0.009550821,-0.007259783,0.998874451,-0.001527808,0.001317834,-0.001707584,0.000000000,0.000000000,0.000000000,0.000000000,0.016810520,0.009575867,0.071250971,0.033843435,0.006873397,-0.001644619,0.008731574,0.002823355,-0.000227342,-0.535477985,0.005128935,-0.397171151,-0.004673032,-0.000028562,-0.003466133,0.999982092,0.000000000,0.000000000,0.000000000,0.000000000,0.000000000,0.000000000,0.957877100,0.000000000,4.182305630
1772724027.537392616,0.016133000,0.009589000,0.071165000,-0.007712700,0.012555930,-0.005971000,0.999873600,-0.015579000,0.025019000,-0.012138000,0.000466967,-0.002675036,0.001681139,-0.029017244,0.039043733,0.024234398,0.009475619,-0.007535978,0.999155960,0.001031691,-0.002407803,0.000742603,0.000000000,0.000000000,0.000000000,0.000000000,0.016808455,0.009577091,0.071257486,0.033815868,0.006931968,-0.001634517,0.008624040,0.002801286,0.000236032,-0.534931018,0.004727434,-0.396965007,-0.004668247,-0.000025083,-0.003464318,0.999982100,0.000000000,0.000000000,0.000000000,0.000000000,0.000000000,0.000000000,0.957877100,0.000000000,4.182106647
1772724027.547392607,0.016142000,0.009589000,0.071144000,-0.007295530,0.011938150,-0.005866150,0.999884920,-0.014734000,0.023790000,-0.011909000,0.000929582,-0.004474820,0.003353090,-0.096710078,0.146081154,0.050485460,0.007824643,-0.004356860,1.000339067,-0.000144147,-0.004648808,-0.004413811,0.000000000,0.000000000,0.000000000,0.000000000,0.016807865,0.009589844,0.071238164,0.033859148,0.006873060,-0.001615223,0.009017035,0.002303961,0.000780055,-0.533918562,0.004989417,-0.395849840,-0.004659420,-0.000027445,-0.003454597,0.999982178,0.000000000,0.000000000,0.000000000,0.000000000,0.000000000,0.000000000,0.957877100,0.000000000,4.181907678
1772724027.557392836,0.016170000,0.009400000,0.071303000,-0.008981850,0.014755870,-0.005230830,0.999837100,-0.018124000,0.029417000,-0.010730000,0.000309628,-0.000990109,0.001137581,-0.077141594,0.123329746,0.037796892,0.009426358,-0.007304851,1.000659201,0.004079743,-0.002560232,0.001742599,0.000000000,0.000000000,0.000000000,0.000000000,0.016823513,0.009553120,0.071260268,0.033750330,0.007028845,-0.001345159,0.010095933,0.001155350,0.001434654,-0.533064459,0.005813866,-0.394025903,-0.004651991,-0.000034739,-0.003438713,0.999982278,0.000000000,0.000000000,0.000000000,0.000000000,0.000000000,0.000000000,0.957877100,0.000000000,4.181708705
1772724027.567392826,0.016174000,0.009361000,0.071347000,-0.010253310,0.016702300,-0.004817790,0.999796330,-0.020676000,0.033305000,-0.009982000,-0.000122744,0.000934458,-0.000247469,-0.042809244,0.079053164,0.013150268,0.009593304,-0.008463715,0.999202007,0.001074952,-0.001784326,-0.000205777,0.000000000,0.000000000,0.000000000,0.000000000,0.016815065,0.009573145,0.071260094,0.033813246,0.007068218,-0.001042739,0.010253461,0.001413970,0.000967772,-0.532360425,0.005362107,-0.391198711,-0.004645833,-0.000030933,-0.003414023,0.999982357,0.000000000,0.000000000,0.000000000,0.000000000,0.000000000,0.000000000,0.957877100,0.000000000,4.181509736
1772724027.577393293,0.016155000,0.009543000,0.071193000,-0.009311610,0.015151970,-0.005015160,0.999829270,-0.018782000,0.030210000,-0.010316000,-0.000029700,0.001078006,-0.000813909,-0.013050067,0.031258402,-0.006967475,0.009405517,-0.008806338,0.998683435,-0.000306032,-0.000070362,-0.001207014,0.000000000,0.000000000,0.000000000,0.000000000,0.016808995,0.009582039,0.071259701,0.033843011,0.006891035,-0.001017238,0.009652803,0.003276278,-0.000961598,-0.532458125,0.004091408,-0.390722233,-0.004646647,-0.000019860,-0.003409814,0.999982397,0.000000000,0.000000000,0.000000000,0.000000000,0.000000000,0.000000000,0.957877100,0.000000000,4.181310758
1772724027.587393522,0.016143000,0.009584000,0.071176000,-0.008872840,0.014520300,-0.005424000,0.999840490,-0.017909000,0.028944000,-0.011109000,-0.000080010,0.000283094,-0.000151687,-0.010775880,0.016411255,-0.018720409,0.008845552,-0.008292518,0.999149725,0.000016819,0.002627706,-0.001214419,0.000000000,0.000000000,0.000000000,0.000000000,0.016795351,0.009666194,0.071187242,0.033698628,0.007214001,-0.001361441,0.008825667,0.001310024,0.000501168,-0.532470472,0.002733521,-0.390703894,-0.004646715,-0.000008011,-0.003409599,0.999982367,0.000000000,0.000000000,0.000000000,0.000000000,0.000000000,0.000000000,0.957877100,0.000000000,4.181111785
1772724027.597393990,0.016139000,0.009585000,0.071172000,-0.008356310,0.013923350,-0.005705390,0.999851870,-0.016876000,0.027751000,-0.011647000,0.000132825,-0.001604217,0.001134084,-0.035072461,0.045087313,-0.007780390,0.008787988,-0.007987178,0.999411809,0.000833973,0.000158714,0.000607379,0.000000000,0.000000000,0.000000000,0.000000000,0.016792568,0.009697536,0.071152534,0.033527272,0.007279110,-0.001538824,0.009217276,0.001104846,0.000636949,-0.531684581,0.001356013,-0.389845410,-0.004639816,0.000003952,-0.003402052,0.999982476,0.000000000,0.000000000,0.000000000,0.000000000,0.000000000,0.000000000,0.957877100,0.000000000,4.180912807
1772724027.607394218,0.016171000,0.009403000,0.071298000,-0.009652320,0.015890030,-0.005393040,0.999812610,-0.019483000,0.031675000,-0.011097000,0.000743689,-0.005922417,0.004476180,-0.126294021,0.174218246,0.027256230,0.009007442,-0.008222520,0.999825914,0.001409215,-0.001036779,0.000802169,0.000000000,0.000000000,0.000000000,0.000000000,0.016807608,0.009621934,0.071213066,0.033437052,0.006991553,-0.001366497,0.009608876,0.000899673,0.000772726,-0.531116874,0.001704203,-0.389096064,-0.004634872,0.000000866,-0.003395526,0.999982497,0.000000000,0.000000000,0.000000000,0.000000000,0.000000000,0.000000000,0.957877100,0.000000000,4.180713833
1772724027.617394447,0.016181000,0.009358000,0.071335000,-0.010637170,0.017024210,-0.005023690,0.999785870,-0.021455000,0.033941000,-0.010414000,0.000381324,-0.004510328,0.003649373,-0.154955056,0.206818036,0.041949592,0.010118655,-0.009036624,1.000289811,0.000644279,0.000932083,-0.002924835,0.000000000,0.000000000,0.000000000,0.000000000,0.016798263,0.009654515,0.071194975,0.033334796,0.007012988,-0.001392607,0.010000475,0.000694499,0.000908504,-0.530022724,0.001740184,-0.388631305,-0.004625325,0.000000501,-0.003391472,0.999982564,0.000000000,0.000000000,0.000000000,0.000000000,0.000000000,0.000000000,0.957877100,0.000000000,4.180645466
1772724027.627394676,0.016163000,0.009379000,0.071339000,-0.011332320,0.018014270,-0.004850010,0.999761740,-0.022851000,0.035918000,-0.010113000,-0.000214952,-0.000347137,0.000486197,-0.102011025,0.122118154,0.030711779,0.009880876,-0.008218522,0.999933754,0.000514608,-0.002199124,-0.001188833,0.000000000,0.000000000,0.000000000,0.000000000,0.016787858,0.009689706,0.071167860,0.033318845,0.006964110,-0.001403970,0.009280637,0.001575066,-0.000335998,-0.528643086,0.002017470,-0.388376647,-0.004613294,-0.000001970,-0.003389261,0.999982635,0.000000000,0.000000000,0.000000000,0.000000000,0.000000000,0.000000000,0.957877100,0.000000000,4.180645466
1772724027.637394667,0.016166000,0.009372000,0.071336000,-0.011713830,0.018560240,-0.004648320,0.999748320,-0.023613000,0.037011000,-0.009736000,-0.000347875,0.001109260,-0.000368232,-0.052975897,0.060756788,0.014719620,0.009156658,-0.008047576,0.999402487,0.002668245,-0.002509491,0.001838745,0.000000000,0.000000000,0.000000000,0.000000000,0.016782732,0.009710642,0.071144907,0.033260742,0.006910681,-0.001422074,0.008897389,0.000326378,0.000024176,-0.527158359,0.002925715,-0.389089123,-0.004600364,-0.000009911,-0.003395515,0.999982655,0.000000000,0.000000000,0.000000000,0.000000000,0.000000000,0.000000000,0.957877100,0.000000000,4.180645466
1772724027.647394896,0.016167000,0.009380000,0.071326000,-0.011882080,0.018604350,-0.004678430,0.999745370,-0.023951000,0.037097000,-0.009804000,-0.000320175,0.002407326,-0.001526150,0.015025933,-0.019583681,-0.001038958,0.008537855,-0.008538061,0.996463890,0.001712117,-0.001783044,0.000850957,0.000000000,0.000000000,0.000000000,0.000000000,0.016781527,0.009717085,0.071130909,0.033144922,0.006819390,-0.001484401,0.008929545,0.001506131,-0.003039089,-0.525360685,0.003201270,-0.387617739,-0.004584685,-0.000012428,-0.003382686,0.999982788,0.000000000,0.000000000,0.000000000,0.000000000,0.000000000,0.000000000,0.957877100,0.000000000,4.180645466
1772724027.657395124,0.016130000,0.009564000,0.071202000,-0.010495870,0.016555430,-0.005174930,0.999794470,-0.021172000,0.033001000,-0.010701000,-0.000328683,0.003204220,-0.002458199,0.076414726,-0.098161138,-0.017962622,0.009778526,-0.007482977,0.999315987,0.001419327,-0.000385564,0.001597934,0.000000000,0.000000000,0.000000000,0.000000000,0.016798693,0.009605002,0.071218091,0.033122546,0.006346060,-0.001400826,0.009554348,0.001134001,-0.001221245,-0.524196609,0.002866946,-0.386155751,-0.004574516,-0.000009603,-0.003369914,0.999982859,0.000000000,0.000000000,0.000000000,0.000000000,0.000000000,0.000000000,0.957877100,0.000000000,4.180645466
1772724027.667395592,0.016164000,0.009413000,0.071311000,-0.010894950,0.017343540,-0.004980160,0.999777830,-0.021973000,0.034578000,-0.010342000,-0.000140653,0.001856795,-0.001620087,0.093197540,-0.121807611,-0.020079081,0.009543183,-0.007217243,1.000100560,-0.000966843,-0.000246196,0.002682875,0.000000000,0.000000000,0.000000000,0.000000000,0.016804545,0.009574320,0.071244475,0.033195100,0.006252439,-0.001322923,0.009826340,0.001459753,-0.000471154,-0.523269039,0.009606060,-0.385709685,-0.004566620,-0.000068457,-0.003366290,0.999982932,0.000000000,0.000000000,0.000000000,0.000000000,0.000000000,0.000000000,0.957877100,0.000000000,4.180645466
1772724027.677396059,0.016175000,0.009373000,0.071343000,-0.011235590,0.018104530,-0.004744280,0.999761710,-0.022654000,0.036102000,-0.009900000,-0.000667176,0.002383298,-0.001999585,0.108239008,-0.147998809,-0.030800871,0.010022967,-0.005768968,1.000954664,-0.002781642,0.003936155,0.005172617,0.000000000,0.000000000,0.000000000,0.000000000,0.016619078,0.009625938,0.071188181,0.031733177,0.006371694,-0.001575465,0.009472768,0.002710622,0.000679384,-0.523272034,0.016519231,-0.384964611,-0.004566848,-0.000128815,-0.003360064,0.999982953,0.000000000,0.000000000,0.000000000,0.000000000,0.000000000,0.000000000,0.957877100,0.000000000,4.180645466
1772724027.687396288,0.016144000,0.009550000,0.071194000,-0.009706830,0.015743660,-0.005120100,0.999815830,-0.019582000,0.031387000,-0.010549000,-0.000451485,0.000279053,-0.000582426,0.073920887,-0.103139740,-0.025964781,0.008468904,-0.006459176,0.999825198,0.001602866,0.000284099,-0.000347476,0.000000000,0.000000000,0.000000000,0.000000000,0.016707008,0.009653971,0.071177819,0.032276399,0.006668632,-0.001453283,0.008346203,0.002104148,-0.001188169,-0.522733642,0.015613034,-0.382874552,-0.004562121,-0.000121006,-0.003341788,0.999982986,0.000000000,0.000000000,0.000000000,0.000000000,0.000000000,0.000000000,0.957877100,0.000000000,4.180645466
1772724027.697396755,0.016123000,0.009589000,0.071167000,-0.008815350,0.014280080,-0.005587110,0.999843560,-0.017796000,0.028461000,-0.011429000,-0.000124978,-0.000464111,-0.000031293,0.042784257,-0.064984050,-0.018406937,0.009028452,-0.007029887,0.998030109,0.000915369,-0.000601891,0.001750275,0.000000000,0.000000000,0.000000000,0.000000000,0.016765565,0.009571326,0.071243525,0.032551697,0.006560760,-0.001215129,0.008913672,0.001859200,-0.001553066,-0.522476635,0.015896675,-0.382398184,-0.004559886,-0.000123507,-0.003337642,0.999983013,0.000000000,0.000000000,0.000000000,0.000000000,0.000000000,0.000000000,0.957877100,0.000000000,4.181091257
1772724027.707397223,0.016149000,0.009417000,0.071295000,-0.009694640,0.015636910,-0.005321680,0.999816570,-0.019563000,0.031170000,-0.010950000,-0.000320972,0.002000556,-0.001789353,0.068187019,-0.101770599,-0.019199982,0.009297788,-0.006540564,0.998094218,0.002262271,-0.001607347,0.002113551,0.000000000,0.000000000,0.000000000,0.000000000,0.016787335,0.009531170,0.071281849,0.032692471,0.006502793,-0.001207348,0.008785473,0.001750983,-0.002104256,-0.521639637,0.016605359,-0.380574524,-0.004552601,-0.000129789,-0.003321755,0.999983102,0.000000000,0.000000000,0.000000000,0.000000000,0.000000000,0.000000000,0.957877100,0.000000000,4.181590261
1772724027.717397451,0.016121000,0.009558000,0.071188000,-0.008887860,0.014343990,-0.005719110,0.999841260,-0.017945000,0.028586000,-0.011696000,0.000376001,-0.000638583,0.000376371,0.028263136,-0.042037642,0.001466859,0.009222104,-0.007447881,0.999275481,0.001556211,0.000547928,0.000099677,0.000000000,0.000000000,0.000000000,0.000000000,0.016794005,0.009517459,0.071297865,0.032780861,0.006559810,-0.001263578,0.009123099,0.002047306,-0.000861223,-0.520885870,0.017806376,-0.379878158,-0.004546057,-0.000140319,-0.003315725,0.999983174,0.000000000,0.000000000,0.000000000,0.000000000,0.000000000,0.000000000,0.957877100,0.000000000,4.182089254
1772724027.727397919,0.016170000,0.009395000,0.071308000,-0.009871040,0.015996440,-0.005201790,0.999809790,-0.019916000,0.031890000,-0.010723000,0.000642720,-0.001384623,0.001266871,-0.005480072,0.011260716,0.016012551,0.008289707,-0.006986185,1.000218082,0.001134600,-0.000076328,-0.001474551,0.000000000,0.000000000,0.000000000,0.000000000,0.016799178,0.009511086,0.071302674,0.032850190,0.006606475,-0.001283370,0.007850201,0.001646690,-0.000260046,-0.520293858,0.018124651,-0.379577539,-0.004540899,-0.000143125,-0.003313114,0.999983191,0.000000000,0.000000000,0.000000000,0.000000000,0.000000000,0.000000000,0.957877100,0.000000000,4.182588259
1772724027.737397671,0.016154000,0.009548000,0.071193000,-0.008751930,0.014349930,-0.005289030,0.999844740,-0.017661000,0.028607000,-0.010832000,0.000236047,0.001844732,-0.001476268,0.041609984,-0.055578934,0.005822985,0.008341746,-0.006701689,0.999895279,0.000669752,-0.001337386,-0.001035723,0.000000000,0.000000000,0.000000000,0.000000000,0.016817624,0.009581185,0.071247793,0.029530997,0.005924613,-0.001474059,0.007494217,0.001847684,-0.000189107,-0.516981397,0.025052409,-0.380580608,-0.004512195,-0.000203637,-0.003322132,0.999983278,0.000000000,0.000000000,0.000000000,0.000000000,0.000000000,0.000000000,0.957877100,0.000000000,4.183087228
1772724027.747397900,0.016137000,0.009591000,0.071157000,-0.008025440,0.013252680,-0.005434160,0.999865210,-0.016199000,0.026418000,-0.011084000,0.000114139,0.001137289,-0.000932982,0.041136969,-0.054846636,-0.002203169,0.009532038,-0.007662038,0.998897894,0.000016159,-0.000226645,0.000711987,0.000000000,0.000000000,0.000000000,0.000000000,0.016693888,0.009619006,0.071196968,0.024076594,0.004653295,-0.001693263,0.007798563,0.001487569,-0.000616182,-0.505371768,0.087516595,-0.381219021,-0.004412697,-0.000749044,-0.003330089,0.999983408,0.000000000,0.000000000,0.000000000,0.000000000,0.000000000,0.000000000,0.957877100,0.000000000,4.183586220
1772724027.757398605,0.016163000,0.009415000,0.071304000,-0.009403510,0.015152690,-0.005199140,0.999827450,-0.018971000,0.030207000,-0.010687000,0.000276179,-0.000869483,0.000445367,0.008420188,-0.004149654,0.000538244,0.009636496,-0.007614008,0.998876058,-0.001324815,0.002179782,0.001383364,0.000000000,0.000000000,0.000000000,0.000000000,0.016456214,0.009545798,0.071222801,0.024366159,0.004593533,-0.001658487,0.008102923,0.001127436,-0.001043277,-0.510242486,0.073269509,-0.388145148,-0.004454825,-0.000624305,-0.003390008,0.999983146,0.000000000,0.000000000,0.000000000,0.000000000,0.000000000,0.000000000,0.957877100,0.000000000,4.184085237
1772724027.767398834,0.016148000,0.009546000,0.071199000,-0.008591360,0.014124300,-0.005487880,0.999848280,-0.017343000,0.028154000,-0.011221000,-0.000058293,0.000001127,-0.000166352,0.004518863,-0.003480387,-0.005910298,0.009114400,-0.007885762,0.998755890,-0.001945958,0.004821370,-0.001732145,0.000000000,0.000000000,0.000000000,0.000000000,0.016475781,0.009563921,0.071208241,0.025332151,0.004801183,-0.001742817,0.008267563,0.001079370,-0.000814078,-0.510767517,0.069694239,-0.387552846,-0.004459299,-0.000593113,-0.003384704,0.999983132,0.000000000,0.000000000,0.000000000,0.000000000,0.000000000,0.000000000,0.957877100,0.000000000,4.184584230
1772724027.777399540,0.016152000,0.009580000,0.071147000,-0.007809570,0.013091360,-0.005552610,0.999868390,-0.015768000,0.026095000,-0.011312000,-0.000048328,-0.000486430,0.000467336,-0.012849316,0.023370557,-0.002195544,0.008569915,-0.008486912,0.999506241,-0.002340597,0.000623518,-0.003527902,0.000000000,0.000000000,0.000000000,0.000000000,0.016598972,0.009561412,0.071213954,0.026202919,0.004861354,-0.001745303,0.008019969,0.001859143,0.000740029,-0.509973699,0.068599015,-0.387431247,-0.004452339,-0.000583584,-0.003383596,0.999983191,0.000000000,0.000000000,0.000000000,0.000000000,0.000000000,0.000000000,0.957877100,0.000000000,4.185083246
1772724027.787399530,0.016168000,0.009407000,0.071303000,-0.009359870,0.015327640,-0.005228520,0.999825040,-0.018887000,0.030557000,-0.010747000,-0.000553775,0.002797605,-0.002138529,0.039769230,-0.059574783,-0.015192237,0.008180793,-0.009061666,1.000156490,-0.001915423,-0.003928918,-0.003974498,0.000000000,0.000000000,0.000000000,0.000000000,0.016633657,0.009594713,0.071190349,0.026588981,0.005088662,-0.001673842,0.007424837,0.000740915,0.000176358,-0.508729805,0.068715143,-0.387842613,-0.004441489,-0.000584618,-0.003387184,0.999983164,0.000000000,0.000000000,0.000000000,0.000000000,0.000000000,0.000000000,0.957877100,0.000000000,4.185582227
1772724027.797400475,0.016149000,0.009545000,0.071189000,-0.008573410,0.014134660,-0.005393470,0.999848800,-0.017304000,0.028176000,-0.011032000,-0.000558398,0.001864099,-0.001343404,0.041867470,-0.072802655,-0.016395403,0.008452414,-0.009749700,0.998791007,0.003314202,-0.002212194,-0.002098671,0.000000000,0.000000000,0.000000000,0.000000000,0.016641523,0.009613132,0.071179107,0.026700735,0.005145377,-0.001661148,0.006760054,-0.001160499,-0.001120349,-0.509165380,0.068844531,-0.388794166,-0.004445299,-0.000585698,-0.003395495,0.999983138,0.000000000,0.000000000,0.000000000,0.000000000,0.000000000,0.000000000,0.957877100,0.000000000,4.185818559
1772724027.807400465,0.016133000,0.009584000,0.071175000,-0.008179550,0.013354870,-0.005583470,0.999861770,-0.016513000,0.026618000,-0.011388000,-0.000145082,-0.000624248,0.000766979,-0.000812287,-0.013858762,-0.007367795,0.008702066,-0.009397042,0.998323409,0.004157110,-0.001381012,-0.001398687,0.000000000,0.000000000,0.000000000,0.000000000,0.016643873,0.009625677,0.071172730,0.026742150,0.005142837,-0.001669408,0.006994995,-0.000527165,-0.001202963,-0.509038873,0.068788756,-0.388858786,-0.004444194,-0.000585212,-0.003396056,0.999983150,0.000000000,0.000000000,0.000000000,0.000000000,0.000000000,0.000000000,0.957877100,0.000000000,4.185483705
1772724027.817401171,0.016127000,0.009592000,0.071169000,-0.007957180,0.013123710,-0.005772370,0.999865560,-0.016070000,0.026155000,-0.011756000,-0.000359393,0.000879409,-0.000356091,0.011778083,-0.027567733,-0.013377759,0.008940051,-0.008490187,0.998333867,0.002664248,-0.001021270,-0.001324738,0.000000000,0.000000000,0.000000000,0.000000000,0.016646223,0.009638222,0.071166352,0.026783569,0.005140297,-0.001677669,0.007229953,0.000106214,-0.001285583,-0.508856506,0.068714579,-0.388835283,-0.004442600,-0.000584571,-0.003395847,0.999983173,0.000000000,0.000000000,0.000000000,0.000000000,0.000000000,0.000000000,0.957877100,0.000000000,4.185148827
1772724027.827401638,0.016141000,0.009590000,0.071146000,-0.007638280,0.012446780,-0.005820600,0.999876420,-0.015425000,0.024804000,-0.011834000,0.000067928,-0.001135114,0.001104326,-0.020002525,0.023271337,-0.002375870,0.009178031,-0.007583352,0.998344324,0.001171422,-0.000661537,-0.001250792,0.000000000,0.000000000,0.000000000,0.000000000,0.016647846,0.009648908,0.071160701,0.026827435,0.005134038,-0.001701815,0.007464906,0.000739578,-0.001368200,-0.508674143,0.068640403,-0.388811781,-0.004441007,-0.000583930,-0.003395638,0.999983197,0.000000000,0.000000000,0.000000000,0.000000000,0.000000000,0.000000000,0.957877100,0.000000000,4.184813957
1772724027.837402821,0.016161000,0.009410000,0.071311000,-0.009235940,0.014842330,-0.005379820,0.999832720,-0.018638000,0.029585000,-0.011037000,0.000541130,-0.002498097,0.001997332,-0.056259432,0.080892667,0.012811294,0.009416027,-0.006676453,0.998354782,-0.000321510,-0.000301778,-0.001176840,0.000000000,0.000000000,0.000000000,0.000000000,0.016648395,0.009656853,0.071156121,0.026874916,0.005122294,-0.001749393,0.007699875,0.001372988,-0.001450824,-0.508491767,0.068566222,-0.388788277,-0.004439413,-0.000583289,-0.003395429,0.999983220,0.000000000,0.000000000,0.000000000,0.000000000,0.000000000,0.000000000,0.957877100,0.000000000,4.184479063
1772724027.847402334,0.016142000,0.009539000,0.071211000,-0.008792220,0.014358640,-0.005516180,0.999843040,-0.017748000,0.028620000,-0.011288000,0.000580756,-0.002470651,0.001881795,-0.069165029,0.105817993,0.024075656,0.009653984,-0.005769705,0.998365238,-0.001814194,0.000057921,-0.001102900,0.000000000,0.000000000,0.000000000,0.000000000,0.016648944,0.009664795,0.071151541,0.026922389,0.005110552,-0.001796963,0.008047473,0.002090285,-0.001530078,-0.508309421,0.068492053,-0.388764776,-0.004437819,-0.000582648,-0.003395220,0.999983243,0.000000000,0.000000000,0.000000000,0.000000000,0.000000000,0.000000000,0.957877100,0.000000000,4.184144225
1772724027.857402325,0.016131000,0.009567000,0.071192000,-0.008550480,0.013853430,-0.005665610,0.999851430,-0.017263000,0.027609000,-0.011571000,0.000430196,-0.001519856,0.001090923,-0.065532048,0.098480184,0.025705001,0.010402853,-0.005248139,0.997999062,-0.000620032,-0.000801217,-0.000481441,0.000000000,0.000000000,0.000000000,0.000000000,0.016652441,0.009673592,0.071142104,0.027044411,0.005192154,-0.001877327,0.009458818,0.003600627,-0.001577661,-0.508972446,0.067696022,-0.388565245,-0.004443580,-0.000575690,-0.003393452,0.999983215,0.000000000,0.000000000,0.000000000,0.000000000,0.000000000,0.000000000,0.957877100,0.000000000,4.183809371
1772724027.867402792,0.016171000,0.009396000,0.071317000,-0.009869290,0.015823250,-0.005177660,0.999812690,-0.019910000,0.031544000,-0.010671000,0.000153979,0.001111396,-0.001356845,-0.012966629,0.027108314,0.012817678,0.010829710,-0.006431301,0.997126010,0.001644279,-0.003001162,0.000261061,0.000000000,0.000000000,0.000000000,0.000000000,0.016663585,0.009661257,0.071146263,0.027334265,0.005368682,-0.001958752,0.009557436,0.002666680,-0.003202111,-0.508917374,0.067311420,-0.388412213,-0.004443088,-0.000572341,-0.003392101,0.999983221,0.000000000,0.000000000,0.000000000,0.000000000,0.000000000,0.000000000,0.957877100,0.000000000,4.183474501
1772724027.877403021,0.016160000,0.009548000,0.071177000,-0.008850180,0.014452200,-0.005287540,0.999842410,-0.017859000,0.028810000,-0.010834000,0.000263611,0.000717738,-0.001217008,0.007506376,-0.006951772,0.010621634,0.010245270,-0.008529384,0.997079390,-0.000050942,-0.002898683,0.000320587,0.000000000,0.000000000,0.000000000,0.000000000,0.016678590,0.009599441,0.071202145,0.027690317,0.005321289,-0.001933483,0.008897437,-0.000060070,-0.003231394,-0.508234234,0.067555180,-0.388339280,-0.004437133,-0.000574491,-0.003391471,0.999983251,0.000000000,0.000000000,0.000000000,0.000000000,0.000000000,0.000000000,0.957877100,0.000000000,4.183139639
1772724027.887403011,0.016161000,0.009413000,0.071303000,-0.009988100,0.016150100,-0.005032250,0.999807030,-0.020147000,0.032199000,-0.010391000,0.000221693,-0.000599617,0.000307083,-0.008812247,0.016986520,0.013165874,0.009900647,-0.008374883,0.998599702,-0.002895780,0.001066210,-0.000096878,0.000000000,0.000000000,0.000000000,0.000000000,0.016680491,0.009620482,0.071187474,0.027905978,0.005301103,-0.002200319,0.008646782,0.000297056,-0.001703840,-0.508291930,0.067361752,-0.387790533,-0.004437629,-0.000572823,-0.003386675,0.999983251,0.000000000,0.000000000,0.000000000,0.000000000,0.000000000,0.000000000,0.957877100,0.000000000,4.182804785
1772724027.897403240,0.016156000,0.009553000,0.071175000,-0.009139880,0.014786450,-0.005268280,0.999835020,-0.018442000,0.029476000,-0.010810000,-0.000289756,0.001029269,-0.000638078,0.009214671,-0.010683585,-0.002010975,0.009404971,-0.006632954,0.998475291,0.000815716,0.001157418,-0.001450148,0.000000000,0.000000000,0.000000000,0.000000000,0.016678696,0.009638832,0.071173394,0.028040399,0.005327425,-0.002262849,0.008573981,0.001842938,-0.000319212,-0.508938718,0.066678574,-0.386897903,-0.004443249,-0.000566877,-0.003378862,0.999983251,0.000000000,0.000000000,0.000000000,0.000000000,0.000000000,0.000000000,0.957877100,0.000000000,4.182469923
1772724027.907403231,0.016150000,0.009583000,0.071152000,-0.008378070,0.013843380,-0.005413620,0.999854420,-0.016911000,0.027596000,-0.011062000,-0.000658668,0.001748930,-0.000890151,0.021744234,-0.039614217,-0.021928812,0.009646196,-0.007213336,0.998620652,0.000088686,0.000565147,0.000032321,0.000000000,0.000000000,0.000000000,0.000000000,0.016689408,0.009607217,0.071196749,0.028219975,0.005290729,-0.002191895,0.008181923,0.001722791,-0.001381059,-0.508652984,0.065545956,-0.386397968,-0.004440719,-0.000557021,-0.003374454,0.999983295,0.000000000,0.000000000,0.000000000,0.000000000,0.000000000,0.000000000,0.957877100,0.000000000,4.182135068
1772724027.917403221,0.016161000,0.009418000,0.071306000,-0.009729680,0.015645570,-0.005085520,0.999817330,-0.019626000,0.031192000,-0.010479000,-0.000576735,0.001963339,-0.001184802,0.038893514,-0.075773589,-0.035670763,0.010335813,-0.008345172,0.999447711,-0.000686772,0.000477422,0.000515601,0.000000000,0.000000000,0.000000000,0.000000000,0.016703033,0.009587497,0.071205320,0.028429083,0.005286125,-0.002185965,0.009188439,0.000285446,-0.000995553,-0.508396071,0.064082003,-0.385836817,-0.004438431,-0.000544275,-0.003369500,0.999983348,0.000000000,0.000000000,0.000000000,0.000000000,0.000000000,0.000000000,0.957877100,0.000000000,4.181800214
1772724027.927402735,0.016142000,0.009546000,0.071203000,-0.009147190,0.014798870,-0.005447860,0.999833810,-0.018462000,0.029497000,-0.011170000,-0.000196557,0.001250321,-0.000990537,0.048051326,-0.086766516,-0.034094146,0.009535890,-0.008238306,0.999912740,0.001113902,0.000371444,-0.000586635,0.000000000,0.000000000,0.000000000,0.000000000,0.016709420,0.009596269,0.071192095,0.028664401,0.005272613,-0.002214500,0.009199451,0.000404026,0.000313427,-0.508014509,0.063441980,-0.385598291,-0.004435081,-0.000538710,-0.003367391,0.999983370,0.000000000,0.000000000,0.000000000,0.000000000,0.000000000,0.000000000,0.957877100,0.000000000,4.181465376
1772724027.937403440,0.016137000,0.009574000,0.071174000,-0.008730060,0.013989680,-0.005787870,0.999847280,-0.017627000,0.027878000,-0.011823000,-0.000025951,-0.001061980,0.000985817,0.009759404,-0.021280209,-0.019778372,0.008349737,-0.007702036,0.999614978,0.001619965,-0.000266299,-0.000829869,0.000000000,0.000000000,0.000000000,0.000000000,0.016714383,0.009574508,0.071210549,0.028870535,0.005168631,-0.002045845,0.007368070,0.001118746,0.000024218,-0.507225311,0.064081214,-0.385648585,-0.004428213,-0.000544309,-0.003367851,0.999983370,0.000000000,0.000000000,0.000000000,0.000000000,0.000000000,0.000000000,0.957877100,0.000000000,4.181130498
1772724027.947403669,0.016137000,0.009585000,0.071168000,-0.008356850,0.013322740,-0.005976870,0.999858460,-0.016877000,0.026545000,-0.012179000,0.000078650,-0.000237834,0.000164468,0.008617896,-0.011092066,-0.009345605,0.008973644,-0.007988153,0.999632246,-0.000696735,-0.000757915,0.000112468,0.000000000,0.000000000,0.000000000,0.000000000,0.016715715,0.009611433,0.071175844,0.028890021,0.005303440,-0.002137273,0.007558806,0.000371944,-0.000125404,-0.506996107,0.064610019,-0.385349931,-0.004426227,-0.000548942,-0.003365264,0.999983370,0.000000000,0.000000000,0.000000000,0.000000000,0.000000000,0.000000000,0.957877100,0.000000000,4.180795636
1772724027.957403898,0.016143000,0.009588000,0.071155000,-0.007848200,0.012589070,-0.005973950,0.999872110,-0.015850000,0.025084000,-0.012148000,0.000031002,0.001084202,-0.001069614,0.035070489,-0.042852081,-0.003150333,0.009356509,-0.008096899,1.000187937,-0.000064827,-0.001446717,0.001302060,0.000000000,0.000000000,0.000000000,0.000000000,0.016714224,0.009643943,0.071147589,0.028940968,0.005352178,-0.002199494,0.008278343,0.000322509,0.000099848,-0.507116958,0.064956299,-0.384726653,-0.004427289,-0.000551985,-0.003359839,0.999983378,0.000000000,0.000000000,0.000000000,0.000000000,0.000000000,0.000000000,0.957877100,0.000000000,4.180645466
1772724027.967403889,0.016171000,0.009402000,0.071308000,-0.009322040,0.015137650,-0.005381480,0.999827480,-0.018813000,0.030174000,-0.011049000,0.000400923,-0.001688889,0.001269513,-0.006058962,0.016368344,0.020374322,0.010910815,-0.007764698,0.999678561,-0.000100637,-0.000795873,0.000366871,0.000000000,0.000000000,0.000000000,0.000000000,0.016718952,0.009597904,0.071193877,0.029076124,0.005190327,-0.001908257,0.009128826,0.001148363,0.000163187,-0.506942892,0.065600272,-0.383738672,-0.004425785,-0.000557648,-0.003351241,0.999983432,0.000000000,0.000000000,0.000000000,0.000000000,0.000000000,0.000000000,0.957877100,0.000000000,4.180645466
1772724027.977403879,0.016135000,0.009542000,0.071213000,-0.008923410,0.014549370,-0.005600800,0.999838650,-0.018015000,0.028998000,-0.011465000,0.000278296,-0.001093837,0.000855536,-0.018031609,0.033384834,0.027149555,0.010822695,-0.009474058,0.999208504,0.000547274,-0.000718022,-0.002406379,0.000000000,0.000000000,0.000000000,0.000000000,0.016716683,0.009606752,0.071193317,0.029291583,0.005215716,-0.001858191,0.009808529,0.000043727,-0.000408278,-0.506091587,0.065774892,-0.382446157,-0.004418354,-0.000559246,-0.003339965,0.999983490,0.000000000,0.000000000,0.000000000,0.000000000,0.000000000,0.000000000,0.957877100,0.000000000,4.180645466
1772724027.987404346,0.016147000,0.009587000,0.071160000,-0.008318480,0.013477060,-0.005620160,0.999858780,-0.016793000,0.026860000,-0.011467000,0.000018570,0.000951571,-0.000918180,0.007630620,-0.007981843,0.016368023,0.010299320,-0.010275252,1.000446966,0.000848277,0.002030681,0.003791794,0.000000000,0.000000000,0.000000000,0.000000000,0.016713325,0.009634267,0.071172339,0.029461517,0.005180482,-0.001915096,0.008367425,-0.001759120,0.000017031,-0.505554893,0.066244234,-0.381871166,-0.004413682,-0.000563380,-0.003334963,0.999983536,0.000000000,0.000000000,0.000000000,0.000000000,0.000000000,0.000000000,0.957877100,0.000000000,4.180645466
1772724027.997404337,0.016148000,0.009590000,0.071147000,-0.007797690,0.012632280,-0.005653080,0.999873820,-0.015742000,0.025176000,-0.011506000,0.000198869,0.000097259,-0.000312289,0.004864593,-0.006007842,0.015142798,0.009419381,-0.009109167,1.000702804,-0.000887322,0.001196730,0.001904055,0.000000000,0.000000000,0.000000000,0.000000000,0.016711746,0.009657287,0.071153140,0.029584812,0.005036676,-0.001894482,0.008487800,-0.000647750,0.000572327,-0.505007408,0.065507848,-0.378311570,-0.004408865,-0.000557106,-0.003303869,0.999983640,0.000000000,0.000000000,0.000000000,0.000000000,0.000000000,0.000000000,0.957877100,0.000000000,4.180645466
1772724028.007404327,0.016171000,0.009404000,0.071307000,-0.009274940,0.014971780,-0.005094920,0.999831920,-0.018709000,0.029848000,-0.010471000,0.000262892,-0.000946190,0.000518461,-0.013302866,0.017520756,0.016473619,0.010364908,-0.008423766,1.000549779,-0.000272446,-0.001105846,0.000673253,0.000000000,0.000000000,0.000000000,0.000000000,0.016713190,0.009670601,0.071139371,0.029649521,0.004926802,-0.001814075,0.008250395,0.000097361,0.000435059,-0.505020824,0.065977798,-0.377843695,-0.004408993,-0.000561225,-0.003299804,0.999983668,0.000000000,0.000000000,0.000000000,0.000000000,0.000000000,0.000000000,0.957877100,0.000000000,4.180645466
1772724028.017405033,0.016149000,0.009555000,0.071186000,-0.008712260,0.014177530,-0.005276990,0.999847610,-0.017579000,0.028263000,-0.010804000,0.000232182,-0.002285534,0.001734187,-0.049490767,0.075713157,0.020985500,0.011904354,-0.005968083,0.999785891,0.000450268,0.003192122,0.003402606,0.000000000,0.000000000,0.000000000,0.000000000,0.016724501,0.009626540,0.071172562,0.029832552,0.004754076,-0.001550692,0.010508857,0.002747920,0.000017755,-0.504840494,0.065721766,-0.376138032,-0.004407404,-0.000559062,-0.003284909,0.999983714,0.000000000,0.000000000,0.000000000,0.000000000,0.000000000,0.000000000,0.957877100,0.000000000,4.180645466
1772724028.027405262,0.016151000,0.009580000,0.071155000,-0.008185980,0.013447760,-0.005406760,0.999861450,-0.016522000,0.026806000,-0.011036000,-0.000188399,0.000091781,-0.000124550,-0.024619894,0.036632214,0.006526191,0.011442882,-0.005824290,0.998302168,-0.000962850,0.003637087,0.002072363,0.000000000,0.000000000,0.000000000,0.000000000,0.016730447,0.009592742,0.071204843,0.030097959,0.004771452,-0.001380542,0.010640756,0.003477477,-0.002153191,-0.504726654,0.063675003,-0.374200602,-0.004406343,-0.000541278,-0.003267923,0.999983767,0.000000000,0.000000000,0.000000000,0.000000000,0.000000000,0.000000000,0.957877100,0.000000000,4.180645466
1772724028.037405968,0.016171000,0.009398000,0.071307000,-0.009574870,0.015436140,-0.004965400,0.999822680,-0.019310000,0.030777000,-0.010230000,-0.000358111,0.002113355,-0.001742190,0.023693548,-0.043931220,-0.009394921,0.010201553,-0.007207126,0.997302310,-0.001565895,0.000156215,0.000495834,0.000000000,0.000000000,0.000000000,0.000000000,0.016726201,0.009611505,0.071196368,0.030275713,0.005012239,-0.001456509,0.008964538,0.002506761,-0.002528580,-0.504629913,0.062603213,-0.374260353,-0.004405468,-0.000531926,-0.003268402,0.999983788,0.000000000,0.000000000,0.000000000,0.000000000,0.000000000,0.000000000,0.957877100,0.000000000,4.180645466
1772724028.047406673,0.016142000,0.009539000,0.071199000,-0.009054880,0.014475100,-0.005270020,0.999840340,-0.018268000,0.028854000,-0.010805000,-0.000743612,0.003881438,-0.002860677,0.081429478,-0.135339401,-0.028192152,0.008523450,-0.007734884,0.997624306,0.000694457,-0.004147764,0.002582292,0.000000000,0.000000000,0.000000000,0.000000000,0.016730143,0.009646888,0.071164341,0.030377400,0.005198464,-0.001767853,0.008223742,0.001702291,-0.001952376,-0.504400811,0.062787631,-0.374321247,-0.004403474,-0.000533539,-0.003268940,0.999983797,0.000000000,0.000000000,0.000000000,0.000000000,0.000000000,0.000000000,0.957877100,0.000000000,4.180645466
1772724028.057407141,0.016141000,0.009583000,0.071156000,-0.008309450,0.013465830,-0.005425440,0.999860080,-0.016770000,0.026841000,-0.011077000,-0.000583806,0.001761168,-0.000817425,0.071805275,-0.115864339,-0.026713942,0.009722807,-0.007399831,0.999685562,0.002010704,-0.002656418,-0.000098424,0.000000000,0.000000000,0.000000000,0.000000000,0.016732421,0.009665275,0.071143314,0.030364172,0.005269160,-0.001941738,0.008580456,0.001440743,-0.000357072,-0.503861136,0.064282853,-0.373305988,-0.004398803,-0.000546642,-0.003260135,0.999983841,0.000000000,0.000000000,0.000000000,0.000000000,0.000000000,0.000000000,0.957877100,0.000000000,4.180645466
1772724028.067407846,0.016147000,0.009601000,0.071142000,-0.007745570,0.012509600,-0.005547300,0.999876360,-0.015634000,0.024933000,-0.011291000,-0.000605153,-0.000021911,0.000981873,0.024794061,-0.038306374,-0.023017324,0.009722358,-0.008060211,1.000762677,0.001938947,-0.002698740,0.001909535,0.000000000,0.000000000,0.000000000,0.000000000,0.016740573,0.009628839,0.071171516,0.030422936,0.005174024,-0.001782946,0.008783213,0.001643443,0.000944057,-0.503237924,0.064292794,-0.372867617,-0.004393363,-0.000546763,-0.003256307,0.999983890,0.000000000,0.000000000,0.000000000,0.000000000,0.000000000,0.000000000,0.957877100,0.000000000,4.180656256
