t,px,py,pz,qx,qy,qz,qw,roll,pitch,yaw,vx,vy,vz,wx_vicon,wy_vicon,wz_vicon,imu_acc_x,imu_acc_y,imu_acc_z,imu_gyro_x,imu_gyro_y,imu_gyro_z,motor_motor_m1,motor_motor_m2,motor_motor_m3,motor_motor_m4,est_stateEstimate_x,est_stateEstimate_y,est_stateEstimate_z,est_stateEstimate_vx,est_stateEstimate_vy,est_stateEstimate_vz,est_stateEstimate_ax,est_stateEstimate_ay,est_stateEstimate_az,att_stateEstimate_roll,att_stateEstimate_pitch,att_stateEstimate_yaw,att_stateEstimate_qx,att_stateEstimate_qy,att_stateEstimate_qz,att_stateEstimate_qw,sp_ctrltarget_x,sp_ctrltarget_y,sp_ctrltarget_z,sp_ctrltarget_yaw,pid_controller_roll,pid_controller_pitch,pid_controller_yaw,pid_controller_cmd_thrust,pwr_pm_vbat
1772725538.811106443,0.015795000,0.009504000,0.071430000,0.011950400,-0.020472840,-0.006738290,-0.999696280,-0.023640000,0.041106000,0.012995000,-0.003088212,0.000936190,-0.001963697,-0.008564675,-0.076442995,0.028702261,0.008473094,-0.008669247,0.999066105,0.000304802,0.000628674,-0.001330374,0.000000000,0.000000000,0.000000000,0.000000000,0.016205189,0.009596543,0.071371734,0.041858460,0.010395697,-0.005439269,0.012293072,0.002155971,-0.001845064,-0.594436936,-0.204406825,0.532731318,-0.005195641,0.001759628,0.004658120,0.999973067,0.000000000,0.000000000,0.000000000,0.000000000,0.000000000,0.000000000,-0.383724183,0.000000000,4.101466179
1772725538.821106672,0.015775000,0.009515000,0.071415000,0.011990990,-0.020276680,-0.006773280,-0.999699550,-0.023722000,0.040715000,0.013067000,-0.000614200,0.000009382,-0.000357751,0.001885432,-0.040343763,0.008550110,0.008941821,-0.008706457,0.998748322,0.002098656,-0.001125467,-0.000639352,0.000000000,0.000000000,0.000000000,0.000000000,0.016211969,0.009587369,0.071373963,0.041822372,0.010269426,-0.005332397,0.012528352,0.002000542,-0.001586766,-0.593846770,-0.205254232,0.532363239,-0.005190520,0.001767063,0.004654937,0.999973118,0.000000000,0.000000000,0.000000000,0.000000000,0.000000000,0.000000000,-0.383724183,0.000000000,4.101466179
1772725538.831106901,0.015786000,0.009503000,0.071412000,0.011947000,-0.020079730,-0.006873870,-0.999703370,-0.023632000,0.040323000,0.013275000,0.000731722,-0.000484208,0.000438753,0.007031271,-0.018304109,-0.002843996,0.010027511,-0.008532493,0.999958798,0.000732692,-0.001635869,-0.005105268,0.000000000,0.000000000,0.000000000,0.000000000,0.016195833,0.009660920,0.071316435,0.041670743,0.010426244,-0.005530217,0.013341969,0.001478103,-0.000354433,-0.592711636,-0.205338498,0.532026915,-0.005180612,0.001767860,0.004651988,0.999973143,0.000000000,0.000000000,0.000000000,0.000000000,0.000000000,0.000000000,-0.383724183,0.000000000,4.101466179
1772725538.841107130,0.015783000,0.009498000,0.071428000,0.011895700,-0.019994360,-0.006784100,-0.999706300,-0.023534000,0.040149000,0.013099000,0.001197806,-0.000636189,0.000633509,0.008216900,-0.007243542,-0.007475663,0.010324594,-0.009025669,0.998308986,-0.003148998,0.000057146,0.000189091,0.000000000,0.000000000,0.000000000,0.000000000,0.016181964,0.009687241,0.071307311,0.041608612,0.010405298,-0.005377641,0.013754128,0.001342210,-0.002107224,-0.592300816,-0.204694896,0.529932263,-0.005176969,0.001762355,0.004633674,0.999973297,0.000000000,0.000000000,0.000000000,0.000000000,0.000000000,0.000000000,-0.383724183,0.000000000,4.101466179
1772725538.851107597,0.015801000,0.009499000,0.071436000,0.011864960,-0.019964780,-0.006765130,-0.999707390,-0.023474000,0.040089000,0.013063000,0.001032305,-0.000538171,0.000434208,0.006775388,-0.004083247,-0.007337840,0.009668458,-0.008733418,0.996679188,0.001368392,-0.001577858,0.002150979,0.000000000,0.000000000,0.000000000,0.000000000,0.016180360,0.009666558,0.071326752,0.041666777,0.010204593,-0.005164804,0.013043884,0.001752241,-0.003364577,-0.592793374,-0.203990425,0.529170166,-0.005181227,0.001756222,0.004627000,0.999973303,0.000000000,0.000000000,0.000000000,0.000000000,0.000000000,0.000000000,-0.383724183,0.000000000,4.101466179
1772725538.861107111,0.015803000,0.009500000,0.071433000,0.011830470,-0.019928430,-0.006746980,-0.999708650,-0.023406000,0.040016000,0.013029000,0.000483470,-0.000281760,0.000048543,0.004043846,-0.005743002,-0.004424832,0.008916598,-0.007613705,0.996701429,-0.002222057,-0.000914873,0.002865722,0.000000000,0.000000000,0.000000000,0.000000000,0.016182186,0.009643088,0.071345429,0.041725373,0.010016755,-0.005077770,0.012550731,0.002603400,-0.003462219,-0.592106701,-0.203108442,0.529005706,-0.005175197,0.001748560,0.004625515,0.999973402,0.000000000,0.000000000,0.000000000,0.000000000,0.000000000,0.000000000,-0.383724183,0.000000000,4.101466179
1772725538.871107101,0.015821000,0.009474000,0.071425000,0.011825690,-0.019971710,-0.006695000,-0.999708190,-0.023398000,0.040101000,0.012924000,-0.000130789,0.000050369,-0.000073504,0.003344867,-0.006802687,-0.001648709,0.008972648,-0.007656796,0.995767561,0.003126790,-0.003258143,0.001973005,0.000000000,0.000000000,0.000000000,0.000000000,0.016185879,0.009622922,0.071360704,0.041763677,0.009873003,-0.005084002,0.012840350,0.003687122,-0.003369329,-0.592821257,-0.202979607,0.528495825,-0.005181420,0.001747430,0.004621070,0.999973378,0.000000000,0.000000000,0.000000000,0.000000000,0.000000000,0.000000000,-0.383724183,0.000000000,4.101466179
1772725538.881106853,0.015808000,0.009495000,0.071421000,0.011853850,-0.019914400,-0.006731590,-0.999708750,-0.023454000,0.039987000,0.012998000,-0.000488248,0.000315832,-0.000037762,0.003502371,-0.005555479,-0.001153343,0.008835444,-0.008378594,0.996694639,0.001128885,0.001984611,0.001239822,0.000000000,0.000000000,0.000000000,0.000000000,0.016195670,0.009605300,0.071369815,0.041774718,0.009822224,-0.005164589,0.012922525,0.001333101,-0.004568447,-0.591993518,-0.202396509,0.528907193,-0.005174179,0.001742357,0.004624621,0.999973386,0.000000000,0.000000000,0.000000000,0.000000000,0.000000000,0.000000000,-0.383724183,0.000000000,4.101466179
1772725538.891107082,0.015778000,0.009508000,0.071424000,0.011842130,-0.019887460,-0.006719700,-0.999709510,-0.023431000,0.039933000,0.012975000,-0.000620261,0.000449418,0.000154876,0.001888079,-0.000869314,-0.005172697,0.007896995,-0.008554365,0.998264413,-0.000381110,0.002703046,0.001762711,0.000000000,0.000000000,0.000000000,0.000000000,0.016203077,0.009593782,0.071370155,0.041792285,0.009791938,-0.005336850,0.010695741,0.002486289,-0.000364689,-0.591626150,-0.203095837,0.529155462,-0.005171005,0.001748463,0.004626813,0.999973390,0.000000000,0.000000000,0.000000000,0.000000000,0.000000000,0.000000000,-0.383724183,0.000000000,4.101466179
1772725538.901107550,0.015800000,0.009491000,0.071433000,0.011753270,-0.019670160,-0.006745450,-0.999714680,-0.023255000,0.039498000,0.013035000,-0.000421407,0.000397669,0.000085528,-0.001843005,0.000569985,-0.007295651,0.008534197,-0.008012762,0.999520429,-0.000185041,0.000841812,0.004097054,0.000000000,0.000000000,0.000000000,0.000000000,0.016207047,0.009584415,0.071373277,0.041757267,0.009670153,-0.005340687,0.012878841,0.000854788,-0.000182576,-0.591402679,-0.203747056,0.529265419,-0.005169083,0.001754150,0.004627798,0.999973381,0.000000000,0.000000000,0.000000000,0.000000000,0.000000000,0.000000000,-0.383724183,0.000000000,4.101466179
1772725538.911107540,0.015784000,0.009508000,0.071438000,0.011765170,-0.019905020,-0.006661010,-0.999710460,-0.023279000,0.039966000,0.012860000,0.000283353,-0.001127429,0.000840036,-0.022535465,0.029969866,-0.001872433,0.009072758,-0.005527361,0.999741681,-0.002613504,0.001850255,0.003438916,0.000000000,0.000000000,0.000000000,0.000000000,0.016208379,0.009584969,0.071375968,0.041646211,0.009627545,-0.005203142,0.012591125,0.005347914,-0.000141456,-0.591587740,-0.204203738,0.530092271,-0.005170729,0.001758090,0.004635038,0.999973379,0.000000000,0.000000000,0.000000000,0.000000000,0.000000000,0.000000000,-0.383724183,0.000000000,4.101466179
1772725538.921108484,0.015792000,0.009509000,0.071430000,0.011833000,-0.019970320,-0.006545030,-0.999709120,-0.023419000,0.040095000,0.012624000,0.000550661,-0.000180148,-0.000626186,0.000177493,-0.003949788,-0.001094102,0.008249553,-0.003390630,0.998906049,-0.003341679,0.000690270,0.000574443,0.000000000,0.000000000,0.000000000,0.000000000,0.016211003,0.009590559,0.071374789,0.041660932,0.009644251,-0.004987546,0.011736238,0.005572410,-0.001747888,-0.592826576,-0.204640185,0.530855301,-0.005181569,0.001761814,0.004641735,0.999973280,0.000000000,0.000000000,0.000000000,0.000000000,0.000000000,0.000000000,-0.383724183,0.000000000,4.101466179
1772725538.931107998,0.015801000,0.009494000,0.071423000,0.011897030,-0.019909710,-0.006576010,-0.999709370,-0.023546000,0.039975000,0.012685000,0.000073621,0.001739221,-0.001960627,0.039290616,-0.067066953,-0.010368544,0.008296078,-0.006617492,0.998466724,0.002174991,-0.003213639,0.001320637,0.000000000,0.000000000,0.000000000,0.000000000,0.016204392,0.009591614,0.071372122,0.041594631,0.009946720,-0.004868836,0.011721149,0.003874519,-0.001447770,-0.594224058,-0.203964360,0.530716372,-0.005193734,0.001755867,0.004640513,0.999973183,0.000000000,0.000000000,0.000000000,0.000000000,0.000000000,0.000000000,-0.383724183,0.000000000,4.101466179
1772725538.941108227,0.015800000,0.009485000,0.071417000,0.011884530,-0.019740610,-0.006643350,-0.999712420,-0.023521000,0.039638000,0.012824000,-0.000565890,0.002596351,-0.002268592,0.073367487,-0.112927810,-0.016040897,0.008508879,-0.007678794,0.999762755,0.002224910,0.000260566,0.001547975,0.000000000,0.000000000,0.000000000,0.000000000,0.016200460,0.009593482,0.071370936,0.041499010,0.010196854,-0.004816400,0.012158473,0.003380998,-0.000805606,-0.593399371,-0.201961621,0.529948387,-0.005186445,0.001738458,0.004633708,0.999973238,0.000000000,0.000000000,0.000000000,0.000000000,0.000000000,0.000000000,-0.383724183,0.000000000,4.101466179
1772725538.951107979,0.015814000,0.009475000,0.071431000,0.011762830,-0.019741390,-0.006705110,-0.999713440,-0.023275000,0.039640000,0.012952000,-0.000727798,0.002133316,-0.001516260,0.076511746,-0.117973642,-0.016444963,0.009689855,-0.007228520,0.997894794,-0.001750220,-0.002825231,-0.000113630,0.000000000,0.000000000,0.000000000,0.000000000,0.016208345,0.009600075,0.071372234,0.041381865,0.010278534,-0.004673013,0.013289819,0.003376012,-0.001594074,-0.591941620,-0.200760228,0.528862717,-0.005173660,0.001728082,0.004624159,0.999973418,0.000000000,0.000000000,0.000000000,0.000000000,0.000000000,0.000000000,-0.383724183,0.000000000,4.101466179
1772725538.961108446,0.015764000,0.009671000,0.071283000,0.010040620,-0.017171990,-0.006314080,-0.999782200,-0.019873000,0.034470000,0.012288000,-0.000806333,0.001150331,-0.000239569,0.052246725,-0.071784170,-0.011730068,0.009646504,-0.006904760,0.998233462,-0.008178325,0.002345071,-0.006011626,0.000000000,0.000000000,0.000000000,0.000000000,0.016219047,0.009605782,0.071372477,0.041305236,0.010297439,-0.004567084,0.013258697,0.003425256,-0.002513967,-0.591634575,-0.198584833,0.527998073,-0.005170881,0.001709150,0.004616511,0.999973512,0.000000000,0.000000000,0.000000000,0.000000000,0.000000000,0.000000000,-0.383724183,0.000000000,4.101466179
1772725538.971108913,0.015764000,0.009595000,0.071368000,0.010273860,-0.017487690,-0.006095060,-0.999775710,-0.020344000,0.035100000,0.011836000,-0.000327467,-0.000400641,0.000856314,0.011142147,-0.002391845,-0.003921871,0.008264435,-0.006582920,0.996540829,-0.000756203,-0.001318830,0.000325818,0.000000000,0.000000000,0.000000000,0.000000000,0.016220004,0.009606449,0.071372976,0.041249405,0.010324214,-0.004541245,0.011573740,0.003755272,-0.002977827,-0.592909585,-0.198609366,0.524918034,-0.005181962,0.001709452,0.004589653,0.999973581,0.000000000,0.000000000,0.000000000,0.000000000,0.000000000,0.000000000,-0.383724183,0.000000000,4.101466179
1772725538.981109858,0.015776000,0.009522000,0.071412000,0.010717190,-0.018372860,-0.006413530,-0.999753190,-0.021209000,0.036882000,0.012439000,0.000327953,-0.002188541,0.001685666,-0.034269839,0.067239136,0.010940666,0.008481285,-0.007356226,0.995465111,-0.003589678,-0.000012785,-0.002082587,0.000000000,0.000000000,0.000000000,0.000000000,0.016210258,0.009600710,0.071377623,0.041141880,0.010378473,-0.004556935,0.012042106,0.003124535,-0.003609705,-0.592860480,-0.198184408,0.523451087,-0.005181494,0.001705812,0.004576832,0.999973641,0.000000000,0.000000000,0.000000000,0.000000000,0.000000000,0.000000000,-0.383724183,0.000000000,4.101466179
1772725538.991109848,0.015782000,0.009500000,0.071430000,0.011375060,-0.019132710,-0.006516090,-0.999731010,-0.022513000,0.038413000,0.012603000,0.000815385,-0.003235259,0.002070748,-0.068673411,0.113464370,0.025030421,0.008554301,-0.006787511,0.995689859,0.001262892,0.000428260,-0.002534748,0.000000000,0.000000000,0.000000000,0.000000000,0.016199321,0.009637128,0.071350642,0.040987211,0.010560317,-0.004831350,0.012097931,0.003491204,-0.004844467,-0.593972559,-0.197436740,0.521660003,-0.005191143,0.001699324,0.004561185,0.999973703,0.000000000,0.000000000,0.000000000,0.000000000,0.000000000,0.000000000,-0.383724183,0.000000000,4.101466179
1772725539.001110315,0.015797000,0.009493000,0.071429000,0.011454420,-0.019577260,-0.006660160,-0.999720550,-0.022661000,0.039306000,0.012878000,0.001239434,-0.002639843,0.001605421,-0.071513280,0.120611583,0.028162386,0.008192538,-0.005005424,0.995707961,-0.000843708,-0.000182366,-0.002124097,0.000000000,0.000000000,0.000000000,0.000000000,0.016189652,0.009681037,0.071316728,0.040858102,0.010740776,-0.005183738,0.011704179,0.004807139,-0.004000933,-0.593622101,-0.197356977,0.520871386,-0.005188069,0.001698678,0.004554295,0.999973765,0.000000000,0.000000000,0.000000000,0.000000000,0.000000000,0.000000000,-0.383724183,0.000000000,4.101466179
1772725539.011110306,0.015804000,0.009486000,0.071420000,0.011545400,-0.019764270,-0.006701580,-0.999715540,-0.022839000,0.039682000,0.012954000,0.000535509,0.000076904,-0.000441298,-0.030324563,0.053191120,0.017760272,0.008990305,-0.007095335,0.996367122,-0.000957129,0.002226281,0.002344949,0.000000000,0.000000000,0.000000000,0.000000000,0.016193716,0.009653350,0.071336283,0.040795787,0.010769283,-0.005271538,0.012087725,0.003591519,-0.003798149,-0.594115972,-0.197239525,0.518886300,-0.005192345,0.001697723,0.004536974,0.999973829,0.000000000,0.000000000,0.000000000,0.000000000,0.000000000,0.000000000,-0.383724183,0.000000000,4.101466179
1772725539.021111250,0.015804000,0.009479000,0.071427000,0.011694160,-0.019905140,-0.006830100,-0.999710150,-0.023130000,0.039969000,0.013202000,0.000128555,0.000479119,-0.000483237,-0.017397247,0.021399471,0.008286491,0.008973330,-0.008798163,0.999947757,0.003278719,-0.000508117,0.001757011,0.000000000,0.000000000,0.000000000,0.000000000,0.016194927,0.009627280,0.071355775,0.040751074,0.010797470,-0.005326826,0.012540911,0.001929213,-0.000573031,-0.594162629,-0.197693274,0.518150089,-0.005192759,0.001701714,0.004530570,0.999973781,0.000000000,0.000000000,0.000000000,0.000000000,0.000000000,0.000000000,-0.383724183,0.000000000,4.101466179
1772725539.031111479,0.015804000,0.009491000,0.071430000,0.011822500,-0.020008550,-0.006817770,-0.999706660,-0.023386000,0.040177000,0.013169000,-0.000265443,0.000401554,-0.000282343,-0.012004987,0.006662744,0.008303106,0.009467235,-0.007308215,0.999218019,-0.002084108,0.000238741,-0.001329528,0.000000000,0.000000000,0.000000000,0.000000000,0.016198406,0.009633966,0.071341008,0.040751280,0.010773288,-0.005345177,0.013097389,0.002014117,-0.000291559,-0.592083992,-0.197577625,0.518197563,-0.005174616,0.001700785,0.004530948,0.999973874,0.000000000,0.000000000,0.000000000,0.000000000,0.000000000,0.000000000,-0.383724183,0.000000000,4.101466179
1772725539.041110754,0.015809000,0.009504000,0.071420000,0.011821610,-0.020135820,-0.006780030,-0.999704370,-0.023384000,0.040431000,0.013091000,-0.000493687,0.000431294,-0.000152992,-0.012074864,-0.001965744,0.005095543,0.010804266,-0.009365791,0.997897632,0.000618928,-0.003960582,-0.001732998,0.000000000,0.000000000,0.000000000,0.000000000,0.016204677,0.009654747,0.071313864,0.040775408,0.010742722,-0.005281699,0.014034668,0.001655554,-0.002379661,-0.591949285,-0.198054058,0.518111190,-0.005173458,0.001704952,0.004530214,0.999973893,0.000000000,0.000000000,0.000000000,0.000000000,0.000000000,0.000000000,-0.383724183,0.000000000,4.101466179
1772725539.051110744,0.015785000,0.009494000,0.071415000,0.011904720,-0.019975940,-0.006907500,-0.999705720,-0.023548000,0.040115000,0.013346000,-0.000407071,0.000408334,-0.000174825,-0.003441848,-0.009340264,-0.000094828,0.010579180,-0.008440778,0.997596749,0.003045068,-0.001519722,-0.002541448,0.000000000,0.000000000,0.000000000,0.000000000,0.016198226,0.009637606,0.071337584,0.040829042,0.010607505,-0.005072643,0.014195661,0.002154181,-0.001942684,-0.591591074,-0.197152559,0.517930895,-0.005170294,0.001697107,0.004528595,0.999973926,0.000000000,0.000000000,0.000000000,0.000000000,0.000000000,0.000000000,-0.383724183,0.000000000,4.101466179
1772725539.061110735,0.015795000,0.009498000,0.071417000,0.011982530,-0.019966110,-0.006911550,-0.999704960,-0.023703000,0.040097000,0.013352000,-0.000007653,-0.000986170,0.000737102,-0.016925401,0.014020929,0.002371513,0.010146208,-0.006542188,0.996245251,0.000099980,-0.000329431,-0.000607926,0.000000000,0.000000000,0.000000000,0.000000000,0.016198403,0.009620471,0.071357533,0.041007156,0.010405128,-0.004992461,0.013837166,0.004817926,-0.003848438,-0.590711336,-0.197309205,0.517115443,-0.005162611,0.001698546,0.004521473,0.999973984,0.000000000,0.000000000,0.000000000,0.000000000,0.000000000,0.000000000,-0.383724183,0.000000000,4.101466179
1772725539.071110725,0.015786000,0.009502000,0.071424000,0.011851600,-0.019888320,-0.006873840,-0.999708330,-0.023444000,0.039939000,0.013283000,-0.000071678,0.000620513,-0.000423000,0.008196627,-0.020403256,-0.005377967,0.008907377,-0.005947722,0.996039155,-0.002174532,0.001056881,-0.001276664,0.000000000,0.000000000,0.000000000,0.000000000,0.016198879,0.009607336,0.071368788,0.041140804,0.010406058,-0.005003384,0.011807869,0.004061360,-0.003904001,-0.590626841,-0.197551982,0.516807074,-0.005161879,0.001700682,0.004518792,0.999974012,0.000000000,0.000000000,0.000000000,0.000000000,0.000000000,0.000000000,-0.383724183,0.000000000,4.101466179
1772725539.081110477,0.015795000,0.009502000,0.071418000,0.011829570,-0.019812550,-0.006779740,-0.999710740,-0.023404000,0.039785000,0.013098000,-0.000071270,0.001976459,-0.001327934,0.040673718,-0.057612509,-0.019658444,0.008845241,-0.006434411,0.996764432,-0.001538657,0.002110998,0.001036947,0.000000000,0.000000000,0.000000000,0.000000000,0.016196379,0.009605323,0.071371779,0.041192126,0.010542100,-0.005166467,0.011811398,0.004137995,-0.002731280,-0.590770920,-0.199008166,0.515710306,-0.005163177,0.001713433,0.004509289,0.999974036,0.000000000,0.000000000,0.000000000,0.000000000,0.000000000,0.000000000,-0.383724183,0.000000000,4.101466179
1772725539.091110468,0.015799000,0.009498000,0.071421000,0.011824560,-0.019823800,-0.006703930,-0.999711090,-0.023397000,0.039805000,0.012946000,0.000132906,0.002211327,-0.001561171,0.061696417,-0.074968041,-0.029950770,0.009054379,-0.006359089,0.995948380,-0.000957934,-0.000094568,0.002592242,0.000000000,0.000000000,0.000000000,0.000000000,0.016199443,0.009604427,0.071377835,0.041141535,0.010690920,-0.005239428,0.013566110,0.004517158,-0.004273305,-0.590338606,-0.200032906,0.515624796,-0.005159443,0.001722396,0.004508582,0.999974072,0.000000000,0.000000000,0.000000000,0.000000000,0.000000000,0.000000000,-0.383724183,0.000000000,4.101466179
1772725539.101109505,0.015802000,0.009488000,0.071431000,0.011885840,-0.019905670,-0.006789630,-0.999708150,-0.023515000,0.039972000,0.013113000,-0.000205070,0.000767775,-0.000331974,0.039885011,-0.044863573,-0.031326988,0.008685429,-0.007168509,0.994773769,-0.002099128,-0.001027483,0.000459338,0.000000000,0.000000000,0.000000000,0.000000000,0.016195894,0.009604730,0.071379812,0.041215322,0.010810643,-0.005343892,0.011529268,0.002779893,-0.006080236,-0.590522804,-0.200397832,0.515916271,-0.005161069,0.001725560,0.004511145,0.999974051,0.000000000,0.000000000,0.000000000,0.000000000,0.000000000,0.000000000,-0.383724183,0.000000000,4.101466179
1772725539.111110210,0.015772000,0.009681000,0.071287000,0.010241760,-0.017613570,-0.006208320,-0.999773140,-0.020274000,0.035354000,0.012061000,0.000217172,0.000625506,-0.000740424,0.045412057,-0.050973560,-0.018318742,0.008639512,-0.008016711,0.996209253,-0.000165391,-0.001062555,0.000217319,0.000000000,0.000000000,0.000000000,0.000000000,0.016200908,0.009604604,0.071376826,0.041212248,0.010917427,-0.005652343,0.012135682,0.001954708,-0.003576026,-0.591323577,-0.200604671,0.515415195,-0.005168058,0.001727356,0.004506793,0.999974012,0.000000000,0.000000000,0.000000000,0.000000000,0.000000000,0.000000000,-0.383724183,0.000000000,4.101466179
1772725539.121109486,0.015796000,0.009541000,0.071390000,0.010679560,-0.018494090,-0.006233040,-0.999752500,-0.021139000,0.037121000,0.012077000,0.000257945,0.000124320,-0.000537782,0.050968599,-0.060509378,0.004938296,0.009141129,-0.006891110,0.998365311,0.002151216,-0.001317718,-0.000227418,0.000000000,0.000000000,0.000000000,0.000000000,0.016196422,0.009604426,0.071374905,0.041196137,0.010837583,-0.005818357,0.013256911,0.003294088,-0.002042268,-0.591408658,-0.200401089,0.515102837,-0.005168788,0.001725590,0.004504060,0.999974012,0.000000000,0.000000000,0.000000000,0.000000000,0.000000000,0.000000000,-0.383724183,0.000000000,4.101466179
1772725539.131109476,0.015805000,0.009499000,0.071422000,0.011054490,-0.018983550,-0.006366700,-0.999738410,-0.021879000,0.038107000,0.012320000,0.000372669,-0.000696388,0.000098815,0.037119636,-0.049032709,0.023946040,0.010028704,-0.006549980,0.998830224,-0.002254370,0.002033041,-0.001168746,0.000000000,0.000000000,0.000000000,0.000000000,0.016187038,0.009610276,0.071374779,0.041200913,0.010872358,-0.005811359,0.012991418,0.003778986,-0.000933526,-0.590920936,-0.200274300,0.515001424,-0.005164525,0.001724508,0.004503161,0.999974018,0.000000000,0.000000000,0.000000000,0.000000000,0.000000000,0.000000000,-0.383724183,0.000000000,4.101466179
1772725539.141109705,0.015791000,0.009492000,0.071430000,0.011318450,-0.019256260,-0.006538700,-0.999729130,-0.022398000,0.038660000,0.012648000,0.000404410,-0.001496485,0.000883781,0.005927786,-0.018206933,0.036488533,0.008779449,-0.007807895,0.998998428,-0.002198642,0.000285762,0.003205283,0.000000000,0.000000000,0.000000000,0.000000000,0.016185109,0.009612171,0.071373429,0.041274838,0.010954249,-0.005721228,0.012433610,0.002957911,-0.000891035,-0.591146384,-0.200793584,0.514740030,-0.005166509,0.001729042,0.004500907,0.999974072,0.000000000,0.000000000,0.000000000,0.000000000,0.000000000,0.000000000,-0.383724183,0.000000000,4.101466179
1772725539.151109934,0.015825000,0.009597000,0.071302000,0.009744300,-0.017141390,-0.006946600,-0.999781460,-0.019259000,0.034417000,0.013565000,0.000124029,-0.001423739,0.001058742,-0.026371826,0.012930748,0.035814866,0.008677130,-0.008190797,0.998260478,-0.001885674,0.001587352,0.001387121,0.000000000,0.000000000,0.000000000,0.000000000,0.016189726,0.009610204,0.071372507,0.041358935,0.010993719,-0.005616952,0.012348842,0.002081210,-0.001808661,-0.591951565,-0.200794855,0.515532392,-0.005173547,0.001728986,0.004507834,0.999973985,0.000000000,0.000000000,0.000000000,0.000000000,0.000000000,0.000000000,-0.383724183,0.000000000,4.101466179
1772725539.161109447,0.015793000,0.009520000,0.071407000,0.010424470,-0.017850310,-0.007035980,-0.999761570,-0.020607000,0.035846000,0.013706000,-0.000272320,0.000289317,0.000110062,-0.027280795,0.014370189,0.016675042,0.008923722,-0.009090031,0.997555613,-0.003384729,0.001533945,0.001997181,0.000000000,0.000000000,0.000000000,0.000000000,0.016198960,0.009605905,0.071373853,0.041407129,0.010937252,-0.005518387,0.012177387,0.001602088,-0.003446840,-0.591957308,-0.202152133,0.515180630,-0.005173645,0.001740845,0.004504825,0.999973953,0.000000000,0.000000000,0.000000000,0.000000000,0.000000000,0.000000000,-0.383724183,0.000000000,4.101466179
1772725539.171109200,0.015800000,0.009501000,0.071426000,0.011048370,-0.018629980,-0.006892650,-0.999741640,-0.021851000,0.037411000,0.013380000,-0.000305420,-0.000760024,0.001191668,-0.055880685,0.063141624,-0.000283449,0.008575201,-0.007609514,0.997426045,-0.002316265,0.001102047,0.000906579,0.000000000,0.000000000,0.000000000,0.000000000,0.016200372,0.009604520,0.071374997,0.041414951,0.010827640,-0.005516877,0.011979210,0.002155115,-0.002041255,-0.592956877,-0.203702398,0.515457900,-0.005182432,0.001754322,0.004507330,0.999973882,0.000000000,0.000000000,0.000000000,0.000000000,0.000000000,0.000000000,-0.383724183,0.000000000,4.101466179
1772725539.181109190,0.015800000,0.009492000,0.071428000,0.011523550,-0.019121050,-0.006900920,-0.999726950,-0.022796000,0.038400000,0.013368000,-0.000145882,-0.001157732,0.001538016,-0.072373786,0.095874894,-0.014217714,0.009464891,-0.007914913,0.995826978,0.000994330,0.002298349,-0.000185105,0.000000000,0.000000000,0.000000000,0.000000000,0.016199859,0.009603188,0.071376940,0.041419293,0.010707310,-0.005523157,0.012355753,0.002680248,-0.004382994,-0.592956531,-0.204500583,0.515007795,-0.005182454,0.001761308,0.004503438,0.999973866,0.000000000,0.000000000,0.000000000,0.000000000,0.000000000,0.000000000,-0.383724183,0.000000000,4.101466179
1772725539.191108704,0.015792000,0.009501000,0.071423000,0.011758470,-0.019483310,-0.006807230,-0.999717860,-0.023265000,0.039126000,0.013163000,-0.000069095,-0.000884713,0.000997515,-0.065735489,0.090721723,-0.016256431,0.009814942,-0.007820246,0.997714548,0.000412611,0.000756043,-0.002142290,0.000000000,0.000000000,0.000000000,0.000000000,0.016200836,0.009602473,0.071377664,0.041427210,0.010725081,-0.005596012,0.013505985,0.001886816,-0.002804056,-0.592049712,-0.206066535,0.514282233,-0.005174590,0.001775041,0.004497164,0.999973923,0.000000000,0.000000000,0.000000000,0.000000000,0.000000000,0.000000000,-0.383724183,0.000000000,4.101466179
1772725539.201108694,0.015801000,0.009500000,0.071434000,0.011759370,-0.019746430,-0.006833240,-0.999712510,-0.023262000,0.039653000,0.013209000,0.000016667,0.000529565,-0.000531352,-0.019013826,0.042058917,-0.009151622,0.009632020,-0.007631023,0.999130282,-0.000796205,0.001732714,-0.002721243,0.000000000,0.000000000,0.000000000,0.000000000,0.016193127,0.009608520,0.071376666,0.041516633,0.010691350,-0.005724607,0.012835361,0.003131506,0.000041979,-0.591557279,-0.206434669,0.514438898,-0.005170310,0.001778266,0.004498540,0.999973953,0.000000000,0.000000000,0.000000000,0.000000000,0.000000000,0.000000000,-0.383724183,0.000000000,4.101466179
1772725539.211108446,0.015791000,0.009500000,0.071432000,0.011855680,-0.019738060,-0.006672520,-0.999712620,-0.023462000,0.039633000,0.012884000,-0.000472728,0.000361014,-0.000115540,-0.007613691,0.033581242,-0.004027819,0.008508027,-0.008169279,0.998961991,-0.000531308,0.003361890,-0.001658023,0.000000000,0.000000000,0.000000000,0.000000000,0.016189238,0.009612386,0.071373195,0.041590704,0.010717903,-0.005590962,0.011953889,0.002041670,-0.001178109,-0.591170407,-0.207285588,0.514132748,-0.005166963,0.001785721,0.004495900,0.999973953,0.000000000,0.000000000,0.000000000,0.000000000,0.000000000,0.000000000,-0.383724183,0.000000000,4.101466179
1772725539.221107960,0.015804000,0.009498000,0.071426000,0.011877010,-0.019900300,-0.006682960,-0.999709080,-0.023502000,0.039958000,0.012900000,-0.000316803,0.000185315,-0.000053671,-0.004992924,0.031451263,-0.003039903,0.008192319,-0.008450975,0.997972074,-0.000578593,0.000704759,-0.000074519,0.000000000,0.000000000,0.000000000,0.000000000,0.016196382,0.009607977,0.071373128,0.041668731,0.010678943,-0.005447854,0.012097429,0.001882482,-0.001513825,-0.590976847,-0.208330460,0.513704394,-0.005165308,0.001794865,0.004492206,0.999973953,0.000000000,0.000000000,0.000000000,0.000000000,0.000000000,0.000000000,-0.383724183,0.000000000,4.101466179
1772725539.231108427,0.015788000,0.009498000,0.071427000,0.011996720,-0.020073530,-0.006793380,-0.999703450,-0.023735000,0.040309000,0.013112000,-0.000095901,0.000006760,-0.000095843,-0.004617428,0.025718474,0.001230827,0.009441652,-0.008069800,0.997032205,-0.001672941,-0.000458057,-0.000204875,0.000000000,0.000000000,0.000000000,0.000000000,0.016201547,0.009606920,0.071371763,0.041627176,0.010594815,-0.005365718,0.012756811,0.002243332,-0.003460011,-0.591207882,-0.208757373,0.513792704,-0.005167342,0.001798578,0.004493000,0.999973938,0.000000000,0.000000000,0.000000000,0.000000000,0.000000000,0.000000000,-0.383724183,0.000000000,4.101466179
1772725539.241107941,0.015772000,0.009514000,0.071431000,0.011969140,-0.020512880,-0.006702640,-0.999695470,-0.023678000,0.041185000,0.012921000,0.000008061,-0.000021698,-0.000093143,-0.001400787,0.011310763,0.001443372,0.009499940,-0.008175182,0.996981354,-0.001869396,0.002969929,-0.002057623,0.000000000,0.000000000,0.000000000,0.000000000,0.016205392,0.009606345,0.071371629,0.041677300,0.010550294,-0.005404840,0.012983904,0.001123359,-0.002225441,-0.591644482,-0.208834827,0.514041654,-0.005171159,0.001799225,0.004495183,0.999973897,0.000000000,0.000000000,0.000000000,0.000000000,0.000000000,0.000000000,-0.383724183,0.000000000,4.101466179
1772725539.251107216,0.015786000,0.009504000,0.071424000,0.011957300,-0.020281290,-0.006740740,-0.999700080,-0.023656000,0.040723000,0.013004000,0.000379041,-0.000227564,0.000077758,0.007995821,-0.007689887,0.004882787,0.009965055,-0.009747647,0.999219857,-0.000385148,0.004024752,0.000734651,0.000000000,0.000000000,0.000000000,0.000000000,0.016207555,0.009605377,0.071373834,0.041746708,0.010485287,-0.005427083,0.013086305,0.000429892,-0.000662670,-0.591945872,-0.209168012,0.513504871,-0.005173794,0.001802145,0.004490518,0.999973940,0.000000000,0.000000000,0.000000000,0.000000000,0.000000000,0.000000000,-0.383724183,0.000000000,4.101466179
1772725539.261106730,0.015807000,0.009493000,0.071429000,0.011941850,-0.020206250,-0.006730760,-0.999701850,-0.023626000,0.040572000,0.012986000,0.000362627,-0.000254798,0.000165443,0.010305925,-0.026858331,0.002498457,0.010060321,-0.008875258,0.997943355,0.000205302,0.003543001,0.002836412,0.000000000,0.000000000,0.000000000,0.000000000,0.016209563,0.009603630,0.071376995,0.041822502,0.010369462,-0.005373096,0.013481293,0.001617181,-0.001867636,-0.591745410,-0.209793398,0.512577959,-0.005172054,0.001807652,0.004482454,0.999973953,0.000000000,0.000000000,0.000000000,0.000000000,0.000000000,0.000000000,-0.383724183,0.000000000,4.101466179
1772725539.271106005,0.015799000,0.009497000,0.071428000,0.011850290,-0.020032890,-0.006792540,-0.999706010,-0.023443000,0.040226000,0.013117000,0.000148388,-0.000046426,0.000072572,0.007947459,-0.028088128,0.002647764,0.009983229,-0.008064969,0.997091753,0.001170215,0.002068120,0.002568174,0.000000000,0.000000000,0.000000000,0.000000000,0.016213010,0.009601092,0.071377481,0.041947499,0.010210104,-0.005269471,0.014011046,0.001979622,-0.003482131,-0.591094832,-0.210543183,0.513340772,-0.005166418,0.001814186,0.004489134,0.999973953,0.000000000,0.000000000,0.000000000,0.000000000,0.000000000,0.000000000,-0.383724183,0.000000000,4.101466179
1772725539.281105995,0.015794000,0.009497000,0.071432000,0.011789490,-0.019785720,-0.006751540,-0.999711930,-0.023326000,0.039730000,0.013043000,-0.000253808,0.000107071,0.000038617,0.001610409,-0.020218669,0.002317210,0.009429313,-0.008250499,0.997338494,0.001551796,0.002289431,0.002449673,0.000000000,0.000000000,0.000000000,0.000000000,0.016209519,0.009599996,0.071374267,0.042053473,0.010144617,-0.005329615,0.012698094,0.002090379,-0.002325898,-0.590452298,-0.211420240,0.514246760,-0.005160860,0.001821824,0.004497069,0.999973936,0.000000000,0.000000000,0.000000000,0.000000000,0.000000000,0.000000000,-0.383724183,0.000000000,4.101466179
1772725539.291105270,0.015801000,0.009494000,0.071432000,0.011724130,-0.019791760,-0.006853550,-0.999711890,-0.023191000,0.039743000,0.013250000,-0.000458392,0.000325738,-0.000061946,0.000139908,-0.000677096,-0.001471541,0.008938587,-0.008806251,0.997830355,-0.000205714,0.003460869,0.002713594,0.000000000,0.000000000,0.000000000,0.000000000,0.016210428,0.009595899,0.071374633,0.042147401,0.010127128,-0.005379470,0.013021294,0.001811185,-0.002023232,-0.589995553,-0.212744841,0.515023933,-0.005156938,0.001833366,0.004503903,0.999973881,0.000000000,0.000000000,0.000000000,0.000000000,0.000000000,0.000000000,-0.383724183,0.000000000,4.101466179
1772725539.301104307,0.015781000,0.009509000,0.071431000,0.011901590,-0.019875150,-0.006745810,-0.999708870,-0.023549000,0.039910000,0.013025000,-0.000156566,0.000239647,-0.000263714,0.000577845,0.008262440,-0.005216660,0.009284909,-0.007998023,0.996498843,-0.001942095,0.001435030,0.000068783,0.000000000,0.000000000,0.000000000,0.000000000,0.016201553,0.009599611,0.071375203,0.042153907,0.010044693,-0.005346250,0.013220483,0.002047369,-0.003455708,-0.589747480,-0.214263738,0.515489204,-0.005154840,0.001846610,0.004508028,0.999973834,0.000000000,0.000000000,0.000000000,0.000000000,0.000000000,0.000000000,-0.383724183,0.000000000,4.101466179
1772725539.311104298,0.015779000,0.009512000,0.071423000,0.011893410,-0.020044700,-0.006749960,-0.999705550,-0.023530000,0.040249000,0.013030000,0.000236325,0.000060412,-0.000196173,0.003938836,0.007326255,-0.007617936,0.008615462,-0.007599994,0.995411903,-0.000086148,0.000054541,-0.002988788,0.000000000,0.000000000,0.000000000,0.000000000,0.016199740,0.009600301,0.071374807,0.042213915,0.010005582,-0.005386337,0.012450890,0.002458645,-0.003993315,-0.589305889,-0.214784002,0.514854387,-0.005150997,0.001851196,0.004502504,0.999973847,0.000000000,0.000000000,0.000000000,0.000000000,0.000000000,0.000000000,-0.383724183,0.000000000,4.101466179
1772725539.321104288,0.015798000,0.009498000,0.071426000,0.011817310,-0.019907360,-0.006684600,-0.999709640,-0.023382000,0.039972000,0.012905000,0.000502021,-0.000075544,-0.000040190,0.007087413,0.000119807,-0.010394357,0.007808730,-0.007491969,0.996675965,-0.003190228,0.000317928,0.000804940,0.000000000,0.000000000,0.000000000,0.000000000,0.016198684,0.009599919,0.071374841,0.042247894,0.009992159,-0.005519025,0.012033915,0.002814244,-0.003334395,-0.588719582,-0.214098183,0.513152947,-0.005145827,0.001845310,0.004487617,0.999973996,0.000000000,0.000000000,0.000000000,0.000000000,0.000000000,0.000000000,-0.383724183,0.000000000,4.101466179
1772725539.331104279,0.015803000,0.009502000,0.071421000,0.011696420,-0.019998480,-0.006661000,-0.999709400,-0.023140000,0.040152000,0.012861000,0.000505090,-0.000154740,0.000042191,0.007486326,-0.012187926,-0.010014052,0.008679276,-0.007532444,0.998914079,0.001755942,-0.001962528,0.003368197,0.000000000,0.000000000,0.000000000,0.000000000,0.016201791,0.009597317,0.071374503,0.042241528,0.010002225,-0.005662015,0.012582568,0.002619397,-0.001820935,-0.589525706,-0.213213909,0.512344366,-0.005152813,0.001837599,0.004480534,0.999973960,0.000000000,0.000000000,0.000000000,0.000000000,0.000000000,0.000000000,-0.383724183,0.000000000,4.101466179
1772725539.341103554,0.015805000,0.009502000,0.071424000,0.011685430,-0.019873210,-0.006591370,-0.999712490,-0.023123000,0.039900000,0.012725000,0.000541182,-0.000334169,0.000093706,0.003613756,-0.015791479,-0.002598741,0.009070129,-0.007832213,0.999426153,0.003350800,0.003320225,0.002848925,0.000000000,0.000000000,0.000000000,0.000000000,0.016209473,0.009592760,0.071373943,0.042258647,0.010004477,-0.005647515,0.012896165,0.002550874,-0.001263829,-0.588728660,-0.212128138,0.513136997,-0.005145829,0.001828119,0.004487389,0.999974004,0.000000000,0.000000000,0.000000000,0.000000000,0.000000000,0.000000000,-0.383724183,0.000000000,4.101466179
1772725539.351103306,0.015803000,0.009500000,0.071433000,0.011682700,-0.019643690,-0.006613310,-0.999716910,-0.023119000,0.039441000,0.012774000,-0.000055148,-0.000118163,0.000102642,-0.003565005,-0.015341345,0.005038370,0.008698584,-0.006156115,0.997143279,0.003164270,-0.002607646,-0.001273714,0.000000000,0.000000000,0.000000000,0.000000000,0.016212283,0.009590382,0.071375208,0.042301389,0.010007428,-0.005519428,0.012501679,0.003779271,-0.002347544,-0.587475896,-0.212817521,0.513661831,-0.005134932,0.001834161,0.004491981,0.999974061,0.000000000,0.000000000,0.000000000,0.000000000,0.000000000,0.000000000,-0.383724183,0.000000000,4.101466179
1772725539.361102343,0.015810000,0.009497000,0.071430000,0.011783970,-0.019735450,-0.006555520,-0.999714300,-0.023323000,0.039624000,0.012652000,-0.000423932,0.000025389,-0.000018357,-0.006164399,-0.005713148,0.010597062,0.008474272,-0.007435014,0.997824787,0.000952397,-0.002593772,-0.005341882,0.000000000,0.000000000,0.000000000,0.000000000,0.016208802,0.009592448,0.071379277,0.042304520,0.010090694,-0.005450329,0.012032024,0.003245138,-0.002214340,-0.586679096,-0.211064102,0.511970643,-0.005127883,0.001818966,0.004477131,0.999974168,0.000000000,0.000000000,0.000000000,0.000000000,0.000000000,0.000000000,-0.383724183,0.000000000,4.101466179
1772725539.371101618,0.015796000,0.009499000,0.071421000,0.011804720,-0.019668390,-0.006731500,-0.999714200,-0.023358000,0.039495000,0.013005000,-0.000609344,0.000063151,-0.000025680,-0.002290079,0.002288241,0.010659347,0.010072378,-0.007235907,0.998610041,0.006318351,-0.001227855,-0.000317226,0.000000000,0.000000000,0.000000000,0.000000000,0.016205350,0.009595517,0.071383594,0.042277452,0.010202043,-0.005438375,0.013261394,0.003388782,-0.000993689,-0.586610631,-0.210333782,0.510450848,-0.005127233,0.001812664,0.004463836,0.999974236,0.000000000,0.000000000,0.000000000,0.000000000,0.000000000,0.000000000,-0.383724183,0.000000000,4.101466179
1772725539.381101131,0.015801000,0.009491000,0.071427000,0.011808400,-0.019762220,-0.006832950,-0.999711620,-0.023360000,0.039685000,0.013206000,-0.000555362,0.000129662,-0.000085179,0.002852673,0.011938604,0.009465121,0.010628871,-0.006378950,0.998229918,-0.001197441,0.001627706,0.000904075,0.000000000,0.000000000,0.000000000,0.000000000,0.016203778,0.009598973,0.071382872,0.042340508,0.010274929,-0.005357869,0.014241420,0.003875500,-0.002548584,-0.585030915,-0.210116908,0.510472212,-0.005113439,0.001810832,0.004463987,0.999974298,0.000000000,0.000000000,0.000000000,0.000000000,0.000000000,0.000000000,-0.383724183,0.000000000,4.101466179
1772725539.391100883,0.015778000,0.009507000,0.071427000,0.011720560,-0.019730550,-0.006855970,-0.999713120,-0.023184000,0.039621000,0.013256000,-0.000177506,0.000015035,-0.000033800,0.006446861,0.014478032,0.003903747,0.009454070,-0.007916130,0.995793622,-0.002435343,-0.000643362,0.001433636,0.000000000,0.000000000,0.000000000,0.000000000,0.016201278,0.009606541,0.071377411,0.042512260,0.010396712,-0.005335393,0.013378920,0.002628027,-0.004032465,-0.584908170,-0.210272591,0.510101908,-0.005112369,0.001812212,0.004460761,0.999974359,0.000000000,0.000000000,0.000000000,0.000000000,0.000000000,0.000000000,-0.383724183,0.000000000,4.101466179
1772725539.401101112,0.015788000,0.009502000,0.071425000,0.011706610,-0.019933410,-0.006742050,-0.999710040,-0.023158000,0.040024000,0.013024000,0.000173971,-0.000167075,0.000053147,0.006440390,0.008389155,0.000310059,0.009845407,-0.007772050,0.995371341,-0.000162976,0.001459742,-0.000917257,0.000000000,0.000000000,0.000000000,0.000000000,0.016202045,0.009609114,0.071371121,0.042638675,0.010435556,-0.005456990,0.012787964,0.001800277,-0.004424617,-0.585937029,-0.210012813,0.510158834,-0.005121338,0.001809902,0.004461263,0.999974319,0.000000000,0.000000000,0.000000000,0.000000000,0.000000000,0.000000000,-0.383724183,0.000000000,4.101466179
1772725539.411100626,0.015784000,0.009501000,0.071429000,0.011646710,-0.019916180,-0.006748490,-0.999711040,-0.023038000,0.039989000,0.013040000,0.000393940,-0.000211053,0.000161849,0.000429095,0.001415419,-0.004108376,0.008501710,-0.008782524,0.996922474,-0.004110684,0.004504465,0.000252377,0.000000000,0.000000000,0.000000000,0.000000000,0.016207713,0.009600839,0.071369772,0.042731330,0.010356986,-0.005662895,0.012751919,0.001505037,-0.003613663,-0.584804030,-0.210282020,0.510147853,-0.005111461,0.001812296,0.004461161,0.999974365,0.000000000,0.000000000,0.000000000,0.000000000,0.000000000,0.000000000,-0.383724183,0.000000000,4.101466179
1772725539.421100616,0.015803000,0.009492000,0.071427000,0.011713970,-0.019899760,-0.006802280,-0.999710210,-0.023171000,0.039958000,0.013145000,0.000292211,-0.000248699,0.000233897,-0.003935880,-0.010650180,-0.003368375,0.009470257,-0.008471784,0.998069286,-0.000328202,0.000900362,-0.001366023,0.000000000,0.000000000,0.000000000,0.000000000,0.016209398,0.009593303,0.071371009,0.042772986,0.010251477,-0.005798293,0.012609931,0.001859508,-0.002211525,-0.584921472,-0.211611349,0.508398007,-0.005112509,0.001823970,0.004445951,0.999974370,0.000000000,0.000000000,0.000000000,0.000000000,0.000000000,0.000000000,-0.383724183,0.000000000,4.101466179
1772725539.431101084,0.015808000,0.009488000,0.071429000,0.011701560,-0.019865660,-0.006748030,-0.999711410,-0.023149000,0.039888000,0.013038000,0.000214433,-0.000174359,0.000349476,-0.003966816,-0.010275966,-0.002998629,0.008128945,-0.008115287,1.000010979,0.002162888,0.004057693,0.001346287,0.000000000,0.000000000,0.000000000,0.000000000,0.016211738,0.009593417,0.071375838,0.042806703,0.010165554,-0.005780715,0.012204843,0.001911022,-0.001660500,-0.583897635,-0.211374099,0.506632380,-0.005103538,0.001822018,0.004430517,0.999974489,0.000000000,0.000000000,0.000000000,0.000000000,0.000000000,0.000000000,-0.383724183,0.000000000,4.101466179
1772725539.441101313,0.015795000,0.009493000,0.071432000,0.011765490,-0.019716910,-0.006790410,-0.999713310,-0.023277000,0.039593000,0.013124000,-0.000330672,0.000303827,0.000185043,-0.001100184,-0.006780922,-0.002692478,0.008721182,-0.008696358,0.996487586,-0.001302907,0.004672478,0.002404223,0.000000000,0.000000000,0.000000000,0.000000000,0.016212020,0.009593791,0.071379236,0.042789519,0.010112827,-0.005649825,0.012180421,0.001275168,-0.003187110,-0.583052997,-0.212658229,0.505997069,-0.005096207,0.001833285,0.004425017,0.999974548,0.000000000,0.000000000,0.000000000,0.000000000,0.000000000,0.000000000,-0.383724183,0.000000000,4.101466179
1772725539.451101542,0.015789000,0.009501000,0.071442000,0.011798560,-0.019665490,-0.006708190,-0.999714490,-0.023347000,0.039488000,0.012959000,-0.000420513,0.000605498,-0.000154779,0.001161756,0.006179514,-0.006773842,0.008800465,-0.009455757,0.995006591,-0.001789448,-0.000025768,-0.000444146,0.000000000,0.000000000,0.000000000,0.000000000,0.016210733,0.009594594,0.071378347,0.042749411,0.010048558,-0.005613272,0.012326388,0.000862627,-0.004552808,-0.582577747,-0.214288201,0.506474001,-0.005092129,0.001847506,0.004429243,0.999974549,0.000000000,0.000000000,0.000000000,0.000000000,0.000000000,0.000000000,-0.383724183,0.000000000,4.101466179
1772725539.461101055,0.015790000,0.009497000,0.071437000,0.011706210,-0.019728040,-0.006690230,-0.999714460,-0.023162000,0.039612000,0.012925000,-0.000335373,0.000411539,-0.000333664,0.003142482,0.014934086,-0.002850151,0.007997117,-0.008413263,0.994859503,-0.000827752,-0.001744785,0.000690498,0.000000000,0.000000000,0.000000000,0.000000000,0.016209049,0.009598036,0.071376030,0.042736369,0.009953782,-0.005749699,0.011956959,0.001726811,-0.005362724,-0.582426911,-0.214582199,0.504989995,-0.005090801,0.001850143,0.004416304,0.999974585,0.000000000,0.000000000,0.000000000,0.000000000,0.000000000,0.000000000,-0.383724183,0.000000000,4.101466179
1772725539.471101522,0.015790000,0.009509000,0.071429000,0.011658600,-0.020025880,-0.006681700,-0.999709160,-0.023063000,0.040207000,0.012903000,-0.000032556,-0.000023193,-0.000509771,-0.000091015,0.017532787,0.006407132,0.008425010,-0.006722084,0.995542816,-0.002301179,-0.000175210,0.000548349,0.000000000,0.000000000,0.000000000,0.000000000,0.016203601,0.009604776,0.071373699,0.042698407,0.009850257,-0.005991720,0.012263469,0.003335493,-0.004191699,-0.581471391,-0.213503734,0.503750660,-0.005082401,0.001840824,0.004405426,0.999974668,0.000000000,0.000000000,0.000000000,0.000000000,0.000000000,0.000000000,-0.383724183,0.000000000,4.101466179
1772725539.481102228,0.015780000,0.009515000,0.071417000,0.011712990,-0.019973450,-0.006731120,-0.999709240,-0.023171000,0.040104000,0.013001000,0.000267269,-0.000332110,-0.000293745,-0.000116957,0.011330851,0.012090794,0.009184019,-0.005504225,0.996128923,-0.001498295,-0.000871237,-0.001548773,0.000000000,0.000000000,0.000000000,0.000000000,0.016206108,0.009605274,0.071372156,0.042651161,0.009860740,-0.006186291,0.013506270,0.005020216,-0.004395654,-0.581213656,-0.212957553,0.502686753,-0.005080114,0.001836115,0.004396112,0.999974728,0.000000000,0.000000000,0.000000000,0.000000000,0.000000000,0.000000000,-0.383724183,0.000000000,4.101466179
1772725539.491102457,0.015797000,0.009503000,0.071417000,0.011735620,-0.020063900,-0.006721880,-0.999707220,-0.023216000,0.040285000,0.012980000,0.000237879,-0.000477992,0.000067249,-0.000674832,-0.005602458,0.014325199,0.009449831,-0.006335496,0.996712191,-0.000308374,-0.003423502,-0.003751982,0.000000000,0.000000000,0.000000000,0.000000000,0.016203159,0.009606373,0.071369741,0.042686474,0.010054010,-0.006331302,0.012970069,0.004143098,-0.003215709,-0.580814695,-0.212201489,0.501006640,-0.005076577,0.001829607,0.004381412,0.999974786,0.000000000,0.000000000,0.000000000,0.000000000,0.000000000,0.000000000,-0.383724183,0.000000000,4.101466179
1772725539.501102686,0.015797000,0.009480000,0.071427000,0.011746150,-0.019964610,-0.006968970,-0.999707400,-0.023228000,0.040092000,0.013476000,0.000258120,-0.000485684,0.000389453,-0.000058965,-0.017310463,0.012338133,0.009326668,-0.008393461,0.997707746,-0.000278612,-0.002796875,-0.004315674,0.000000000,0.000000000,0.000000000,0.000000000,0.016206899,0.009600747,0.071368804,0.042746255,0.010248906,-0.006405860,0.012409233,0.002538073,-0.001923136,-0.580402280,-0.210821579,0.498650110,-0.005072888,0.001817685,0.004360780,0.999974941,0.000000000,0.000000000,0.000000000,0.000000000,0.000000000,0.000000000,-0.383724183,0.000000000,4.101466179
1772725539.511102676,0.015792000,0.009490000,0.071427000,0.011768680,-0.019837080,-0.007004720,-0.999709420,-0.023273000,0.039838000,0.013550000,0.000022999,-0.000180905,0.000401224,0.001111356,-0.019384606,0.004585158,0.009105302,-0.009136515,0.997885391,0.001294771,-0.000675364,-0.003901467,0.000000000,0.000000000,0.000000000,0.000000000,0.016211172,0.009596369,0.071369899,0.042790553,0.010232057,-0.006380944,0.013054795,0.000174280,-0.002305144,-0.579718568,-0.209051810,0.496713373,-0.005066824,0.001802353,0.004343791,0.999975053,0.000000000,0.000000000,0.000000000,0.000000000,0.000000000,0.000000000,-0.383724183,0.000000000,4.101466179
1772725539.521102905,0.015800000,0.009496000,0.071442000,0.011639760,-0.019710910,-0.006901590,-0.999714140,-0.023021000,0.039582000,0.013351000,-0.000111869,0.000312665,0.000233547,0.001868477,-0.012099390,-0.006116415,0.008918526,-0.008841740,0.995937250,-0.000506516,-0.000778429,-0.003509605,0.000000000,0.000000000,0.000000000,0.000000000,0.016194616,0.009668770,0.071313298,0.042749178,0.010306998,-0.006553255,0.012963776,0.001311363,-0.004598231,-0.578545250,-0.207607366,0.495410445,-0.005056511,0.001789850,0.004332339,0.999975175,0.000000000,0.000000000,0.000000000,0.000000000,0.000000000,0.000000000,-0.383724183,0.000000000,4.101466179
1772725539.531102896,0.015791000,0.009494000,0.071434000,0.011672460,-0.019614240,-0.006863930,-0.999715920,-0.023089000,0.039388000,0.013277000,-0.000364511,0.000739084,-0.000072650,0.001120363,-0.000259365,-0.012324598,0.009048609,-0.008002561,0.995014883,-0.002385121,-0.002033753,-0.003494274,0.000000000,0.000000000,0.000000000,0.000000000,0.016197179,0.009667053,0.071311793,0.042752514,0.010143842,-0.006630192,0.012648131,0.001815661,-0.004452694,-0.577869179,-0.206495105,0.493776419,-0.005050544,0.001780241,0.004318020,0.999975332,0.000000000,0.000000000,0.000000000,0.000000000,0.000000000,0.000000000,-0.383724183,0.000000000,4.101466179
1772725539.541103125,0.015794000,0.009500000,0.071428000,0.011711370,-0.019777550,-0.006858580,-0.999712280,-0.023165000,0.039715000,0.013261000,-0.000243143,0.000610082,-0.000249087,-0.001290309,0.005757834,-0.014797917,0.008617913,-0.008226143,0.997925551,-0.001259300,-0.002360679,-0.000714550,0.000000000,0.000000000,0.000000000,0.000000000,0.016203520,0.009634923,0.071333008,0.042777409,0.009957785,-0.006738638,0.012502951,0.002115284,-0.002263923,-0.577756763,-0.205212630,0.492100944,-0.005049488,0.001769128,0.004303341,0.999975390,0.000000000,0.000000000,0.000000000,0.000000000,0.000000000,0.000000000,-0.383724183,0.000000000,4.101466179
1772725539.551102877,0.015779000,0.009516000,0.071427000,0.011764460,-0.019792450,-0.006685370,-0.999712540,-0.023278000,0.039741000,0.012912000,0.000170571,-0.000937413,0.000612335,-0.020647769,0.032482607,-0.000633100,0.008738325,-0.006543254,0.997571712,-0.001379596,-0.000026363,-0.000629553,0.000000000,0.000000000,0.000000000,0.000000000,0.016211905,0.009611047,0.071348787,0.042787674,0.009815136,-0.006663948,0.012834102,0.003339910,-0.002410823,-0.577690228,-0.204996137,0.491071928,-0.005048884,0.001767287,0.004294351,0.999975443,0.000000000,0.000000000,0.000000000,0.000000000,0.000000000,0.000000000,-0.383724183,0.000000000,4.101466179
1772725539.561102867,0.015793000,0.009509000,0.071429000,0.011710990,-0.019805050,-0.006680570,-0.999712950,-0.023171000,0.039766000,0.012904000,-0.000147222,0.000624360,-0.000653478,0.001818707,-0.012941333,-0.002629311,0.009409527,-0.006422085,0.997338468,0.002250141,-0.001391312,-0.001821942,0.000000000,0.000000000,0.000000000,0.000000000,0.016216682,0.009599211,0.071360268,0.042790416,0.009812528,-0.006569550,0.012670755,0.003380240,-0.003220067,-0.577818795,-0.205370987,0.490321693,-0.005050008,0.001770586,0.004287822,0.999975443,0.000000000,0.000000000,0.000000000,0.000000000,0.000000000,0.000000000,-0.383724183,0.000000000,4.101466179
1772725539.571102858,0.015784000,0.009510000,0.071427000,0.011711620,-0.019888800,-0.006759130,-0.999710750,-0.023168000,0.039935000,0.013059000,-0.000176107,0.001724963,-0.001461346,0.036938082,-0.067191821,-0.012710129,0.007936405,-0.007811247,0.997030439,-0.000197549,0.004750301,0.001012528,0.000000000,0.000000000,0.000000000,0.000000000,0.016214599,0.009597070,0.071366604,0.042780078,0.009892487,-0.006530505,0.011753385,0.002476994,-0.003289880,-0.576557598,-0.204320037,0.489372296,-0.005038949,0.001761504,0.004279472,0.999975592,0.000000000,0.000000000,0.000000000,0.000000000,0.000000000,0.000000000,-0.383724183,0.000000000,4.101466179
1772725539.581102610,0.015795000,0.009494000,0.071429000,0.011766210,-0.019543750,-0.006737090,-0.999717060,-0.023282000,0.039245000,0.013021000,-0.000275136,0.001727915,-0.001631179,0.055351218,-0.098571513,-0.020973365,0.008143868,-0.007029683,0.995330381,-0.000864096,-0.001526649,0.001953197,0.000000000,0.000000000,0.000000000,0.000000000,0.016208033,0.009600117,0.071368428,0.042727084,0.009952567,-0.006529819,0.012005639,0.003758645,-0.004726859,-0.576398739,-0.204794612,0.488891589,-0.005037572,0.001765672,0.004275296,0.999975622,0.000000000,0.000000000,0.000000000,0.000000000,0.000000000,0.000000000,-0.383724183,0.000000000,4.101466179
1772725539.591102839,0.015799000,0.009491000,0.071433000,0.011725120,-0.019598600,-0.006785260,-0.999716150,-0.023198000,0.039355000,0.013118000,-0.000028283,0.000981703,-0.001165327,0.051942621,-0.087816203,-0.022959978,0.009619567,-0.007881472,0.997665023,0.001094966,-0.002777944,-0.002023063,0.000000000,0.000000000,0.000000000,0.000000000,0.016203384,0.009601542,0.071368251,0.042618128,0.010008102,-0.006629217,0.012654871,0.002673321,-0.002935601,-0.576028672,-0.203742481,0.488952040,-0.005034306,0.001756502,0.004275771,0.999975622,0.000000000,0.000000000,0.000000000,0.000000000,0.000000000,0.000000000,-0.383724183,0.000000000,4.101466179
1772725539.601102829,0.015753000,0.009674000,0.071294000,0.010202150,-0.017148130,-0.006162830,-0.999781910,-0.020202000,0.034421000,0.011980000,0.000218940,-0.000041162,-0.000157867,0.033397844,-0.044306186,-0.019871108,0.011110679,-0.008000995,0.995159316,0.000466423,0.001078683,-0.001118692,0.000000000,0.000000000,0.000000000,0.000000000,0.016199457,0.009642285,0.071327812,0.042592370,0.010164476,-0.006864744,0.014148434,0.001953814,-0.003425265,-0.575267491,-0.204285953,0.487817816,-0.005027665,0.001761323,0.004265886,0.999975722,0.000000000,0.000000000,0.000000000,0.000000000,0.000000000,0.000000000,-0.383724183,0.000000000,4.101466179
1772725539.611103058,0.015792000,0.009536000,0.071394000,0.010652000,-0.018112580,-0.006225940,-0.999759820,-0.021089000,0.036357000,0.012071000,0.000492969,-0.001159539,0.000860413,0.003956551,0.010943629,-0.007161579,0.008463109,-0.009110791,0.997616975,-0.001311543,0.001678624,0.000760954,0.000000000,0.000000000,0.000000000,0.000000000,0.016196612,0.009674914,0.071296282,0.042695253,0.010213211,-0.007026412,0.012930470,0.000919685,-0.002769664,-0.574940355,-0.205347934,0.487068896,-0.005024839,0.001770635,0.004259392,0.999975741,0.000000000,0.000000000,0.000000000,0.000000000,0.000000000,0.000000000,-0.383724183,0.000000000,4.101466179
1772725539.621102333,0.015794000,0.009493000,0.071426000,0.011137650,-0.018748550,-0.006351610,-0.999742020,-0.022049000,0.037638000,0.012291000,0.000321543,-0.001760200,0.001703731,-0.032154539,0.065764780,0.008370756,0.008930735,-0.009864087,0.997272341,0.001713394,0.002359971,0.000074069,0.000000000,0.000000000,0.000000000,0.000000000,0.016204849,0.009632695,0.071326776,0.042750489,0.009901715,-0.006887374,0.012971063,0.000406915,-0.002494640,-0.574076285,-0.206355435,0.486757505,-0.005017331,0.001779473,0.004256705,0.999975755,0.000000000,0.000000000,0.000000000,0.000000000,0.000000000,0.000000000,-0.383724183,0.000000000,4.101466179
1772725539.631102324,0.015809000,0.009484000,0.071433000,0.011390670,-0.019330170,-0.006502460,-0.999727120,-0.022543000,0.038808000,0.012571000,0.000360684,-0.003091961,0.002765387,-0.080126346,0.127020060,0.027521742,0.008181457,-0.008662968,0.998462794,-0.002647136,0.002782131,0.000895752,0.000000000,0.000000000,0.000000000,0.000000000,0.016203383,0.009603059,0.071355880,0.042717852,0.009527790,-0.006727437,0.011094137,0.000679527,-0.002053647,-0.573978005,-0.207399025,0.486823439,-0.005016513,0.001788580,0.004257325,0.999975805,0.000000000,0.000000000,0.000000000,0.000000000,0.000000000,0.000000000,-0.383724183,0.000000000,4.101466179
1772725539.641102791,0.015802000,0.009493000,0.071440000,0.011476520,-0.019634690,-0.006603850,-0.999719540,-0.022707000,0.039420000,0.012764000,-0.000122689,-0.000296717,0.000522184,-0.055540822,0.085087209,0.025776200,0.008346063,-0.007887496,0.998316439,0.001709514,0.000132274,-0.001256417,0.000000000,0.000000000,0.000000000,0.000000000,0.016200948,0.009599015,0.071360138,0.042584577,0.009370656,-0.006510015,0.011910760,0.002708688,-0.002073708,-0.574757667,-0.207955407,0.486493701,-0.005023332,0.001793421,0.004254484,0.999975714,0.000000000,0.000000000,0.000000000,0.000000000,0.000000000,0.000000000,-0.383724183,0.000000000,4.101466179
1772725539.651102781,0.015786000,0.009504000,0.071432000,0.011711810,-0.019635540,-0.006671690,-0.999716340,-0.023175000,0.039426000,0.012890000,-0.000862608,0.003272109,-0.002512823,0.015739191,-0.025976655,0.004765533,0.008487347,-0.008373098,0.996673618,0.000791573,0.001435072,-0.000134061,0.000000000,0.000000000,0.000000000,0.000000000,0.016196589,0.009601347,0.071360645,0.042451781,0.009347081,-0.006453792,0.012308233,0.001441825,-0.003008493,-0.574094629,-0.207522668,0.485390577,-0.005017513,0.001789718,0.004244828,0.999975776,0.000000000,0.000000000,0.000000000,0.000000000,0.000000000,0.000000000,-0.383724183,0.000000000,4.101466179
1772725539.661102295,0.015780000,0.009510000,0.071436000,0.011882110,-0.019912780,-0.006701150,-0.999708650,-0.023511000,0.039984000,0.012936000,-0.000430303,0.002527858,-0.002353188,0.048865981,-0.070990977,-0.003186253,0.008726812,-0.007627290,0.995893782,-0.000826837,-0.001006048,0.001239577,0.000000000,0.000000000,0.000000000,0.000000000,0.016200346,0.009600021,0.071359623,0.042434096,0.009330614,-0.006367627,0.012569620,0.002916171,-0.004282387,-0.574282735,-0.207075581,0.484766458,-0.005019128,0.001785837,0.004239366,0.999975830,0.000000000,0.000000000,0.000000000,0.000000000,0.000000000,0.000000000,-0.383724183,0.000000000,4.101466179
1772725539.671102285,0.015790000,0.009496000,0.071423000,0.011886570,-0.020054770,-0.006827870,-0.999704900,-0.023513000,0.040271000,0.013186000,-0.000164433,0.001137530,-0.001363346,0.057594949,-0.084880270,-0.003653786,0.008679385,-0.006602852,0.996781077,-0.001501837,-0.002486442,-0.000212617,0.000000000,0.000000000,0.000000000,0.000000000,0.016207330,0.009592606,0.071359162,0.042422822,0.009270899,-0.006469368,0.011943626,0.003610987,-0.003427463,-0.575044728,-0.206298161,0.485480669,-0.005025760,0.001778993,0.004245575,0.999975817,0.000000000,0.000000000,0.000000000,0.000000000,0.000000000,0.000000000,-0.383724183,0.000000000,4.101466179
1772725539.681102276,0.015770000,0.009685000,0.071274000,0.010116580,-0.017443560,-0.006360190,-0.999776440,-0.020020000,0.035015000,0.012372000,0.000242386,-0.000319620,-0.000147242,0.043674071,-0.064543385,-0.001134082,0.008181027,-0.006620633,0.997673719,-0.000637998,-0.001071075,-0.002707372,0.000000000,0.000000000,0.000000000,0.000000000,0.016211270,0.009587065,0.071359852,0.042401602,0.009335975,-0.006545115,0.012031621,0.002716269,-0.002396515,-0.575394846,-0.205229896,0.485167252,-0.005028771,0.001769672,0.004242799,0.999975768,0.000000000,0.000000000,0.000000000,0.000000000,0.000000000,0.000000000,-0.383724183,0.000000000,4.101466179
1772725539.691102266,0.015787000,0.009530000,0.071391000,0.010626730,-0.018293160,-0.006578340,-0.999754550,-0.021023000,0.036725000,0.012774000,0.000168590,-0.001338171,0.001061637,0.013945399,-0.017533725,0.003784484,0.008264279,-0.006728634,0.997431605,0.001332648,0.001297544,-0.001446932,0.000000000,0.000000000,0.000000000,0.000000000,0.016205550,0.009605311,0.071351609,0.042320186,0.009506737,-0.006523561,0.011285447,0.003480204,-0.002584767,-0.574298108,-0.204568204,0.482920058,-0.005019141,0.001764036,0.004223143,0.999975906,0.000000000,0.000000000,0.000000000,0.000000000,0.000000000,0.000000000,-0.383724183,0.000000000,4.101466179
1772725539.701102018,0.015800000,0.009484000,0.071432000,0.010971370,-0.018714750,-0.006756710,-0.999741830,-0.021701000,0.037577000,0.013109000,-0.000057246,-0.001796000,0.001767290,-0.026239417,0.038566731,0.007843267,0.009273220,-0.005545173,0.997755461,0.001298663,0.002043082,-0.000455032,0.000000000,0.000000000,0.000000000,0.000000000,0.016204512,0.009604953,0.071358335,0.042173837,0.009563193,-0.006431357,0.013229875,0.004127968,-0.002436064,-0.572663198,-0.204535931,0.481418985,-0.005004850,0.001763881,0.004210018,0.999976055,0.000000000,0.000000000,0.000000000,0.000000000,0.000000000,0.000000000,-0.383724183,0.000000000,4.101466179
1772725539.711102009,0.015783000,0.009489000,0.071442000,0.011253590,-0.019044990,-0.006787560,-0.999732250,-0.022261000,0.038242000,0.013153000,-0.000046717,-0.001790522,0.001855344,-0.059776588,0.089616235,0.012132611,0.009013695,-0.006197176,0.997777501,0.001429537,0.001416118,-0.000933277,0.000000000,0.000000000,0.000000000,0.000000000,0.016207265,0.009595397,0.071366680,0.042193910,0.009711054,-0.006352475,0.012639372,0.004419630,-0.003438561,-0.571726312,-0.204361320,0.480209953,-0.004996650,0.001762444,0.004199445,0.999976131,0.000000000,0.000000000,0.000000000,0.000000000,0.000000000,0.000000000,-0.383724183,0.000000000,4.101466179
