t,px,py,pz,qx,qy,qz,qw,roll,pitch,yaw,vx,vy,vz,wx_vicon,wy_vicon,wz_vicon,imu_acc_x,imu_acc_y,imu_acc_z,imu_gyro_x,imu_gyro_y,imu_gyro_z,motor_motor_m1,motor_motor_m2,motor_motor_m3,motor_motor_m4,est_stateEstimate_x,est_stateEstimate_y,est_stateEstimate_z,est_stateEstimate_vx,est_stateEstimate_vy,est_stateEstimate_vz,est_stateEstimate_ax,est_stateEstimate_ay,est_stateEstimate_az,att_stateEstimate_roll,att_stateEstimate_pitch,att_stateEstimate_yaw,att_stateEstimate_qx,att_stateEstimate_qy,att_stateEstimate_qz,att_stateEstimate_qw,sp_ctrltarget_x,sp_ctrltarget_y,sp_ctrltarget_z,sp_ctrltarget_yaw,pid_controller_roll,pid_controller_pitch,pid_controller_yaw,pid_controller_cmd_thrust,pwr_pm_vbat
1772717036.460880280,0.017707000,0.010155000,0.071834000,-0.002188270,0.006164370,0.017816890,0.999819870,-0.004156000,0.012405000,0.035611000,-0.002694694,0.000999744,-0.003736453,0.015245129,-0.039244301,0.019483704,0.011114324,-0.003858921,0.996695244,0.003386437,-0.002959211,-0.002419191,0.000000000,0.000000000,0.000000000,0.000000000,0.018138653,0.010103494,0.071761101,0.022764926,-0.002488770,-0.003350819,0.005567782,-0.000820879,-0.002627095,-0.176526999,0.332976401,1.497583917,-0.001502374,-0.002925646,0.013063954,0.999908217,0.000000000,0.000000000,0.000000000,0.000000000,0.000000000,0.000000000,1.498164557,0.000000000,4.212316990
1772717036.470879555,0.017682000,0.010158000,0.071825000,-0.002121810,0.006161220,0.017880840,0.999818890,-0.004023000,0.012396000,0.035739000,-0.000956621,0.000396028,-0.001283129,-0.000089736,0.000122606,0.014919891,0.009701123,-0.004154518,0.999388748,0.002287225,0.000372554,-0.001681246,0.000000000,0.000000000,0.000000000,0.000000000,0.018123561,0.010105731,0.071759746,0.022454291,-0.002437190,-0.003459573,0.005712987,-0.001452012,-0.001681524,-0.175819822,0.333011193,1.493795257,-0.001496297,-0.002925820,0.013030913,0.999908643,0.000000000,0.000000000,0.000000000,0.000000000,0.000000000,0.000000000,1.494636459,0.000000000,4.212316990
1772717036.480879545,0.017687000,0.010162000,0.071809000,-0.002171210,0.006124040,0.018004850,0.999816790,-0.004121000,0.012324000,0.035987000,0.000061887,-0.000039160,0.000099939,-0.006803447,0.023969011,0.007432058,0.012961529,-0.004486745,0.999515979,0.002239986,-0.001173804,0.001666446,0.000000000,0.000000000,0.000000000,0.000000000,0.018116162,0.010106355,0.071753140,0.022209607,-0.002449783,-0.003325992,0.006897256,-0.001621979,-0.001116861,-0.173249972,0.333825644,1.491408125,-0.001473841,-0.002932604,0.013010139,0.999908949,0.000000000,0.000000000,0.000000000,0.000000000,0.000000000,0.000000000,1.491863543,0.000000000,4.212316990
1772717036.490879536,0.017693000,0.010163000,0.071797000,-0.002200610,0.006392120,0.017899920,0.999816930,-0.004172000,0.012861000,0.035776000,0.000511876,-0.000321205,0.000656803,-0.007159333,0.035107022,-0.001236997,0.011344542,-0.003982603,0.998405828,-0.000174483,-0.003031172,0.001018135,0.000000000,0.000000000,0.000000000,0.000000000,0.018125149,0.010103613,0.071759044,0.022276447,-0.002486067,-0.003284096,0.006137877,-0.000891635,-0.001142615,-0.171007599,0.334394136,1.489320920,-0.001454263,-0.002937283,0.012991975,0.999909211,0.000000000,0.000000000,0.000000000,0.000000000,0.000000000,0.000000000,1.489714214,0.000000000,4.212316990
1772717036.500879288,0.017687000,0.010156000,0.071830000,-0.002224210,0.006314360,0.017953790,0.999816400,-0.004221000,0.012707000,0.035884000,0.000544393,-0.000465491,0.000631512,-0.003398622,0.036351481,-0.009338930,0.011655602,-0.004557535,0.998656859,0.000257893,0.000736799,0.000323466,0.000000000,0.000000000,0.000000000,0.000000000,0.018130890,0.010104621,0.071763791,0.022254782,-0.002459138,-0.003249931,0.005417361,-0.001480703,-0.001261694,-0.169738110,0.334696296,1.487587648,-0.001443196,-0.002939754,0.012976878,0.999909403,0.000000000,0.000000000,0.000000000,0.000000000,0.000000000,0.000000000,1.488174421,0.000000000,4.212316990
1772717036.510879517,0.017694000,0.010152000,0.071825000,-0.002285740,0.006759180,0.017955300,0.999813330,-0.004328000,0.013598000,0.035884000,0.000310482,-0.000487401,0.000268117,0.002225295,0.030514193,-0.015131920,0.011906630,-0.002953587,0.998780144,0.002556520,0.002206818,-0.003213262,0.000000000,0.000000000,0.000000000,0.000000000,0.018134274,0.010106515,0.071768940,0.022166029,-0.002488466,-0.003214035,0.006348037,-0.000200618,-0.001560335,-0.169211416,0.334156608,1.485638945,-0.001438711,-0.002934961,0.012959895,0.999909627,0.000000000,0.000000000,0.000000000,0.000000000,0.000000000,0.000000000,1.486158490,0.000000000,4.212316990
1772717036.520880222,0.017703000,0.010145000,0.071827000,-0.002228120,0.006897560,0.017775050,0.999815740,-0.004211000,0.013872000,0.035524000,-0.000074746,-0.000355217,0.000068608,0.006202176,0.021719703,-0.012690586,0.015212031,-0.002111608,0.997490709,0.000251784,0.002709797,-0.002662430,0.000000000,0.000000000,0.000000000,0.000000000,0.018122074,0.010109626,0.071766197,0.022164732,-0.002349874,-0.003240941,0.008641974,0.001163769,-0.002033634,-0.168810306,0.333051110,1.483366731,-0.001435394,-0.002925241,0.012940093,0.999909909,0.000000000,0.000000000,0.000000000,0.000000000,0.000000000,0.000000000,1.483980418,0.000000000,4.212316990
1772717036.530880213,0.017691000,0.010145000,0.071826000,-0.002107980,0.006780440,0.017703030,0.999818080,-0.003976000,0.013633000,0.035382000,-0.000032225,-0.000260930,-0.000079369,0.005385900,0.009394211,-0.004288046,0.014264845,-0.002804085,0.998197726,0.001130542,-0.000067397,0.002847131,0.000000000,0.000000000,0.000000000,0.000000000,0.018120595,0.010113682,0.071758460,0.022367673,-0.002178939,-0.003335643,0.008420460,0.000108068,-0.001799439,-0.168144343,0.332433501,1.481250396,-0.001429707,-0.002919750,0.012921652,0.999910150,0.000000000,0.000000000,0.000000000,0.000000000,0.000000000,0.000000000,1.482075865,0.000000000,4.212316990
1772717036.540880442,0.017701000,0.010139000,0.071808000,-0.002124640,0.006908010,0.017623730,0.999818570,-0.004005000,0.013889000,0.035222000,-0.000210737,0.000014005,-0.000164546,0.001824612,0.004437704,0.001070073,0.012955669,-0.005203676,0.999205675,-0.000600584,0.004414323,0.000938874,0.000000000,0.000000000,0.000000000,0.000000000,0.018123474,0.010118202,0.071746307,0.022554256,-0.002097365,-0.003407769,0.007606980,-0.001319133,-0.000595891,-0.168073662,0.330747518,1.479297455,-0.001429330,-0.002905006,0.012904634,0.999910465,0.000000000,0.000000000,0.000000000,0.000000000,0.000000000,0.000000000,1.479354484,0.000000000,4.212316990
1772717036.550880432,0.017681000,0.010149000,0.071819000,-0.002169630,0.006848490,0.017809150,0.999815600,-0.004095000,0.013772000,0.035593000,-0.000222178,0.000310677,0.000202035,0.000909622,-0.009617174,0.006066450,0.014471644,-0.004824323,0.999800123,0.001575304,-0.000195800,0.001131892,0.000000000,0.000000000,0.000000000,0.000000000,0.018124720,0.010117808,0.071753116,0.022670686,-0.002160511,-0.003273025,0.008207346,-0.001835839,-0.000093759,-0.167872082,0.328886057,1.477115434,-0.001427836,-0.002888713,0.012885623,0.999910728,0.000000000,0.000000000,0.000000000,0.000000000,0.000000000,0.000000000,1.477828896,0.000000000,4.212316990
1772717036.560880661,0.017690000,0.010148000,0.071826000,-0.002136210,0.006836490,0.017869680,0.999814670,-0.004028000,0.013747000,0.035714000,-0.000285522,0.000531320,0.000187797,0.002521242,-0.005132483,0.009379408,0.012817938,-0.005046263,0.999400018,0.002082736,0.000857403,0.001690327,0.000000000,0.000000000,0.000000000,0.000000000,0.018128191,0.010114924,0.071759070,0.022801007,-0.002244549,-0.003155645,0.007726115,-0.001983114,-0.000224441,-0.167095455,0.327389797,1.474759095,-0.001421287,-0.002875540,0.012865101,0.999911082,0.000000000,0.000000000,0.000000000,0.000000000,0.000000000,0.000000000,1.475849282,0.000000000,4.212316990
1772717036.570881128,0.017697000,0.010145000,0.071833000,-0.002181660,0.006814760,0.017881590,0.999814510,-0.004119000,0.013705000,0.035738000,-0.000055496,0.000461916,-0.000013520,0.003231975,-0.008378526,0.005876150,0.013619169,-0.005038183,0.999682714,0.004235277,-0.000368186,-0.001544282,0.000000000,0.000000000,0.000000000,0.000000000,0.018137955,0.010106842,0.071765029,0.022898770,-0.002397934,-0.002991873,0.007567487,-0.001834067,-0.000701266,-0.165909687,0.327001730,1.472900107,-0.001411030,-0.002871998,0.012848914,0.999911319,0.000000000,0.000000000,0.000000000,0.000000000,0.000000000,0.000000000,1.473523813,0.000000000,4.212316990
1772717036.580881834,0.017678000,0.010164000,0.071822000,-0.002145080,0.006810890,0.017816070,0.999815780,-0.004047000,0.013696000,0.035607000,-0.000592255,0.000611019,-0.000162118,0.007079061,-0.008645018,0.009227115,0.013070456,-0.003973020,1.000386269,-0.000147655,-0.001171090,-0.001126682,0.000000000,0.000000000,0.000000000,0.000000000,0.018137526,0.010101556,0.071766520,0.023045229,-0.002476280,-0.002895363,0.006763576,-0.001329463,0.000288135,-0.164723890,0.326613654,1.471041075,-0.001400773,-0.002868456,0.012832726,0.999911529,0.000000000,0.000000000,0.000000000,0.000000000,0.000000000,0.000000000,1.471383593,0.000000000,4.212316990
1772717036.590882063,0.017694000,0.010165000,0.071823000,-0.001995670,0.006558380,0.017807700,0.999817930,-0.003757000,0.013186000,0.035593000,0.000757015,-0.000426797,-0.000314931,0.002637645,-0.010362113,-0.003115214,0.013224120,-0.004516407,0.998808225,0.001065268,-0.003660600,-0.002666633,0.000000000,0.000000000,0.000000000,0.000000000,0.018138730,0.010097945,0.071762239,0.023111954,-0.002522412,-0.002742037,0.007364481,-0.001500072,-0.001086234,-0.163197718,0.326972890,1.467843116,-0.001387496,-0.002871382,0.012804856,0.999911919,0.000000000,0.000000000,0.000000000,0.000000000,0.000000000,0.000000000,1.468425204,0.000000000,4.212316990
1772717036.600882769,0.017680000,0.010158000,0.071814000,-0.002023930,0.006773360,0.017902270,0.999814750,-0.003805000,0.013617000,0.035781000,0.001584909,-0.001146866,0.000005186,-0.004625619,-0.021639261,-0.015453137,0.013539375,-0.004852623,0.998512662,0.001444914,0.002553019,0.001354063,0.000000000,0.000000000,0.000000000,0.000000000,0.018136484,0.010099278,0.071769726,0.023243693,-0.002603207,-0.002738181,0.007994883,-0.002278594,-0.001473549,-0.161510702,0.327685058,1.464012643,-0.001372792,-0.002877361,0.012771467,0.999912338,0.000000000,0.000000000,0.000000000,0.000000000,0.000000000,0.000000000,1.464810969,0.000000000,4.212316990
1772717036.610882282,0.017703000,0.010147000,0.071812000,-0.002162270,0.006482270,0.017855470,0.999817230,-0.004093000,0.013040000,0.035687000,0.001648059,-0.001246922,0.000341426,-0.012806996,-0.027356507,-0.025205119,0.012680324,-0.005559913,0.999210404,0.004095235,0.000585817,0.001343502,0.000000000,0.000000000,0.000000000,0.000000000,0.018140960,0.010098796,0.071775337,0.023397759,-0.002768638,-0.002679568,0.006678728,-0.002698653,0.000676753,-0.159740500,0.327266894,1.461242115,-0.001357461,-0.002873482,0.012747342,0.999912706,0.000000000,0.000000000,0.000000000,0.000000000,0.000000000,0.000000000,1.461762626,0.000000000,4.212316990
1772717036.620882511,0.017697000,0.010144000,0.071829000,-0.002113360,0.006567600,0.017859290,0.999816710,-0.003992000,0.013209000,0.035695000,0.000891161,-0.000769621,0.000531592,-0.017128740,-0.022198236,-0.024731542,0.013291777,-0.004719798,0.998392792,0.004313239,0.000970040,0.001901515,0.000000000,0.000000000,0.000000000,0.000000000,0.018138336,0.010105473,0.071773455,0.023432219,-0.002890003,-0.002644321,0.007090290,-0.001562119,-0.002446163,-0.157912543,0.326067606,1.459203583,-0.001341695,-0.002862789,0.012729615,0.999912996,0.000000000,0.000000000,0.000000000,0.000000000,0.000000000,0.000000000,1.459734933,0.000000000,4.212316990
1772717036.630882263,0.017808000,0.010078000,0.071832000,-0.002338000,0.006167700,0.017208740,0.999830160,-0.004463000,0.012414000,0.034392000,-0.000499309,0.000137565,0.000151084,-0.014502380,-0.011452281,-0.016207617,0.012116878,-0.003853072,0.998838021,0.003775372,-0.000004846,-0.001140402,0.000000000,0.000000000,0.000000000,0.000000000,0.018139643,0.010105750,0.071770521,0.023502421,-0.002947818,-0.002717857,0.006741339,-0.001560417,-0.001323774,-0.157389277,0.327014963,1.458791286,-0.001337034,-0.002870994,0.012726016,0.999913098,0.000000000,0.000000000,0.000000000,0.000000000,0.000000000,0.000000000,1.458817289,0.000000000,4.212316990
1772717036.640882730,0.017720000,0.010133000,0.071837000,-0.002337430,0.006054930,0.017325110,0.999828840,-0.004465000,0.012189000,0.034625000,-0.001224059,0.000915305,-0.000207066,-0.006754288,0.001308827,-0.001509769,0.010120756,-0.003345229,0.997962623,-0.000184630,-0.003214258,0.000259571,0.000000000,0.000000000,0.000000000,0.000000000,0.018142415,0.010100971,0.071765687,0.023477940,-0.002955346,-0.002765443,0.005364767,-0.000625258,-0.002417530,-0.156955701,0.344825927,1.458962318,-0.001331266,-0.003026364,0.012727302,0.999913209,0.000000000,0.000000000,0.000000000,0.000000000,0.000000000,0.000000000,1.457813122,0.000000000,4.212316990
1772717036.650882721,0.017676000,0.010161000,0.071828000,-0.002382710,0.006318240,0.017521120,0.999823690,-0.004544000,0.012718000,0.035016000,-0.001719114,0.001123576,-0.000480603,0.003566971,0.016229081,0.017371630,0.011060504,-0.003092672,0.998811143,-0.000258083,-0.002385886,0.001635872,0.000000000,0.000000000,0.000000000,0.000000000,0.019068915,0.009959778,0.071646459,0.025622588,-0.004005250,-0.003440190,0.004861554,-0.001225046,-0.001963850,-0.156522145,0.362636042,1.459133343,-0.001325499,-0.003181727,0.012728587,0.999912270,0.000000000,0.000000000,0.000000000,0.000000000,0.000000000,0.000000000,1.458619198,0.000000000,4.212316990
1772717036.660883427,0.017669000,0.010163000,0.071819000,-0.002265780,0.006522390,0.017749190,0.999818630,-0.004300000,0.013123000,0.035473000,-0.001177790,0.000799923,-0.000259124,0.012536043,0.014539940,0.027726245,0.013253267,-0.003111581,1.000079951,0.000272065,-0.000957379,0.000329693,0.000000000,0.000000000,0.000000000,0.000000000,0.017809528,0.010135669,0.071802864,0.018711278,-0.003135981,-0.001972531,0.005850692,-0.000512651,-0.000319366,-0.154773333,0.365248243,1.457645056,-0.001309991,-0.003204310,0.012715617,0.999912108,0.000000000,0.000000000,0.000000000,0.000000000,0.000000000,0.000000000,1.458119716,0.000000000,4.212316990
1772717036.670883656,0.017674000,0.010159000,0.071806000,-0.002235990,0.006526280,0.017810000,0.999817590,-0.004239000,0.013130000,0.035595000,-0.000389599,0.000262076,0.000307491,0.017887653,0.010481134,0.028774610,0.013909429,-0.004238774,1.000765932,0.003725369,-0.000965822,-0.002730595,0.000000000,0.000000000,0.000000000,0.000000000,0.017956980,0.010109730,0.071795717,0.019524905,-0.003176315,-0.001925744,0.007432485,-0.001374917,0.000674715,-0.153985462,0.365565997,1.455666448,-0.001303136,-0.003206972,0.012698370,0.999912316,0.000000000,0.000000000,0.000000000,0.000000000,0.000000000,0.000000000,1.456373817,0.000000000,4.212316990
1772717036.680883884,0.017702000,0.010156000,0.071823000,-0.002164370,0.006560640,0.017839630,0.999816990,-0.004094000,0.013196000,0.035655000,0.001090768,-0.000557194,0.000580193,0.015660336,-0.002554603,0.009813088,0.013105540,-0.004053463,0.999864966,0.003218026,0.001153775,-0.002474732,0.000000000,0.000000000,0.000000000,0.000000000,0.018027701,0.010094399,0.071801153,0.020141038,-0.003280899,-0.001783071,0.006975840,-0.001911514,0.000663782,-0.153360715,0.366037655,1.453647726,-0.001297689,-0.003210996,0.012680767,0.999912597,0.000000000,0.000000000,0.000000000,0.000000000,0.000000000,0.000000000,1.454248451,0.000000000,4.212316990
1772717036.690884829,0.017697000,0.010141000,0.071836000,-0.001981540,0.006398750,0.017915560,0.999817060,-0.003733000,0.012867000,0.035810000,0.000270856,-0.000202929,0.000421144,0.012714578,-0.005827867,0.002050455,0.012006793,-0.004969371,0.997675349,0.002271469,0.000434495,-0.001912477,0.000000000,0.000000000,0.000000000,0.000000000,0.018060958,0.010091842,0.071805073,0.020494441,-0.003338495,-0.001740425,0.005712106,-0.001105552,-0.002046088,-0.152085874,0.366237375,1.451193787,-0.001286611,-0.003212570,0.012659388,0.999912855,0.000000000,0.000000000,0.000000000,0.000000000,0.000000000,0.000000000,1.451908633,0.000000000,4.212316990
1772717036.700885534,0.017703000,0.010146000,0.071848000,-0.001986560,0.006340460,0.017867830,0.999818280,-0.003746000,0.012750000,0.035714000,-0.000353799,0.000105942,-0.000034207,0.006237914,0.004198433,-0.004403044,0.013145227,-0.005072952,0.998756234,0.001692965,-0.004462474,0.000736187,0.000000000,0.000000000,0.000000000,0.000000000,0.018072768,0.010094675,0.071794870,0.020660369,-0.003460238,-0.001987503,0.006436525,-0.002783488,-0.002098842,-0.150947613,0.366362947,1.448639855,-0.001276737,-0.003213511,0.012637133,0.999913162,0.000000000,0.000000000,0.000000000,0.000000000,0.000000000,0.000000000,1.449212139,0.000000000,4.212316990
1772717036.710886240,0.017682000,0.010160000,0.071837000,-0.002039750,0.006450760,0.017896270,0.999816960,-0.003848000,0.012973000,0.035770000,-0.000475572,0.000209067,-0.000398398,0.002408076,0.010749095,-0.008219661,0.011944946,-0.005732405,0.997744806,0.003580213,-0.000174018,-0.003261784,0.000000000,0.000000000,0.000000000,0.000000000,0.018073758,0.010090521,0.071779844,0.020849171,-0.003634064,-0.002140886,0.005757315,-0.003060558,-0.002626047,-0.149957285,0.366522990,1.445660563,-0.001268161,-0.003214766,0.012611161,0.999913493,0.000000000,0.000000000,0.000000000,0.000000000,0.000000000,0.000000000,1.446296030,0.000000000,4.212316990
1772717036.720886230,0.017678000,0.010162000,0.071818000,-0.001960790,0.006592070,0.017789620,0.999818100,-0.003687000,0.013252000,0.035558000,-0.000149084,0.000042870,-0.000521938,0.002099634,0.008557525,-0.009210816,0.011186368,-0.004543204,0.998293536,0.000368649,-0.001377878,-0.000381059,0.000000000,0.000000000,0.000000000,0.000000000,0.018091037,0.010084203,0.071779090,0.020929804,-0.003840211,-0.002345684,0.004643713,-0.002062114,-0.001738251,-0.148362180,0.367226267,1.442625755,-0.001254250,-0.003220694,0.012584716,0.999913823,0.000000000,0.000000000,0.000000000,0.000000000,0.000000000,0.000000000,1.443242930,0.000000000,4.212316990
1772717036.730886698,0.017670000,0.010154000,0.071808000,-0.001994370,0.006691590,0.017798810,0.999817210,-0.003750000,0.013452000,0.035575000,0.000333967,0.000064936,-0.000277655,0.001578974,0.007815450,-0.008341375,0.011122050,-0.003707839,0.998813610,0.000676697,-0.001617794,-0.001247406,0.000000000,0.000000000,0.000000000,0.000000000,0.018100437,0.010080412,0.071782425,0.020899761,-0.003904221,-0.002398482,0.005094203,-0.001207328,-0.001042455,-0.146494471,0.367656707,1.440318111,-0.001237970,-0.003224220,0.012564628,0.999914087,0.000000000,0.000000000,0.000000000,0.000000000,0.000000000,0.000000000,1.440777537,0.000000000,4.212316990
1772717036.740886688,0.017698000,0.010151000,0.071820000,-0.002012360,0.006680570,0.017671500,0.999819500,-0.003788000,0.013430000,0.035320000,0.000467511,-0.000165031,-0.000024358,0.001797727,0.003869770,-0.003273625,0.011042395,-0.004704112,0.997760013,-0.000278063,0.000088822,0.000501228,0.000000000,0.000000000,0.000000000,0.000000000,0.018103128,0.010078069,0.071782482,0.020868076,-0.003913994,-0.002435097,0.004348730,-0.001542885,-0.001796192,-0.145506262,0.367723478,1.437965448,-0.001229406,-0.003224669,0.012544125,0.999914331,0.000000000,0.000000000,0.000000000,0.000000000,0.000000000,0.000000000,1.438560191,0.000000000,4.212316990
1772717036.750887156,0.017703000,0.010151000,0.071831000,-0.001948280,0.006501440,0.017704090,0.999820230,-0.003666000,0.013070000,0.035387000,0.000427341,-0.000198830,0.000164371,-0.001790146,0.001834562,-0.000680489,0.011951527,-0.004453654,0.998582462,0.000843143,-0.001250786,0.000810727,0.000000000,0.000000000,0.000000000,0.000000000,0.018098537,0.010082389,0.071775767,0.020789864,-0.003921072,-0.002550715,0.005133859,-0.002147199,-0.001507869,-0.145414937,0.366326914,1.435350995,-0.001228835,-0.003212444,0.012521330,0.999914646,0.000000000,0.000000000,0.000000000,0.000000000,0.000000000,0.000000000,1.436080980,0.000000000,4.212316990
1772717036.760887861,0.017702000,0.010148000,0.071830000,-0.001895870,0.006525590,0.017782680,0.999818780,-0.003559000,0.013117000,0.035545000,0.000104951,-0.000005361,0.000005186,-0.007509698,0.001641580,0.004053693,0.014017648,-0.004520588,0.999604665,0.003094417,0.000512883,-0.004853819,0.000000000,0.000000000,0.000000000,0.000000000,0.018096652,0.010076620,0.071770366,0.020807580,-0.003961011,-0.002589470,0.007894095,-0.002840487,-0.000315654,-0.145492498,0.365318733,1.434157691,-0.001229656,-0.003203643,0.012510927,0.999914852,0.000000000,0.000000000,0.000000000,0.000000000,0.000000000,0.000000000,1.434352725,0.000000000,4.212316990
1772717036.770887613,0.017690000,0.010164000,0.071818000,-0.002074210,0.006746130,0.017746630,0.999817610,-0.003909000,0.013564000,0.035469000,-0.000031176,0.000008119,-0.000326177,-0.011364201,0.004850145,0.005114823,0.014073224,-0.005191101,0.999563820,0.003987893,-0.002963355,-0.001692224,0.000000000,0.000000000,0.000000000,0.000000000,0.018097084,0.010075440,0.071769493,0.020943010,-0.004018148,-0.002545730,0.007557102,-0.002800400,-0.000834773,-0.145558258,0.364806471,1.433615855,-0.001230301,-0.003199174,0.012506203,0.999914913,0.000000000,0.000000000,0.000000000,0.000000000,0.000000000,0.000000000,1.433800331,0.000000000,4.212316990
1772717036.780887604,0.017691000,0.010145000,0.071813000,-0.002110610,0.006730220,0.017802130,0.999816650,-0.003981000,0.013534000,0.035580000,-0.000154309,-0.000100600,-0.000313124,-0.013423785,0.003762592,0.005006746,0.013819972,-0.005669438,0.999305938,0.004074461,-0.004762952,0.000080656,0.000000000,0.000000000,0.000000000,0.000000000,0.018097516,0.010074260,0.071768620,0.021078443,-0.004075285,-0.002501989,0.006408317,-0.002572150,-0.001800122,-0.145085903,0.363928903,1.431548110,-0.001226333,-0.003191443,0.012488184,0.999915136,0.000000000,0.000000000,0.000000000,0.000000000,0.000000000,0.000000000,1.432416624,0.000000000,4.212316990
1772717036.790887833,0.017692000,0.010149000,0.071815000,-0.002156370,0.006671290,0.017763250,0.999817640,-0.004075000,0.013417000,0.035502000,-0.000066859,-0.000162118,0.000133913,-0.010821639,-0.002568032,-0.000580842,0.011843945,-0.005075664,0.997837339,-0.000340338,0.002790839,-0.005893650,0.000000000,0.000000000,0.000000000,0.000000000,0.018103104,0.010074415,0.071768512,0.021198930,-0.004168503,-0.002541148,0.005567349,-0.002209695,-0.001978879,-0.143749384,0.364129072,1.429294746,-0.001214711,-0.003193020,0.012468557,0.999915436,0.000000000,0.000000000,0.000000000,0.000000000,0.000000000,0.000000000,1.429573932,0.000000000,4.212316990
1772717036.800887823,0.017700000,0.010153000,0.071816000,-0.002228720,0.006585550,0.017839550,0.999816690,-0.004222000,0.013249000,0.035654000,-0.000203841,0.000012490,0.000560516,-0.004422680,-0.015372333,-0.002098900,0.013163654,-0.004027987,0.998315389,0.000862628,0.001193291,-0.001904587,0.000000000,0.000000000,0.000000000,0.000000000,0.018107036,0.010071113,0.071770312,0.021230564,-0.004236492,-0.002604220,0.006532964,-0.001445399,-0.002174983,-0.141912593,0.365253116,1.427685242,-0.001198606,-0.003202612,0.012454550,0.999915523,0.000000000,0.000000000,0.000000000,0.000000000,0.000000000,0.000000000,1.428396084,0.000000000,4.212316990
1772717036.810888052,0.017700000,0.010146000,0.071822000,-0.002234120,0.006603020,0.017791450,0.999817420,-0.004233000,0.013284000,0.035558000,-0.000131252,0.000151473,0.000452418,0.002309256,-0.023089702,-0.001623667,0.013979968,-0.003345162,0.997160859,0.004309056,-0.001329245,-0.001429959,0.000000000,0.000000000,0.000000000,0.000000000,0.018105013,0.010069381,0.071777537,0.021373335,-0.004219773,-0.002691717,0.007862437,-0.000568716,-0.002416533,-0.141050881,0.363470659,1.425261315,-0.001191348,-0.003186939,0.012433442,0.999915872,0.000000000,0.000000000,0.000000000,0.000000000,0.000000000,0.000000000,1.425495506,0.000000000,4.212316990
1772717036.820888042,0.017687000,0.010150000,0.071837000,-0.002160880,0.006423770,0.017754300,0.999819410,-0.004093000,0.012922000,0.035485000,-0.000147918,0.000320680,0.000027466,0.005422741,-0.021581019,-0.003258551,0.012174264,-0.003748026,0.997756667,0.001053097,0.000609271,-0.003457070,0.000000000,0.000000000,0.000000000,0.000000000,0.018100315,0.010072436,0.071781226,0.021577934,-0.004130514,-0.002818063,0.006234217,-0.000843779,-0.002008913,-0.139343693,0.363383483,1.423658652,-0.001176506,-0.003185977,0.012419507,0.999916087,0.000000000,0.000000000,0.000000000,0.000000000,0.000000000,0.000000000,1.424089194,0.000000000,4.212316990
1772717036.830888510,0.017679000,0.010155000,0.071836000,-0.002131520,0.006343570,0.017710040,0.999820770,-0.004038000,0.012761000,0.035397000,-0.000122899,0.000146539,-0.000187136,0.007006272,-0.014925165,-0.002748173,0.012350425,-0.005203425,0.998637872,0.003546714,-0.004959997,-0.001216859,0.000000000,0.000000000,0.000000000,0.000000000,0.018101220,0.010077940,0.071776492,0.021581113,-0.004098333,-0.002893206,0.005926178,-0.002116549,-0.001657060,-0.137669775,0.363591335,1.421594613,-0.001161934,-0.003187588,0.012401541,0.999916301,0.000000000,0.000000000,0.000000000,0.000000000,0.000000000,0.000000000,1.422154201,0.000000000,4.212316990
1772717036.840888262,0.017685000,0.010164000,0.071824000,-0.002121770,0.006199510,0.017782230,0.999820410,-0.004023000,0.012473000,0.035542000,0.000153551,-0.000026243,-0.000234591,0.008519949,-0.004981088,-0.001739214,0.013369486,-0.004602207,0.997252263,0.001061260,-0.000787527,0.000364506,0.000000000,0.000000000,0.000000000,0.000000000,0.018108729,0.010077869,0.071766922,0.021638924,-0.004171690,-0.002975229,0.007215971,-0.002461455,-0.002162008,-0.137138526,0.363044384,1.419648416,-0.001157412,-0.003182738,0.012384580,0.999916566,0.000000000,0.000000000,0.000000000,0.000000000,0.000000000,0.000000000,1.420135310,0.000000000,4.212316990
1772717036.850888491,0.017703000,0.010154000,0.071808000,-0.002075230,0.006212740,0.017761010,0.999820800,-0.003929000,0.012497000,0.035500000,0.000285833,0.000024048,-0.000183582,0.006910306,0.006988031,0.002788825,0.013030621,-0.004107713,0.998318885,-0.000025952,-0.000358549,-0.000748635,0.000000000,0.000000000,0.000000000,0.000000000,0.018112635,0.010075718,0.071762072,0.021770350,-0.004226760,-0.003087029,0.007238855,-0.001660675,-0.002208517,-0.135593052,0.363537682,1.418140961,-0.001143914,-0.003186861,0.012371463,0.999916717,0.000000000,0.000000000,0.000000000,0.000000000,0.000000000,0.000000000,1.418574242,0.000000000,4.212316990
1772717036.860888481,0.017692000,0.010153000,0.071818000,-0.002040490,0.006330210,0.017724330,0.999820790,-0.003856000,0.012731000,0.035427000,0.000010761,0.000058915,0.000130727,0.000386113,0.015562230,0.005094475,0.012072824,-0.003818119,0.999051682,0.003012893,0.000589390,-0.001628296,0.000000000,0.000000000,0.000000000,0.000000000,0.018113113,0.010074021,0.071764374,0.021846406,-0.004219081,-0.003118317,0.005416985,-0.001450002,-0.000695544,-0.135246151,0.362172833,1.416947052,-0.001141068,-0.003174902,0.012361068,0.999916883,0.000000000,0.000000000,0.000000000,0.000000000,0.000000000,0.000000000,1.417237124,0.000000000,4.212316990
1772717036.870888233,0.017690000,0.010153000,0.071833000,-0.002077330,0.006481410,0.017768510,0.999818960,-0.003924000,0.013035000,0.035514000,-0.000226801,0.000023776,0.000296400,-0.004545018,0.009252164,0.003536783,0.012130119,-0.004315577,0.998668169,0.003635868,-0.000268071,-0.000830561,0.000000000,0.000000000,0.000000000,0.000000000,0.018115001,0.010072881,0.071768710,0.021823234,-0.004216780,-0.003051228,0.005531483,-0.002049211,-0.000963979,-0.134729440,0.362719306,1.415380550,-0.001136544,-0.003179599,0.012347407,0.999916998,0.000000000,0.000000000,0.000000000,0.000000000,0.000000000,0.000000000,1.415882721,0.000000000,4.212316990
1772717036.880888224,0.017699000,0.010151000,0.071830000,-0.002016590,0.006485930,0.017816320,0.999818210,-0.003802000,0.013042000,0.035611000,-0.000305102,-0.000041899,0.000256385,-0.009927846,0.000171079,0.001796582,0.013343566,-0.003509082,0.998485685,0.001374200,-0.002823790,-0.000916552,0.000000000,0.000000000,0.000000000,0.000000000,0.018115462,0.010074180,0.071770377,0.021818496,-0.004240634,-0.003015812,0.006618900,-0.001773946,-0.001799549,-0.133974553,0.361476613,1.413007448,-0.001130156,-0.003168651,0.012326733,0.999917306,0.000000000,0.000000000,0.000000000,0.000000000,0.000000000,0.000000000,1.413740984,0.000000000,4.212316990
1772717036.890888214,0.017679000,0.010168000,0.071829000,-0.002150620,0.006486680,0.017852670,0.999817270,-0.004069000,0.013048000,0.035682000,0.000070298,-0.000102076,-0.000009848,-0.013838950,-0.009835766,0.000317563,0.013728888,-0.002763467,0.998729905,0.000868827,-0.003068760,-0.002038170,0.000000000,0.000000000,0.000000000,0.000000000,0.018108841,0.010080029,0.071771454,0.021889567,-0.004194444,-0.003028028,0.008453875,0.000605789,-0.001821910,-0.133076247,0.361131155,1.411262242,-0.001122403,-0.003165523,0.012311534,0.999917553,0.000000000,0.000000000,0.000000000,0.000000000,0.000000000,0.000000000,1.411636049,0.000000000,4.212316990
1772717036.900888681,0.017677000,0.010158000,0.071831000,-0.002303610,0.006331330,0.017816120,0.999818580,-0.004381000,0.012743000,0.035607000,0.000220877,-0.000212485,-0.000216701,-0.009589089,-0.008549181,-0.001063949,0.011869068,-0.005630767,0.998993338,0.001806663,-0.000932823,-0.001373279,0.000000000,0.000000000,0.000000000,0.000000000,0.018105956,0.010079579,0.071772523,0.022050878,-0.004073923,-0.003054776,0.005369867,-0.002340674,-0.000398018,-0.132816079,0.362132485,1.409561913,-0.001120072,-0.003174215,0.012296694,0.999917705,0.000000000,0.000000000,0.000000000,0.000000000,0.000000000,0.000000000,1.410006226,0.000000000,4.212316990
1772717036.910888672,0.017699000,0.010144000,0.071816000,-0.002245810,0.006175020,0.017735420,0.999821120,-0.004272000,0.012428000,0.035447000,-0.000430487,0.000148831,-0.000080437,-0.003441124,0.000777994,0.002231769,0.010052395,-0.005956910,1.000458182,0.000295550,-0.001309083,-0.000477481,0.000000000,0.000000000,0.000000000,0.000000000,0.018115000,0.010072980,0.071766171,0.022004193,-0.004211045,-0.002999720,0.004954242,-0.004125508,0.000038193,-0.132177641,0.362674452,1.407730048,-0.001114494,-0.003178859,0.012280721,0.999917870,0.000000000,0.000000000,0.000000000,0.000000000,0.000000000,0.000000000,1.408200201,0.000000000,4.212316990
1772717036.920888424,0.017698000,0.010146000,0.071826000,-0.002296130,0.006317890,0.017779430,0.999819340,-0.004367000,0.012715000,0.035534000,0.000463121,-0.000368542,0.000019910,-0.000850452,0.002890335,-0.008424154,0.013120194,-0.006700528,0.998007488,0.003687039,0.003500489,-0.001801553,0.000000000,0.000000000,0.000000000,0.000000000,0.018119152,0.010068435,0.071767668,0.021932582,-0.004444977,-0.002881724,0.006145073,-0.003589979,-0.001274047,-0.131032555,0.362547486,1.406196086,-0.001104558,-0.003177613,0.012267369,0.999918068,0.000000000,0.000000000,0.000000000,0.000000000,0.000000000,0.000000000,1.406435668,0.000000000,4.212316990
1772717036.930887938,0.017701000,0.010150000,0.071826000,-0.002267430,0.006399960,0.017739240,0.999819590,-0.004307000,0.012878000,0.035453000,0.000870979,-0.000500358,-0.000109729,0.000017483,0.004346805,-0.018199802,0.013020685,-0.004746418,0.996531806,-0.002233835,-0.000234746,-0.002800661,0.000000000,0.000000000,0.000000000,0.000000000,0.018122328,0.010065885,0.071769333,0.021983910,-0.004594088,-0.002914195,0.006690053,-0.002470106,-0.003155626,-0.130358921,0.362657921,1.405081322,-0.001098699,-0.003178494,0.012257660,0.999918188,0.000000000,0.000000000,0.000000000,0.000000000,0.000000000,0.000000000,1.405578196,0.000000000,4.212316990
1772717036.940887451,0.017675000,0.010157000,0.071830000,-0.002157190,0.006559800,0.017766170,0.999818320,-0.004081000,0.013194000,0.035508000,0.000678326,-0.000242691,-0.000196616,-0.001578713,0.005187695,-0.023057961,0.012658975,-0.005278997,0.996595365,0.001539699,-0.001121107,-0.001002226,0.000000000,0.000000000,0.000000000,0.000000000,0.018116340,0.010066355,0.071770799,0.022013964,-0.004651085,-0.003082613,0.006581483,-0.002639942,-0.003670432,-0.129137363,0.360771961,1.403350652,-0.001088289,-0.003161890,0.012242611,0.999918408,0.000000000,0.000000000,0.000000000,0.000000000,0.000000000,0.000000000,1.403843574,0.000000000,4.212316990
1772717036.950887680,0.017686000,0.010157000,0.071825000,-0.002279200,0.006452320,0.017656940,0.999820690,-0.004330000,0.012983000,0.035288000,0.000453777,-0.000218352,-0.000123055,-0.005002752,0.006650346,-0.019437666,0.012348758,-0.004394795,0.997975125,0.003357332,-0.001803789,-0.004849015,0.000000000,0.000000000,0.000000000,0.000000000,0.018112219,0.010067230,0.071768972,0.022035259,-0.004733921,-0.003252728,0.006432610,-0.002998020,-0.002361791,-0.129745941,0.360541701,1.401155468,-0.001093685,-0.003159925,0.012223442,0.999918685,0.000000000,0.000000000,0.000000000,0.000000000,0.000000000,0.000000000,1.401645699,0.000000000,4.212316990
1772717036.960887194,0.017777000,0.010100000,0.071814000,-0.002380920,0.006212100,0.017106540,0.999831540,-0.004549000,0.012504000,0.034187000,0.000385228,-0.000229229,-0.000079330,-0.003644976,0.009222500,-0.010682897,0.013006195,-0.005165072,0.998059483,0.003843829,-0.001509423,-0.003331976,0.000000000,0.000000000,0.000000000,0.000000000,0.018138281,0.010050828,0.071762505,0.022158766,-0.004855847,-0.003346639,0.006140641,-0.002161548,-0.001683237,-0.126735856,0.360778113,1.400374049,-0.001067416,-0.003161659,0.012216703,0.999918810,0.000000000,0.000000000,0.000000000,0.000000000,0.000000000,0.000000000,1.400639156,0.000000000,4.212316990
1772717036.970886707,0.017698000,0.010151000,0.071815000,-0.002356290,0.006512140,0.017368640,0.999825170,-0.004486000,0.013104000,0.034710000,-0.000002253,0.000043336,0.000209980,0.000418797,0.016099719,0.002873968,0.012900960,-0.005457524,0.997569866,0.002706358,0.000241799,-0.001655606,0.000000000,0.000000000,0.000000000,0.000000000,0.018154665,0.010040279,0.071756658,0.022244952,-0.004952151,-0.003417107,0.006338477,-0.003175410,-0.002359746,-0.124628617,0.360741393,1.397738299,-0.001049105,-0.003161090,0.012193763,0.999919094,0.000000000,0.000000000,0.000000000,0.000000000,0.000000000,0.000000000,1.398392215,0.000000000,4.212316990
1772717036.980886698,0.017701000,0.010150000,0.071824000,-0.002259030,0.006633690,0.017501140,0.999822280,-0.004285000,0.013344000,0.034976000,-0.000189662,0.000108234,0.000018007,-0.000693891,0.016061867,0.011240753,0.012984520,-0.004877720,0.997387946,0.001204277,0.001137157,-0.002017463,0.000000000,0.000000000,0.000000000,0.000000000,0.018143258,0.010047267,0.071754075,0.022237563,-0.005020899,-0.003491979,0.006853576,-0.002357789,-0.001653313,-0.122537913,0.360616779,1.396067602,-0.001030921,-0.003159765,0.012179243,0.999919295,0.000000000,0.000000000,0.000000000,0.000000000,0.000000000,0.000000000,1.396386932,0.000000000,4.212316990
1772717036.990887165,0.017702000,0.010144000,0.071833000,-0.002300310,0.006816750,0.017662290,0.999818130,-0.004359000,0.013713000,0.035297000,-0.001127499,0.000956893,0.000349021,0.010884956,0.023870340,0.018052324,0.014919755,-0.004492614,0.997708253,0.000937373,-0.000979900,-0.002668739,0.000000000,0.000000000,0.000000000,0.000000000,0.018138057,0.010050382,0.071755991,0.022293689,-0.005054221,-0.003514559,0.007830462,-0.001804200,-0.002314890,-0.121180615,0.360126501,1.394711364,-0.001019166,-0.003155331,0.012167451,0.999919450,0.000000000,0.000000000,0.000000000,0.000000000,0.000000000,0.000000000,1.395197164,0.000000000,4.212316990
1772717037.000887156,0.017703000,0.010148000,0.071831000,-0.002210960,0.006806140,0.017644770,0.999818710,-0.004181000,0.013688000,0.035264000,-0.001173575,0.000986827,0.000427108,0.021069686,0.018535916,0.018551759,0.012384296,-0.005006163,0.997638060,-0.002658891,0.002063663,-0.002869557,0.000000000,0.000000000,0.000000000,0.000000000,0.018136818,0.010049308,0.071760579,0.022469428,-0.005057353,-0.003562169,0.006624134,-0.002682375,-0.002465399,-0.120009508,0.359734950,1.393261370,-0.001009029,-0.003151777,0.012154833,0.999919628,0.000000000,0.000000000,0.000000000,0.000000000,0.000000000,0.000000000,1.393588951,0.000000000,4.212316990
1772717037.010887146,0.017695000,0.010157000,0.071827000,-0.002135540,0.006791880,0.017654570,0.999818800,-0.004031000,0.013657000,0.035284000,-0.000312619,0.000351293,0.000298517,0.026662138,0.004897616,0.010433139,0.010906833,-0.004298203,0.998026587,0.001786907,0.000366365,-0.002145592,0.000000000,0.000000000,0.000000000,0.000000000,0.018137267,0.010049982,0.071761692,0.022459036,-0.005121364,-0.003617170,0.004960102,-0.002624963,-0.002039487,-0.119015176,0.359332485,1.391338519,-0.001000448,-0.003148143,0.012138085,0.999919801,0.000000000,0.000000000,0.000000000,0.000000000,0.000000000,0.000000000,1.392035703,0.000000000,4.212316990
1772717037.020887613,0.017694000,0.010157000,0.071816000,-0.002190900,0.006783460,0.017636420,0.999819050,-0.004142000,0.013642000,0.035247000,-0.000800059,0.000479224,0.000094889,0.026372679,0.005278654,0.014788859,0.012259674,-0.003154546,0.999782926,0.001391773,-0.003364790,-0.003826582,0.000000000,0.000000000,0.000000000,0.000000000,0.018133656,0.010053871,0.071760306,0.022318327,-0.005124186,-0.003647266,0.005334448,-0.001801251,-0.000698658,-0.118646613,0.358419672,1.388693785,-0.000997401,-0.003140115,0.012115028,0.999920160,0.000000000,0.000000000,0.000000000,0.000000000,0.000000000,0.000000000,1.389066641,0.000000000,4.212316990
1772717037.030887604,0.017648000,0.010205000,0.071859000,-0.001628260,0.007138820,0.017838450,0.999814070,-0.003002000,0.014334000,0.035658000,-0.000301333,0.000035489,0.000037509,0.019675700,-0.005706977,0.014727897,0.013971964,-0.004203102,1.000097640,0.001087110,0.001885092,-0.003357901,0.000000000,0.000000000,0.000000000,0.000000000,0.018129547,0.010057004,0.071755681,0.022270811,-0.005078281,-0.003553573,0.007486803,-0.001621310,0.000626336,-0.117122215,0.358271584,1.386859130,-0.000984165,-0.003138646,0.012099062,0.999920401,0.000000000,0.000000000,0.000000000,0.000000000,0.000000000,0.000000000,1.387508231,0.000000000,4.212316990
1772717037.040888309,0.017681000,0.010149000,0.071834000,-0.001672910,0.006817150,0.017967250,0.999813940,-0.003101000,0.013692000,0.035916000,0.000298051,-0.000513527,-0.000045220,0.004060572,-0.008264128,0.010663989,0.013285520,-0.003125394,1.000435278,0.003548719,0.001939085,-0.000152543,0.000000000,0.000000000,0.000000000,0.000000000,0.018111475,0.010076007,0.071768780,0.022351649,-0.004998749,-0.003294687,0.007932141,-0.001190040,0.000331882,-0.116997056,0.357340211,1.384358792,-0.000983240,-0.003130485,0.012077255,0.999920639,0.000000000,0.000000000,0.000000000,0.000000000,0.000000000,0.000000000,1.385160477,0.000000000,4.212316990
1772717037.050888300,0.017686000,0.010156000,0.071830000,-0.001807770,0.006757610,0.017977100,0.999813930,-0.003372000,0.013578000,0.035934000,0.000574637,-0.000821271,-0.000265087,-0.009674952,-0.010552867,0.002273357,0.011742025,-0.003320693,0.999094036,-0.003820782,-0.001631658,-0.003819698,0.000000000,0.000000000,0.000000000,0.000000000,0.018108174,0.010072308,0.071775509,0.022451744,-0.004926949,-0.003099474,0.006203431,-0.000979516,0.000038737,-0.115633232,0.356281895,1.381363111,-0.000971532,-0.003121081,0.012051163,0.999920984,0.000000000,0.000000000,0.000000000,0.000000000,0.000000000,0.000000000,1.382053748,0.000000000,4.212316990
1772717037.060889006,0.017684000,0.010154000,0.071824000,-0.001943300,0.006833180,0.017937950,0.999813860,-0.003641000,0.013734000,0.035854000,0.000676655,-0.000669002,-0.000400360,-0.024343366,-0.013430466,-0.005102702,0.010840815,-0.005131463,1.001268684,0.000442721,0.003508132,0.000290871,0.000000000,0.000000000,0.000000000,0.000000000,0.018115040,0.010064743,0.071773821,0.022396524,-0.004972694,-0.002946379,0.004537063,-0.002109996,0.001091395,-0.114672551,0.355516109,1.378900313,-0.000963297,-0.003114277,0.012029706,0.999921308,0.000000000,0.000000000,0.000000000,0.000000000,0.000000000,0.000000000,1.379419464,0.000000000,4.212316990
1772717037.070889473,0.017707000,0.010143000,0.071830000,-0.002033830,0.006468020,0.017824770,0.999818140,-0.003837000,0.013007000,0.035627000,0.000566926,-0.000264796,-0.000265048,-0.032193327,-0.014222114,-0.009359797,0.010092302,-0.004031780,0.999957821,0.001999872,0.002269670,-0.002183903,0.000000000,0.000000000,0.000000000,0.000000000,0.018116029,0.010061480,0.071772390,0.022233529,-0.005045308,-0.002725944,0.004109506,-0.002065553,0.000618029,-0.114621960,0.354460187,1.376889691,-0.000963021,-0.003105041,0.012012172,0.999921543,0.000000000,0.000000000,0.000000000,0.000000000,0.000000000,0.000000000,1.377311441,0.000000000,4.212316990
1772717037.080889225,0.017696000,0.010144000,0.071825000,-0.002168240,0.006773070,0.017795270,0.999816360,-0.004095000,0.013621000,0.035565000,0.000044152,0.000337211,0.000275285,-0.021059188,-0.013460614,-0.005588228,0.010857514,-0.005671233,0.997557751,0.002210802,0.003838934,-0.000625666,0.000000000,0.000000000,0.000000000,0.000000000,0.018125651,0.010053802,0.071776149,0.022061288,-0.005091917,-0.002572657,0.004639934,-0.003587002,-0.002882624,-0.113924393,0.353341066,1.374510116,-0.000957115,-0.003095182,0.011991438,0.999921841,0.000000000,0.000000000,0.000000000,0.000000000,0.000000000,0.000000000,1.375253637,0.000000000,4.212316990
1772717037.090888739,0.017686000,0.010150000,0.071825000,-0.002207370,0.006618420,0.017840330,0.999816510,-0.004178000,0.013314000,0.035656000,0.000013364,0.000240806,0.000146617,-0.014293505,-0.016710730,-0.000377097,0.012150306,-0.006035803,0.994531173,0.001903002,-0.004665133,0.000711492,0.000000000,0.000000000,0.000000000,0.000000000,0.018123544,0.010049535,0.071775350,0.021936054,-0.005264039,-0.002744512,0.006135792,-0.003849083,-0.005124225,-0.112798604,0.352108727,1.372378295,-0.000947478,-0.003084293,0.011972876,0.999922113,0.000000000,0.000000000,0.000000000,0.000000000,0.000000000,0.000000000,1.372911279,0.000000000,4.212316990
1772717037.100888491,0.017701000,0.010160000,0.071832000,-0.002375580,0.006428690,0.017854390,0.999817110,-0.004521000,0.012940000,0.035682000,-0.000287600,0.000493656,0.000104524,-0.006432940,-0.008311685,0.002081595,0.014011852,-0.005131876,0.995985176,0.000704612,-0.002405059,-0.001859965,0.000000000,0.000000000,0.000000000,0.000000000,0.018117053,0.010048631,0.071772194,0.021935221,-0.005429231,-0.003124774,0.007414353,-0.002554952,-0.004130333,-0.111066408,0.352466724,1.370939042,-0.000932365,-0.003087225,0.011960360,0.999922262,0.000000000,0.000000000,0.000000000,0.000000000,0.000000000,0.000000000,1.371328278,0.000000000,4.212316990
1772717037.110889435,0.017699000,0.010156000,0.071836000,-0.002326390,0.006352190,0.017854090,0.999817720,-0.004425000,0.012785000,0.035683000,-0.000279558,0.000394766,-0.000084419,0.002677267,0.000707780,0.003731481,0.013525129,-0.004624771,0.998057304,0.001060678,-0.004871855,0.001227797,0.000000000,0.000000000,0.000000000,0.000000000,0.018121537,0.010052470,0.071771236,0.022090023,-0.005454804,-0.003352079,0.007933361,-0.002333919,-0.002063463,-0.109417015,0.353482792,1.369128752,-0.000917915,-0.003095904,0.011944599,0.999922415,0.000000000,0.000000000,0.000000000,0.000000000,0.000000000,0.000000000,1.369860094,0.000000000,4.212316990
1772717037.120889902,0.017694000,0.010154000,0.071828000,-0.002267880,0.006301940,0.017864100,0.999817990,-0.004310000,0.012683000,0.035704000,0.000060469,-0.000070200,-0.000118101,0.009098277,-0.003994919,0.001991243,0.013710426,-0.004828356,0.999030672,0.000376038,0.000187090,-0.001625349,0.000000000,0.000000000,0.000000000,0.000000000,0.018125166,0.010052228,0.071771574,0.022262317,-0.005486429,-0.003396098,0.007293399,-0.002576381,-0.000471941,-0.108257160,0.353616989,1.366833359,-0.000907842,-0.003096936,0.011924600,0.999922603,0.000000000,0.000000000,0.000000000,0.000000000,0.000000000,0.000000000,1.367830808,0.000000000,4.212316990
1772717037.130890608,0.017684000,0.010169000,0.071825000,-0.002237750,0.006573100,0.017859130,0.999816400,-0.004240000,0.013224000,0.035693000,0.000059031,-0.000391289,-0.000135564,0.008467381,0.001488097,0.000105102,0.013029503,-0.004279440,1.001104883,0.001690255,-0.001412628,0.000818755,0.000000000,0.000000000,0.000000000,0.000000000,0.018124518,0.010052448,0.071767844,0.022375961,-0.005537439,-0.003229428,0.007096471,-0.002554333,0.001406702,-0.107097277,0.353751190,1.364537911,-0.000897769,-0.003097969,0.011904600,0.999922872,0.000000000,0.000000000,0.000000000,0.000000000,0.000000000,0.000000000,1.365146548,0.000000000,4.212316990
1772717037.140891075,0.017686000,0.010158000,0.071828000,-0.002164160,0.006615770,0.017849240,0.999816460,-0.004092000,0.013307000,0.035674000,0.000196363,-0.000451971,0.000093374,0.005681603,-0.002625434,-0.000960628,0.011730263,-0.003951676,0.998433785,0.000911424,0.000355374,0.003248111,0.000000000,0.000000000,0.000000000,0.000000000,0.018120760,0.010056875,0.071767273,0.022383485,-0.005546605,-0.003030467,0.004998670,-0.002383692,-0.001485420,-0.106115081,0.354270225,1.361357310,-0.000889231,-0.003102371,0.011876868,0.999923239,0.000000000,0.000000000,0.000000000,0.000000000,0.000000000,0.000000000,1.362123641,0.000000000,4.212316990
1772717037.150891542,0.017706000,0.010144000,0.071823000,-0.002132350,0.006400740,0.017896260,0.999817090,-0.004035000,0.012876000,0.035769000,0.000368892,-0.000279384,0.000364522,-0.001554113,-0.003260591,-0.003140106,0.012590187,-0.003520867,0.997676819,0.000425906,0.003264607,-0.000269207,0.000000000,0.000000000,0.000000000,0.000000000,0.018124025,0.010050770,0.071767781,0.022293871,-0.005579779,-0.003054814,0.006299939,-0.001904377,-0.001771872,-0.104753093,0.353631643,1.359554844,-0.000877461,-0.003096644,0.011861182,0.999923512,0.000000000,0.000000000,0.000000000,0.000000000,0.000000000,0.000000000,1.359621812,0.000000000,4.212316990
1772717037.160891294,0.017703000,0.010138000,0.071833000,-0.002207910,0.006221690,0.017826310,0.999819300,-0.004194000,0.012520000,0.035629000,0.000334025,-0.000185272,0.000147976,-0.006931258,-0.000210939,-0.008041965,0.012489301,-0.002822461,0.998848168,0.001638925,0.003445954,0.000126438,0.000000000,0.000000000,0.000000000,0.000000000,0.018130615,0.010041419,0.071769468,0.022348743,-0.005546546,-0.003112018,0.006709617,-0.001077528,-0.001641764,-0.103286748,0.352686459,1.358149545,-0.000864801,-0.003088234,0.011848967,0.999923614,0.000000000,0.000000000,0.000000000,0.000000000,0.000000000,0.000000000,1.358518160,0.000000000,4.212316990
1772717037.170891523,0.017699000,0.010148000,0.071837000,-0.002285440,0.006401660,0.017784030,0.999818750,-0.004343000,0.012883000,0.035543000,0.000002875,0.000164332,-0.000148404,-0.007476558,0.003034625,-0.012197481,0.011549523,-0.003270623,0.999237714,0.004450007,0.001360447,0.000251363,0.000000000,0.000000000,0.000000000,0.000000000,0.018131591,0.010039371,0.071771288,0.022375160,-0.005503874,-0.003120044,0.005545259,-0.001054998,-0.000421302,-0.102065931,0.351868869,1.356965572,-0.000854265,-0.003080964,0.011838675,0.999923828,0.000000000,0.000000000,0.000000000,0.000000000,0.000000000,0.000000000,1.357071595,0.000000000,4.212316990
1772717037.180891514,0.017706000,0.010154000,0.071840000,-0.002243900,0.006443960,0.017742390,0.999819310,-0.004259000,0.012966000,0.035460000,-0.000348652,0.000369747,-0.000451039,-0.002282088,0.009585485,-0.012185504,0.011514942,-0.003517832,0.999045862,0.004622795,0.001125280,0.000066472,0.000000000,0.000000000,0.000000000,0.000000000,0.018131528,0.010039856,0.071771980,0.022363106,-0.005482432,-0.003104341,0.005694785,-0.001121322,-0.000523669,-0.101900854,0.351599958,1.356733289,-0.000852858,-0.003078599,0.011836655,0.999923858,0.000000000,0.000000000,0.000000000,0.000000000,0.000000000,0.000000000,1.356792076,0.000000000,4.212316990
1772717037.190893173,0.017694000,0.010156000,0.071825000,-0.002292040,0.006633200,0.017664750,0.999819340,-0.004349000,0.013345000,0.035303000,-0.000327479,0.000267962,-0.000442628,0.006024633,0.008063261,-0.008922660,0.011659482,-0.003679943,0.998794813,0.004169572,0.001365100,-0.000052736,0.000000000,0.000000000,0.000000000,0.000000000,0.018131465,0.010040341,0.071772672,0.022351050,-0.005460986,-0.003088635,0.005844336,-0.001187657,-0.000626052,-0.101735750,0.351331003,1.356500968,-0.000851452,-0.003076233,0.011834634,0.999923887,0.000000000,0.000000000,0.000000000,0.000000000,0.000000000,0.000000000,1.356565111,0.000000000,4.212316990
1772717037.200893402,0.017696000,0.010153000,0.071805000,-0.002292480,0.006562330,0.017572390,0.999821430,-0.004354000,0.013203000,0.035119000,-0.000047823,0.000143645,-0.000208581,0.013017075,0.001840633,-0.000863743,0.011804001,-0.003842031,0.998543800,0.003716414,0.001604885,-0.000171926,0.000000000,0.000000000,0.000000000,0.000000000,0.018131403,0.010040826,0.071773364,0.022338996,-0.005439543,-0.003072931,0.005993865,-0.001253983,-0.000728421,-0.101570669,0.351062086,1.356268681,-0.000850045,-0.003073868,0.011832613,0.999923917,0.000000000,0.000000000,0.000000000,0.000000000,0.000000000,0.000000000,1.356338179,0.000000000,4.212316990
1772717037.210894346,0.017688000,0.010161000,0.071822000,-0.002132940,0.006457010,0.017619780,0.999821630,-0.004038000,0.012987000,0.035216000,0.000294341,-0.000200772,0.000099784,0.011442302,-0.002574156,0.003867571,0.011948531,-0.004004131,0.998292769,0.003263223,0.001844688,-0.000291124,0.000000000,0.000000000,0.000000000,0.000000000,0.018131340,0.010041311,0.071774056,0.022326941,-0.005418099,-0.003057226,0.006143405,-0.001320313,-0.000830798,-0.101405576,0.350793149,1.356036376,-0.000848639,-0.003071502,0.011830593,0.999923946,0.000000000,0.000000000,0.000000000,0.000000000,0.000000000,0.000000000,1.356111230,0.000000000,4.212316990
1772717037.220895290,0.017698000,0.010145000,0.071820000,-0.002043260,0.006455940,0.017710490,0.999820230,-0.003857000,0.012982000,0.035399000,0.000319185,-0.000129678,0.000225694,0.007110479,0.002145787,0.009395826,0.012093061,-0.004166231,0.998041738,0.002810032,0.002084491,-0.000410323,0.000000000,0.000000000,0.000000000,0.000000000,0.018131277,0.010041796,0.071774748,0.022314886,-0.005396655,-0.003041522,0.006292945,-0.001386644,-0.000933174,-0.101240484,0.350524213,1.355804072,-0.000847232,-0.003069137,0.011828572,0.999923976,0.000000000,0.000000000,0.000000000,0.000000000,0.000000000,0.000000000,1.355884281,0.000000000,4.212316990
1772717037.230895519,0.017707000,0.010156000,0.071834000,-0.002051520,0.006499360,0.017735370,0.999819490,-0.003872000,0.013070000,0.035448000,0.000307103,0.000002739,0.000132281,-0.000589377,0.005587013,0.012036001,0.012237580,-0.004328319,0.997790726,0.002356874,0.002324276,-0.000529513,0.000000000,0.000000000,0.000000000,0.000000000,0.018133022,0.010044990,0.071777372,0.022296185,-0.005349922,-0.003009020,0.006321995,-0.001901124,-0.001424269,-0.100878503,0.350294128,1.355308989,-0.000844111,-0.003067088,0.011824263,0.999924011,0.000000000,0.000000000,0.000000000,0.000000000,0.000000000,0.000000000,1.355657349,0.000000000,4.212316990
1772717037.240895987,0.017706000,0.010157000,0.071832000,-0.002084740,0.006638320,0.017813510,0.999817120,-0.003933000,0.013349000,0.035604000,-0.000079388,0.000022902,-0.000248110,-0.008228474,0.014200013,0.008850451,0.011591238,-0.004351304,0.998274361,0.000804139,0.000456276,0.001286888,0.000000000,0.000000000,0.000000000,0.000000000,0.018132084,0.010049045,0.071776613,0.022263218,-0.005337851,-0.003031530,0.005940003,-0.002773241,-0.002032638,-0.099708189,0.350223454,1.353735050,-0.000833948,-0.003066340,0.011810561,0.999924223,0.000000000,0.000000000,0.000000000,0.000000000,0.000000000,0.000000000,1.354123616,0.000000000,4.212316990
1772717037.250896454,0.017712000,0.010142000,0.071816000,-0.002216870,0.006651180,0.017781360,0.999817320,-0.004197000,0.013379000,0.035537000,-0.000177152,0.000148501,-0.000474678,-0.011032852,0.008990889,0.004377936,0.012577330,-0.004636397,0.998034978,0.000526414,-0.000851604,0.000260570,0.000000000,0.000000000,0.000000000,0.000000000,0.018128031,0.010050893,0.071765551,0.022175582,-0.005400853,-0.003115160,0.005893362,-0.002708991,-0.002025658,-0.098537875,0.350152780,1.352161111,-0.000823785,-0.003065591,0.011796860,0.999924473,0.000000000,0.000000000,0.000000000,0.000000000,0.000000000,0.000000000,1.351623822,0.000000000,4.212316990
1772717037.260896683,0.017689000,0.010164000,0.071811000,-0.002196930,0.006684330,0.017878560,0.999815410,-0.004154000,0.013445000,0.035732000,-0.000348360,0.000208367,-0.000274042,-0.006251361,-0.002145041,0.001096316,0.012021093,-0.003848992,0.998575295,-0.001732742,-0.000728929,-0.001359826,0.000000000,0.000000000,0.000000000,0.000000000,0.018122980,0.010052905,0.071760126,0.022153539,-0.005468110,-0.003223155,0.006617724,-0.002406938,-0.001847397,-0.097367589,0.350082107,1.350587210,-0.000813622,-0.003064843,0.011783158,0.999924462,0.000000000,0.000000000,0.000000000,0.000000000,0.000000000,0.000000000,1.351757234,0.000000000,4.212316990
1772717037.270897150,0.017695000,0.010157000,0.071811000,-0.002289390,0.006641770,0.017840870,0.999816160,-0.004341000,0.013363000,0.035656000,-0.000243157,0.000019891,0.000021289,-0.000927485,-0.007538417,0.000281749,0.011102048,-0.003206826,0.999089650,0.000863093,0.005153109,-0.002005456,0.000000000,0.000000000,0.000000000,0.000000000,0.018123520,0.010047533,0.071760107,0.022118085,-0.005460035,-0.003178886,0.005349779,-0.001914590,-0.000833071,-0.096197275,0.350011433,1.349013271,-0.000803460,-0.003064094,0.011769456,0.999924715,0.000000000,0.000000000,0.000000000,0.000000000,0.000000000,0.000000000,1.349417359,0.000000000,4.212316990
1772717037.280897617,0.017690000,0.010154000,0.071816000,-0.002201160,0.006693700,0.017798620,0.999816760,-0.004164000,0.013464000,0.035572000,-0.000173850,0.000214117,0.000381130,0.001600279,-0.010764543,-0.001612279,0.012327106,-0.007105242,0.997870544,0.002882662,-0.002099109,-0.000060401,0.000000000,0.000000000,0.000000000,0.000000000,0.018128358,0.010049615,0.071767427,0.022028323,-0.005460373,-0.003106884,0.006692916,-0.001472030,-0.001504319,-0.094933714,0.348408013,1.347500461,-0.000792639,-0.003049962,0.011756301,0.999924900,0.000000000,0.000000000,0.000000000,0.000000000,0.000000000,0.000000000,1.347840335,0.000000000,4.212316990
1772717037.290897846,0.017704000,0.010164000,0.071826000,-0.002178230,0.006415140,0.017844300,0.999817820,-0.004127000,0.012906000,0.035665000,-0.000134049,0.000205318,0.000311648,0.002117853,-0.005667928,-0.000582755,0.014791528,-0.004143588,0.998814905,-0.000127395,-0.000094862,-0.000823450,0.000000000,0.000000000,0.000000000,0.000000000,0.018132502,0.010047605,0.071768762,0.022171753,-0.005741233,-0.003127998,0.008665384,-0.000924320,-0.001561859,-0.093868822,0.348527451,1.345821481,-0.000783379,-0.003050884,0.011741678,0.999925079,0.000000000,0.000000000,0.000000000,0.000000000,0.000000000,0.000000000,1.346260697,0.000000000,4.212316990
1772717037.300897837,0.017691000,0.010155000,0.071824000,-0.002168710,0.006471800,0.017809620,0.999818100,-0.004106000,0.013019000,0.035595000,0.000066549,-0.000086867,-0.000053903,0.001582607,-0.000184428,-0.000040192,0.014071344,-0.005120041,0.999058535,0.000942192,0.000981847,-0.002144123,0.000000000,0.000000000,0.000000000,0.000000000,0.018134909,0.010042817,0.071761997,0.022381351,-0.005724448,-0.003136320,0.008056226,-0.003698470,0.000016017,-0.093613967,0.347937354,1.345076380,-0.000781236,-0.003045703,0.011735187,0.999925207,0.000000000,0.000000000,0.000000000,0.000000000,0.000000000,0.000000000,1.345207131,0.000000000,4.212316990
1772717037.310898066,0.017692000,0.010159000,0.071827000,-0.002214970,0.006600170,0.017845810,0.999816510,-0.004194000,0.013277000,0.035667000,-0.000066315,-0.000166546,-0.000166818,0.000998130,-0.000584624,0.002702330,0.013141496,-0.005171853,0.997526363,0.003443332,0.001762833,-0.000979871,0.000000000,0.000000000,0.000000000,0.000000000,0.018129157,0.010047918,0.071756792,0.022494931,-0.005823633,-0.003090479,0.006580773,-0.003242951,-0.003551015,-0.092572564,0.346817975,1.343675126,-0.000772300,-0.003035820,0.011722995,0.999925333,0.000000000,0.000000000,0.000000000,0.000000000,0.000000000,0.000000000,1.344334178,0.000000000,4.212316990
1772717037.320898294,0.017686000,0.010168000,0.071817000,-0.002223870,0.006520980,0.017812300,0.999817610,-0.004215000,0.013119000,0.035600000,0.000074299,-0.000366930,-0.000068297,0.000724364,0.000329263,0.001559664,0.014099990,-0.004015704,0.997368692,0.001772427,0.000119253,-0.001633592,0.000000000,0.000000000,0.000000000,0.000000000,0.018129378,0.010046314,0.071754168,0.022562862,-0.005919021,-0.003249220,0.008620533,-0.002831789,-0.002192574,-0.091030711,0.345642755,1.341805314,-0.000759015,-0.003025395,0.011706728,0.999925564,0.000000000,0.000000000,0.000000000,0.000000000,0.000000000,0.000000000,1.342525142,0.000000000,4.212316990
1772717037.330899000,0.017694000,0.010152000,0.071810000,-0.002180300,0.006635270,0.017873470,0.999815860,-0.004123000,0.013346000,0.035722000,0.000105689,-0.000328800,0.000142887,0.003679693,0.001745934,0.001131779,0.013831554,-0.002319215,0.998655800,0.001884589,0.002215154,-0.002512477,0.000000000,0.000000000,0.000000000,0.000000000,0.018128817,0.010044324,0.071754354,0.022702716,-0.005949166,-0.003317673,0.007808618,-0.000965655,-0.001585799,-0.089445781,0.344867177,1.339893856,-0.000745315,-0.003018453,0.011690096,0.999925776,0.000000000,0.000000000,0.000000000,0.000000000,0.000000000,0.000000000,1.340678897,0.000000000,4.212316990
1772717037.340898752,0.017702000,0.010143000,0.071818000,-0.002129920,0.006527460,0.017855510,0.999817000,-0.004026000,0.013129000,0.035687000,0.000182979,-0.000055574,0.000246576,0.004222923,0.001913313,-0.001646689,0.012127086,-0.003506723,0.998984707,0.000632102,-0.001616723,0.001458694,0.000000000,0.000000000,0.000000000,0.000000000,0.018135749,0.010048225,0.071759623,0.022809550,-0.005780227,-0.003271653,0.005826732,-0.001455493,-0.001273787,-0.087845581,0.344235016,1.337967676,-0.000731467,-0.003012761,0.011673335,0.999926007,0.000000000,0.000000000,0.000000000,0.000000000,0.000000000,0.000000000,1.338680689,0.000000000,4.212316990
1772717037.350898743,0.017693000,0.010146000,0.071833000,-0.002168100,0.006392300,0.017845300,0.999817980,-0.004108000,0.012860000,0.035667000,-0.000038325,0.000128124,0.000099512,0.001699934,-0.000815506,-0.003905891,0.012375682,-0.004165138,0.998005068,0.000604653,-0.002762251,-0.000270061,0.000000000,0.000000000,0.000000000,0.000000000,0.018133311,0.010047415,0.071761566,0.022753073,-0.005732157,-0.003249672,0.006946918,-0.003098640,-0.001820357,-0.086918317,0.344397209,1.336384494,-0.000723401,-0.003014072,0.011659544,0.999926197,0.000000000,0.000000000,0.000000000,0.000000000,0.000000000,0.000000000,1.336727496,0.000000000,4.212316990
1772717037.360898495,0.017698000,0.010155000,0.071831000,-0.002097680,0.006610770,0.017803970,0.999817440,-0.003960000,0.013294000,0.035584000,-0.000224296,0.000289290,-0.000129096,-0.000360878,0.000772175,-0.004021542,0.011989227,-0.004657847,0.996845852,0.001106811,0.000274182,-0.001715646,0.000000000,0.000000000,0.000000000,0.000000000,0.018131859,0.010049437,0.071762412,0.022745058,-0.005773093,-0.003320160,0.005548527,-0.002368353,-0.003022417,-0.086476501,0.345712823,1.334591510,-0.000719459,-0.003025495,0.011643901,0.999926336,0.000000000,0.000000000,0.000000000,0.000000000,0.000000000,0.000000000,1.335028726,0.000000000,4.212316990
