t,px,py,pz,qx,qy,qz,qw,roll,pitch,yaw,vx,vy,vz,wx_vicon,wy_vicon,wz_vicon,imu_acc_x,imu_acc_y,imu_acc_z,imu_gyro_x,imu_gyro_y,imu_gyro_z,motor_motor_m1,motor_motor_m2,motor_motor_m3,motor_motor_m4,est_stateEstimate_x,est_stateEstimate_y,est_stateEstimate_z,est_stateEstimate_vx,est_stateEstimate_vy,est_stateEstimate_vz,est_stateEstimate_ax,est_stateEstimate_ay,est_stateEstimate_az,att_stateEstimate_roll,att_stateEstimate_pitch,att_stateEstimate_yaw,att_stateEstimate_qx,att_stateEstimate_qy,att_stateEstimate_qz,att_stateEstimate_qw,sp_ctrltarget_x,sp_ctrltarget_y,sp_ctrltarget_z,sp_ctrltarget_yaw,pid_controller_roll,pid_controller_pitch,pid_controller_yaw,pid_controller_cmd_thrust,pwr_pm_vbat
1772715892.323137522,0.018817000,0.008664000,0.056262000,-0.002257070,0.008929470,0.048042370,0.998802830,-0.003651000,0.018055000,0.096093000,0.001409083,-0.001641454,-0.000339631,-0.004454865,0.016656000,-0.031760754,0.007027229,-0.003871198,0.997025448,0.002156663,-0.000847497,0.000857198,0.000000000,0.000000000,0.000000000,0.000000000,0.018997818,0.008661424,0.056240720,0.019230540,-0.000043726,-0.001086980,0.006502470,-0.000152343,-0.003659687,-0.215377347,-0.001160516,4.421724875,-0.001878511,-0.000062387,0.038577172,0.999252859,0.000000000,0.000000000,0.000000000,0.000000000,0.000000000,0.000000000,4.426420267,0.000000000,4.131790368
1772715892.333137512,0.018829000,0.008644000,0.056250000,-0.002233350,0.008941410,0.047949430,0.998807250,-0.003605000,0.018077000,0.095907000,-0.000151566,-0.000182431,-0.000587987,-0.006449139,-0.011280397,-0.004663303,0.007131848,-0.003996645,0.997513108,0.002052534,-0.000893016,0.001146940,0.000000000,0.000000000,0.000000000,0.000000000,0.018999970,0.008659004,0.056242641,0.019271669,-0.000021422,-0.001215599,0.007391695,-0.000000185,-0.001008496,-0.215135155,-0.000862261,4.422891106,-0.001876297,-0.000064925,0.038587336,0.999252498,0.000000000,0.000000000,0.000000000,0.000000000,0.000000000,0.000000000,4.428628882,0.000000000,4.131501572
1772715892.343137503,0.018810000,0.008645000,0.056251000,-0.002306340,0.009184570,0.047920500,0.998806260,-0.003728000,0.018569000,0.095847000,-0.000809811,0.000541894,-0.000566310,-0.004634515,-0.019347163,0.009776542,0.007104966,-0.004198899,0.997777453,0.001593808,-0.001107574,0.000846061,0.000000000,0.000000000,0.000000000,0.000000000,0.019000531,0.008658209,0.056241661,0.019285695,-0.000018070,-0.001258986,0.007244686,-0.000152606,-0.001064926,-0.214892962,-0.000564007,4.424057338,-0.001874084,-0.000067463,0.038597501,0.999252141,0.000000000,0.000000000,0.000000000,0.000000000,0.000000000,0.000000000,4.430130700,0.000000000,4.131212777
1772715892.353138447,0.018814000,0.008669000,0.056253000,-0.002300830,0.008557170,0.048081270,0.998804120,-0.003774000,0.017316000,0.096171000,-0.000811093,0.000709135,-0.000367601,-0.000523703,-0.013228609,0.014576338,0.007078081,-0.004401172,0.998041822,0.001135039,-0.001322151,0.000545153,0.000000000,0.000000000,0.000000000,0.000000000,0.019001091,0.008657414,0.056240681,0.019299722,-0.000014718,-0.001302378,0.007097663,-0.000305041,-0.001121361,-0.214650747,-0.000265724,4.425223681,-0.001871871,-0.000070002,0.038607666,0.999251783,0.000000000,0.000000000,0.000000000,0.000000000,0.000000000,0.000000000,4.431632662,0.000000000,4.130923953
1772715892.363138676,0.018808000,0.008680000,0.056239000,-0.002336100,0.008540210,0.048113100,0.998802650,-0.003845000,0.017286000,0.096234000,-0.000400855,0.000496908,-0.000084864,0.004350654,0.001390310,0.012742432,0.007051198,-0.004603430,0.998306173,0.000676303,-0.001536714,0.000244266,0.000000000,0.000000000,0.000000000,0.000000000,0.019001651,0.008656619,0.056239701,0.019313748,-0.000011366,-0.001345766,0.006950650,-0.000457466,-0.001177792,-0.214408548,0.000032538,4.426389940,-0.001869658,-0.000072540,0.038617831,0.999251425,0.000000000,0.000000000,0.000000000,0.000000000,0.000000000,0.000000000,4.433134516,0.000000000,4.130635151
1772715892.373138666,0.018793000,0.008658000,0.056233000,-0.002253790,0.009044550,0.048127750,0.998797700,-0.003632000,0.018285000,0.096264000,0.000175458,0.000082824,0.000188899,0.008467783,0.018827827,0.007292152,0.007024316,-0.004805684,0.998570517,0.000217578,-0.001751271,-0.000056613,0.000000000,0.000000000,0.000000000,0.000000000,0.019002211,0.008655823,0.056238721,0.019327773,-0.000008014,-0.001389154,0.006803641,-0.000609886,-0.001234222,-0.214166356,0.000330792,4.427556172,-0.001867445,-0.000075079,0.038627996,0.999251067,0.000000000,0.000000000,0.000000000,0.000000000,0.000000000,0.000000000,4.434636334,0.000000000,4.130346355
1772715892.383138895,0.018811000,0.008670000,0.056249000,-0.002194550,0.008927640,0.048207400,0.998795040,-0.003524000,0.018046000,0.096424000,0.000475949,-0.000358317,0.000199913,0.008369364,0.025977774,0.004780455,0.006997433,-0.005007943,0.998834868,-0.000241159,-0.001965833,-0.000357500,0.000000000,0.000000000,0.000000000,0.000000000,0.019002771,0.008655028,0.056237741,0.019341799,-0.000004662,-0.001432543,0.006656628,-0.000762311,-0.001290653,-0.213853878,0.000751916,4.429541865,-0.001864577,-0.000078678,0.038645303,0.999250607,0.000000000,0.000000000,0.000000000,0.000000000,0.000000000,0.000000000,4.436138188,0.000000000,4.130057552
1772715892.393139124,0.018817000,0.008655000,0.056260000,-0.002151480,0.009193050,0.048142250,0.998795870,-0.003413000,0.018572000,0.096294000,0.000240976,-0.000465732,0.000049512,0.002696285,0.031637726,0.004224954,0.006636691,-0.004711140,0.999115746,0.000067988,-0.000461495,0.001109488,0.000000000,0.000000000,0.000000000,0.000000000,0.019003332,0.008654233,0.056236761,0.019355825,-0.000001310,-0.001475931,0.006509616,-0.000914735,-0.001347084,-0.213496248,0.001251975,4.432054027,-0.001861288,-0.000082959,0.038667199,0.999249638,0.000000000,0.000000000,0.000000000,0.000000000,0.000000000,0.000000000,4.437640042,0.000000000,4.129768749
1772715892.403139591,0.018819000,0.008649000,0.056243000,-0.002195510,0.009422140,0.048099280,0.998795710,-0.003480000,0.019034000,0.096207000,-0.000172952,-0.000195989,-0.000281494,-0.001949229,0.027298738,0.001164503,0.005828115,-0.003697149,0.999428117,0.001513562,0.003409123,0.004952584,0.000000000,0.000000000,0.000000000,0.000000000,0.019006085,0.008660642,0.056236402,0.019446886,-0.000005772,-0.001488752,0.006372968,-0.000177835,-0.000581947,-0.213390409,0.001264229,4.435604228,-0.001860358,-0.000083087,0.038698155,0.999248492,0.000000000,0.000000000,0.000000000,0.000000000,0.000000000,0.000000000,4.439428421,0.000000000,4.129479940
1772715892.413139105,0.018821000,0.008671000,0.056250000,-0.002203990,0.009194520,0.048258790,0.998790110,-0.003516000,0.018581000,0.096527000,-0.000349246,0.000204186,-0.000324072,-0.007450479,0.020372077,-0.001107354,0.006894864,-0.003531094,1.000029062,0.003002465,0.000104686,-0.000941638,0.000000000,0.000000000,0.000000000,0.000000000,0.019002476,0.008658979,0.056231919,0.019448507,-0.000008339,-0.001516564,0.006564280,0.000592739,0.000053210,-0.213907426,0.000176107,4.441755314,-0.001865230,-0.000073874,0.038751811,0.999246295,0.000000000,0.000000000,0.000000000,0.000000000,0.000000000,0.000000000,4.443635623,0.000000000,4.129191158
1772715892.423139811,0.018803000,0.008650000,0.056237000,-0.002295290,0.009397290,0.048243120,0.998788780,-0.003679000,0.018994000,0.096493000,-0.000387259,0.000073384,-0.000179945,-0.006389306,0.022027829,-0.006562160,0.006686163,-0.004823249,0.999735389,0.000937612,-0.000546197,-0.001581912,0.000000000,0.000000000,0.000000000,0.000000000,0.018996720,0.008657208,0.056226747,0.019445596,0.000029527,-0.001504656,0.006876235,0.000144898,-0.000228696,-0.214123969,0.000355108,4.446662041,-0.001867054,-0.000075588,0.038794596,0.999245017,0.000000000,0.000000000,0.000000000,0.000000000,0.000000000,0.000000000,4.451520515,0.000000000,4.128902342
1772715892.433139801,0.018795000,0.008659000,0.056230000,-0.002327590,0.009643500,0.048173140,0.998789730,-0.003721000,0.019489000,0.096352000,0.000057942,0.000088865,0.000173030,-0.002754716,0.004451621,-0.006300964,0.005772340,-0.005122185,0.999590589,-0.001345194,-0.000640607,-0.000172989,0.000000000,0.000000000,0.000000000,0.000000000,0.018991610,0.008658264,0.056222626,0.019470708,0.000090078,-0.001459485,0.006419529,-0.001207687,-0.000274104,-0.214882035,0.001062995,4.449990795,-0.001873423,-0.000082072,0.038823614,0.999243656,0.000000000,0.000000000,0.000000000,0.000000000,0.000000000,0.000000000,4.451766262,0.000000000,4.128613546
1772715892.443140030,0.018796000,0.008663000,0.056239000,-0.002281360,0.009785120,0.047999990,0.998796800,-0.003619000,0.019767000,0.096006000,0.000430904,0.000161298,0.000656108,0.001458601,-0.019934757,-0.003471332,0.004755801,-0.003924505,0.999588267,-0.001837204,0.000234947,0.002554401,0.000000000,0.000000000,0.000000000,0.000000000,0.018988781,0.008661001,0.056224078,0.019495893,0.000039650,-0.001432592,0.005193884,-0.000244558,-0.000250903,-0.216078572,0.001270960,4.454288304,-0.001883783,-0.000084361,0.038861086,0.999242110,0.000000000,0.000000000,0.000000000,0.000000000,0.000000000,0.000000000,4.457451774,0.000000000,4.128324743
1772715892.453140259,0.018826000,0.008670000,0.056266000,-0.002320000,0.009296520,0.048129550,0.998795140,-0.003740000,0.018795000,0.096266000,0.000403206,0.000307387,0.000450911,0.001640046,-0.037910909,0.001008526,0.005727433,-0.002750014,0.998753072,0.003152119,0.003769459,0.003994550,0.000000000,0.000000000,0.000000000,0.000000000,0.019000712,0.008665492,0.056237021,0.019457564,-0.000002986,-0.001321689,0.005217851,0.001363236,-0.001185215,-0.216678974,0.000770926,4.459955749,-0.001889184,-0.000080298,0.038910514,0.999240225,0.000000000,0.000000000,0.000000000,0.000000000,0.000000000,0.000000000,4.463161589,0.000000000,4.128035940
1772715892.463140726,0.018821000,0.008652000,0.056253000,-0.002224920,0.009323650,0.048033680,0.998799720,-0.003549000,0.018840000,0.096075000,0.000171903,0.000318109,0.000073404,0.004016405,-0.051605381,0.008079836,0.003490391,-0.002045588,0.998750905,0.001729214,-0.001272064,0.001115461,0.000000000,0.000000000,0.000000000,0.000000000,0.019005179,0.008661171,0.056239426,0.019430044,0.000059550,-0.001325675,0.004873951,0.001320450,-0.000886345,-0.215744029,0.000575879,4.465632259,-0.001881093,-0.000078373,0.038960017,0.999238253,0.000000000,0.000000000,0.000000000,0.000000000,0.000000000,0.000000000,4.466658918,0.000000000,4.128065047
1772715892.473141193,0.018821000,0.008666000,0.056252000,-0.002204250,0.008807670,0.048245560,0.998794240,-0.003554000,0.017808000,0.096501000,-0.000234313,-0.000024843,-0.000393533,0.003755720,-0.035508185,0.008920459,0.006909021,-0.004989393,1.000924172,0.000033806,0.002666220,0.000619561,0.000000000,0.000000000,0.000000000,0.000000000,0.019007111,0.008662501,0.056239471,0.019277714,0.000245220,-0.001393184,0.005818161,0.000191780,-0.000096924,-0.215784868,0.001252397,4.471093439,-0.001881216,-0.000084375,0.039007621,0.999236371,0.000000000,0.000000000,0.000000000,0.000000000,0.000000000,0.000000000,4.471914726,0.000000000,4.128596144
1772715892.483141661,0.018810000,0.008682000,0.056258000,-0.002219490,0.008560130,0.048274330,0.998794970,-0.003608000,0.017315000,0.096559000,-0.000382538,-0.000381334,-0.000639850,0.000231708,0.000352546,0.000681080,0.007220283,-0.005171358,0.999583359,-0.000691976,-0.000826185,-0.000043785,0.000000000,0.000000000,0.000000000,0.000000000,0.019003383,0.008671607,0.056241611,0.019200982,0.000310652,-0.001302104,0.007408316,-0.000703324,-0.000018304,-0.216286243,0.001528480,4.476952073,-0.001885489,-0.000087050,0.039058708,0.999234364,0.000000000,0.000000000,0.000000000,0.000000000,0.000000000,0.000000000,4.479573198,0.000000000,4.129127242
1772715892.493141890,0.018795000,0.008665000,0.056228000,-0.002254160,0.008899550,0.048191040,0.998795950,-0.003646000,0.017996000,0.096391000,-0.000376964,-0.000450115,-0.000309989,-0.002390737,0.023770680,-0.007010838,0.007133748,-0.004546533,1.002912681,0.000737278,-0.001198395,0.001353549,0.000000000,0.000000000,0.000000000,0.000000000,0.018994568,0.008671990,0.056232432,0.019249689,0.000248288,-0.001285611,0.006950897,-0.000297944,0.001337945,-0.216672285,0.003124185,4.481735888,-0.001888307,-0.000101175,0.039100397,0.999232709,0.000000000,0.000000000,0.000000000,0.000000000,0.000000000,0.000000000,4.485786942,0.000000000,4.129658327
1772715892.503142357,0.018805000,0.008648000,0.056232000,-0.002145690,0.009033800,0.048150250,0.998796950,-0.003417000,0.018254000,0.096311000,-0.000110931,-0.000412199,0.000204730,-0.002472246,0.029739091,-0.009355044,0.006397378,-0.004818379,1.000240261,0.001036866,-0.002849520,0.000368248,0.000000000,0.000000000,0.000000000,0.000000000,0.018992182,0.008662927,0.056225934,0.019341720,0.000157439,-0.001108166,0.006191789,-0.000178854,0.001489412,-0.216479127,0.004659919,4.486965904,-0.001886094,-0.000114587,0.039145978,0.999230865,0.000000000,0.000000000,0.000000000,0.000000000,0.000000000,0.000000000,4.489071938,0.000000000,4.130189424
1772715892.513143301,0.018812000,0.008653000,0.056247000,-0.002272590,0.009387340,0.048074900,0.998797040,-0.003638000,0.018972000,0.096157000,-0.000008527,-0.000228505,0.000252125,-0.000993281,0.027557083,-0.009514778,0.005007394,-0.004703668,1.000999125,0.003289133,-0.002416284,0.002443793,0.000000000,0.000000000,0.000000000,0.000000000,0.018994873,0.008658367,0.056229345,0.019383507,0.000126965,-0.000920981,0.005502701,-0.000642026,0.000364611,-0.216417648,0.006734300,4.491302688,-0.001884844,-0.000132725,0.039183755,0.999229427,0.000000000,0.000000000,0.000000000,0.000000000,0.000000000,0.000000000,4.495671965,0.000000000,4.130720547
1772715892.523144245,0.018813000,0.008643000,0.056250000,-0.002360650,0.009420810,0.047985410,0.998800820,-0.003812000,0.019047000,0.095976000,0.000017559,0.000337863,0.000224213,-0.001932101,-0.001401426,0.001501206,0.006081756,-0.005126644,1.001234019,0.001075294,0.000707600,-0.000117322,0.000000000,0.000000000,0.000000000,0.000000000,0.018997980,0.008653165,0.056235112,0.019318589,0.000074119,-0.000766650,0.005084999,-0.000579340,0.001185066,-0.215824318,0.007844763,4.496388568,-0.001879284,-0.000142289,0.039228086,0.999227641,0.000000000,0.000000000,0.000000000,0.000000000,0.000000000,0.000000000,4.497743334,0.000000000,4.131251670
1772715892.533144236,0.018800000,0.008667000,0.056258000,-0.002256520,0.009020900,0.048145460,0.998797050,-0.003640000,0.018238000,0.096299000,0.000195562,0.000817639,0.000157025,-0.001965259,-0.034374699,0.013295485,0.006029317,-0.005238479,1.001840404,-0.000571656,0.003659741,-0.001167347,0.000000000,0.000000000,0.000000000,0.000000000,0.018995846,0.008655324,0.056241574,0.019231714,0.000034939,-0.000606344,0.005502293,-0.000779846,0.001220353,-0.216121115,0.007964560,4.499845209,-0.001881827,-0.000143492,0.039258225,0.999226467,0.000000000,0.000000000,0.000000000,0.000000000,0.000000000,0.000000000,4.505315606,0.000000000,4.131782742
1772715892.543144464,0.018801000,0.008666000,0.056245000,-0.002193080,0.009100660,0.048125050,0.998797450,-0.003506000,0.018392000,0.096259000,0.000078920,0.000547702,-0.000187870,-0.001544388,-0.033863797,0.012282715,0.007279521,-0.003856759,1.003042278,0.000538368,0.002707774,-0.000947128,0.000000000,0.000000000,0.000000000,0.000000000,0.019096923,0.008659320,0.056242885,0.019472682,-0.000022119,-0.000425616,0.006831319,-0.000042952,0.002101092,-0.215964252,0.005973276,4.504358219,-0.001881137,-0.000126149,0.039297616,0.999224849,0.000000000,0.000000000,0.000000000,0.000000000,0.000000000,0.000000000,4.504683495,0.000000000,4.132313827
1772715892.553145409,0.018810000,0.008679000,0.056239000,-0.002294360,0.008843750,0.048247860,0.998793610,-0.003730000,0.017889000,0.096504000,0.000298626,0.000241519,-0.000122061,0.001509145,-0.029576267,0.010338527,0.007547194,-0.003487485,1.000392776,0.000469294,-0.001960262,-0.000551783,0.000000000,0.000000000,0.000000000,0.000000000,0.018996884,0.008668444,0.056240773,0.018831154,0.000033141,-0.000128616,0.007505339,0.000878577,0.001294190,-0.215619737,0.008051908,4.504511845,-0.001877418,-0.000144159,0.039298921,0.999225323,0.000000000,0.000000000,0.000000000,0.000000000,0.000000000,0.000000000,4.509125411,0.000000000,4.132844950
1772715892.563145638,0.018812000,0.008674000,0.056242000,-0.002275980,0.008547140,0.048352090,0.998791190,-0.003720000,0.017295000,0.096714000,0.000262090,-0.000070276,0.000068781,0.000129181,-0.005753088,-0.000811276,0.005029642,-0.003157130,1.000350233,0.000858833,-0.001383005,-0.002615242,0.000000000,0.000000000,0.000000000,0.000000000,0.018968867,0.008672879,0.056241342,0.018928123,0.000141645,0.000051783,0.005234493,0.001126081,0.000252318,-0.216298088,0.012745891,4.517517121,-0.001881703,-0.000185536,0.039412244,0.999220375,0.000000000,0.000000000,0.000000000,0.000000000,0.000000000,0.000000000,4.521037997,0.000000000,4.133137703
1772715892.573145866,0.018828000,0.008669000,0.056250000,-0.002235900,0.008574290,0.048319390,0.998792630,-0.003638000,0.017345000,0.096649000,0.000283417,-0.000317662,0.000118720,-0.002734601,0.015199418,-0.012009987,0.005004380,-0.003446444,1.000216025,-0.000279784,-0.001027197,-0.000386278,0.000000000,0.000000000,0.000000000,0.000000000,0.018991163,0.008672133,0.056245934,0.019003369,0.000254475,0.000088466,0.004671612,0.000706366,0.000757664,-0.216556571,0.012380814,4.522438437,-0.001884075,-0.000182522,0.039455165,0.999218760,0.000000000,0.000000000,0.000000000,0.000000000,0.000000000,0.000000000,4.525602915,0.000000000,4.133137703
1772715892.583146334,0.018806000,0.008658000,0.056252000,-0.002287680,0.009102550,0.048038220,0.998801400,-0.003696000,0.018404000,0.096084000,-0.000007148,-0.000026922,0.000274851,-0.001119093,0.009989245,-0.011077124,0.006909973,-0.003757344,1.000213935,0.002829199,0.002120912,0.001349794,0.000000000,0.000000000,0.000000000,0.000000000,0.019152618,0.008674560,0.056247015,0.019378795,0.000316095,0.000126606,0.006141980,0.000895175,-0.000089376,-0.217178503,0.011375346,4.524061127,-0.001889842,-0.000173996,0.039469333,0.999217757,0.000000000,0.000000000,0.000000000,0.000000000,0.000000000,0.000000000,4.525813103,0.000000000,4.133137703
1772715892.593147039,0.018819000,0.008673000,0.056253000,-0.002240690,0.008791700,0.048170450,0.998797920,-0.003630000,0.017779000,0.096350000,-0.000302822,0.000076259,-0.000043996,0.003401520,0.002538137,-0.008726314,0.007145273,-0.004573457,0.999214995,-0.000112036,-0.001701435,0.003308615,0.000000000,0.000000000,0.000000000,0.000000000,0.019344628,0.008677961,0.056248462,0.019942555,0.000377939,0.000169458,0.006972619,0.000085295,-0.000043972,-0.216543085,0.010632070,4.519761782,-0.001884564,-0.000167225,0.039431857,0.999219349,0.000000000,0.000000000,0.000000000,0.000000000,0.000000000,0.000000000,4.522213884,0.000000000,4.133137703
1772715892.603148222,0.018806000,0.008664000,0.056246000,-0.002291870,0.009117150,0.047962460,0.998804900,-0.003704000,0.018433000,0.095932000,-0.000254184,-0.000015190,-0.000124897,0.001358100,-0.003847712,-0.002542426,0.005876396,-0.004254300,1.001167411,-0.001286861,0.001255393,-0.001484566,0.000000000,0.000000000,0.000000000,0.000000000,0.019529401,0.008681510,0.056249701,0.020553843,0.000399119,0.000109743,0.006276592,-0.000514914,0.000716963,-0.215982920,0.010451893,4.516247247,-0.001879746,-0.000165403,0.039401210,0.999220481,0.000000000,0.000000000,0.000000000,0.000000000,0.000000000,0.000000000,4.517460346,0.000000000,4.133137703
1772715892.613149166,0.018820000,0.008673000,0.056245000,-0.002312390,0.008913270,0.048090210,0.998800550,-0.003763000,0.018029000,0.096188000,-0.000251581,-0.000285282,-0.000115321,-0.000058368,0.000354337,0.004930956,0.006947609,-0.003650736,1.000055892,0.000910228,0.002727557,-0.000326691,0.000000000,0.000000000,0.000000000,0.000000000,0.019723595,0.008685132,0.056250929,0.021135752,0.000379131,0.000147643,0.006419744,0.000561465,0.000611276,-0.215186289,0.009357859,4.511602628,-0.001873182,-0.000155514,0.039360732,0.999222128,0.000000000,0.000000000,0.000000000,0.000000000,0.000000000,0.000000000,4.514567512,0.000000000,4.133137703
1772715892.623150110,0.018802000,0.008674000,0.056252000,-0.002205940,0.008516360,0.048233660,0.998797340,-0.003586000,0.017226000,0.096478000,-0.000098772,-0.000512933,-0.000125732,-0.000764883,0.026807958,0.002425810,0.007525537,-0.002138874,0.999328614,0.000246389,-0.000358051,0.002896789,0.000000000,0.000000000,0.000000000,0.000000000,0.019938969,0.008688999,0.056252723,0.021765240,0.000389600,0.000210261,0.007358131,0.001897173,-0.000362472,-0.214888206,0.013363702,4.508722172,-0.001869210,-0.000190295,0.039335548,0.999223340,0.000000000,0.000000000,0.000000000,0.000000000,0.000000000,0.000000000,4.507780075,0.000000000,4.133137703
1772715892.633150339,0.018801000,0.008656000,0.056238000,-0.002186730,0.008892490,0.048122490,0.998799460,-0.003513000,0.017975000,0.096255000,-0.000174759,-0.000436382,-0.000010664,-0.002752271,0.051719739,-0.002894766,0.005287134,-0.002866954,0.998154590,-0.000741830,0.005023390,-0.006051062,0.000000000,0.000000000,0.000000000,0.000000000,0.019412303,0.008679066,0.056253788,0.017352329,0.000450142,0.000180158,0.006011408,0.000967044,-0.001174003,-0.217305648,0.044057812,4.515738090,-0.001879726,-0.000458889,0.039396209,0.999218198,0.000000000,0.000000000,0.000000000,0.000000000,0.000000000,0.000000000,4.510489693,0.000000000,4.133137703
1772715892.643151283,0.018813000,0.008643000,0.056255000,-0.002370220,0.009446700,0.048084060,0.998795810,-0.003827000,0.019100000,0.096173000,0.000007867,0.000021017,0.000046929,-0.004875641,0.041124713,-0.002075709,0.006077893,-0.004959524,0.998255092,0.001090108,0.000078877,0.001173456,0.000000000,0.000000000,0.000000000,0.000000000,0.018939181,0.008668029,0.056247898,0.014712641,0.000561404,0.000035998,0.004800777,-0.000477677,-0.001504586,-0.218766897,0.047821525,4.530766205,-0.001891115,-0.000492458,0.039527186,0.999216602,0.000000000,0.000000000,0.000000000,0.000000000,0.000000000,0.000000000,4.526130969,0.000000000,4.133137703
1772715892.653151274,0.018801000,0.008655000,0.056244000,-0.002363450,0.009751360,0.048102720,0.998792000,-0.003784000,0.019708000,0.096210000,-0.000105939,0.000403924,0.000020512,-0.005661222,0.022728823,-0.002083429,0.004806395,-0.003722858,1.000083670,0.000591078,-0.002262724,-0.001064264,0.000000000,0.000000000,0.000000000,0.000000000,0.018840696,0.008660193,0.056245219,0.014872117,0.000580615,-0.000116929,0.004669792,0.000252519,-0.000883122,-0.218288002,0.035243098,4.557274778,-0.001891186,-0.000383049,0.039758551,0.999207545,0.000000000,0.000000000,0.000000000,0.000000000,0.000000000,0.000000000,4.554443335,0.000000000,4.133137703
1772715892.663151503,0.018807000,0.008664000,0.056242000,-0.002369400,0.009856070,0.047985660,0.998796590,-0.003788000,0.019917000,0.095975000,0.000075754,0.000629516,0.000053999,-0.002534355,-0.016751690,0.006529232,0.004476283,-0.002691109,1.000804232,0.000516575,0.000298245,-0.001727354,0.000000000,0.000000000,0.000000000,0.000000000,0.018870094,0.008658588,0.056245372,0.015314678,0.000576185,-0.000185872,0.003820357,0.001140948,0.001029395,-0.218257572,0.031039450,4.561800542,-0.001892364,-0.000346458,0.039798080,0.999205015,0.000000000,0.000000000,0.000000000,0.000000000,0.000000000,0.000000000,4.562623415,0.000000000,4.133137703
1772715892.673152208,0.018807000,0.008679000,0.056254000,-0.002366340,0.009251840,0.048180230,0.998793010,-0.003836000,0.018710000,0.096366000,-0.000013150,0.000658031,0.000305755,0.002221485,-0.061658484,0.012506220,0.005243721,-0.003525930,1.000239964,-0.000040618,0.002399163,-0.000932449,0.000000000,0.000000000,0.000000000,0.000000000,0.018945376,0.008664856,0.056243084,0.015635240,0.000668587,-0.000158309,0.004214445,0.001453826,0.000845174,-0.218439264,0.027130803,4.565035840,-0.001895297,-0.000312493,0.039826353,0.999203862,0.000000000,0.000000000,0.000000000,0.000000000,0.000000000,0.000000000,4.565489905,0.000000000,4.133137703
1772715892.683152914,0.018805000,0.008678000,0.056249000,-0.002344370,0.008766460,0.048218080,0.998795610,-0.003838000,0.017739000,0.096444000,0.000243481,0.000271199,0.000359948,0.006173787,-0.083398323,0.015200176,0.005283880,-0.004652550,0.999690297,-0.001505007,-0.000663804,0.002034819,0.000000000,0.000000000,0.000000000,0.000000000,0.019069795,0.008673199,0.056243384,0.015995470,0.000783568,-0.000088614,0.005086492,-0.001338389,-0.001314229,-0.218950454,0.024389119,4.568530024,-0.001900699,-0.000288821,0.039856869,0.999202701,0.000000000,0.000000000,0.000000000,0.000000000,0.000000000,0.000000000,4.569059838,0.000000000,4.133137703
1772715892.693153620,0.018802000,0.008676000,0.056253000,-0.002247040,0.008638200,0.048327530,0.998791660,-0.003654000,0.017474000,0.096665000,0.000347187,-0.000343535,0.000454544,0.006481053,-0.063120396,0.010799601,0.004209505,-0.004454509,1.000004112,-0.001048782,-0.001272466,0.003413552,0.000000000,0.000000000,0.000000000,0.000000000,0.019068990,0.008682511,0.056247846,0.016174678,0.000779704,-0.000094314,0.003288058,-0.000531067,0.000476794,-0.219461363,0.023820882,4.572684676,-0.001905341,-0.000284113,0.039893101,0.999201309,0.000000000,0.000000000,0.000000000,0.000000000,0.000000000,0.000000000,4.576010330,0.000000000,4.133137703
1772715892.703153610,0.018816000,0.008664000,0.056259000,-0.002192920,0.008373420,0.048345480,0.998793170,-0.003571000,0.016939000,0.096702000,0.000196067,-0.000374458,0.000150615,0.006473316,-0.024280941,0.005487338,0.003756452,-0.003751353,0.999970166,0.000917877,0.003141013,0.002268654,0.000000000,0.000000000,0.000000000,0.000000000,0.018952882,0.008681585,0.056250193,0.015975478,0.000700270,-0.000131059,0.003939346,0.000404314,-0.000712859,-0.219036229,0.022658868,4.576552966,-0.001902030,-0.000273897,0.039926854,0.999199926,0.000000000,0.000000000,0.000000000,0.000000000,0.000000000,0.000000000,4.578367213,0.000000000,4.133137703
1772715892.713153839,0.018815000,0.008673000,0.056269000,-0.002223390,0.008133600,0.048299510,0.998797310,-0.003656000,0.016463000,0.096610000,0.000071986,-0.000235012,-0.000057826,0.003024920,0.011476628,-0.002482847,0.004899580,-0.003142923,0.998621784,-0.000831658,0.002578825,0.004386055,0.000000000,0.000000000,0.000000000,0.000000000,0.018962278,0.008676502,0.056254282,0.015901989,0.000667092,-0.000052559,0.004637445,0.000759189,-0.001459859,-0.218084542,0.020763909,4.580527299,-0.001894382,-0.000257108,0.039961544,0.999198604,0.000000000,0.000000000,0.000000000,0.000000000,0.000000000,0.000000000,4.583605211,0.000000000,4.133137703
1772715892.723153830,0.018823000,0.008664000,0.056259000,-0.002162790,0.008200330,0.048394480,0.998792300,-0.003527000,0.016591000,0.096801000,-0.000139057,0.000178158,-0.000171301,-0.004694866,0.019503765,-0.004061156,0.006255252,-0.003814618,0.999556504,-0.001563948,0.004364609,0.000976337,0.000000000,0.000000000,0.000000000,0.000000000,0.018966108,0.008677795,0.056260558,0.015918257,0.000742936,-0.000144618,0.005375725,0.000687102,-0.000386402,-0.218305072,0.019096713,4.584930689,-0.001896877,-0.000242720,0.039999965,0.999197019,0.000000000,0.000000000,0.000000000,0.000000000,0.000000000,0.000000000,4.587525841,0.000000000,4.133137703
1772715892.733153105,0.018804000,0.008659000,0.056252000,-0.002207040,0.008829530,0.048209440,0.998795780,-0.003558000,0.017852000,0.096429000,-0.000126801,0.000209508,-0.000262886,-0.007100150,0.010157660,-0.003951593,0.005668157,-0.004136334,1.000107417,0.002581341,0.003708171,-0.004395950,0.000000000,0.000000000,0.000000000,0.000000000,0.018967561,0.008677572,0.056261152,0.015943824,0.000756008,-0.000169381,0.005747484,0.000581251,0.000441667,-0.219271939,0.017657597,4.588058809,-0.001905804,-0.000230561,0.040027264,0.999195737,0.000000000,0.000000000,0.000000000,0.000000000,0.000000000,0.000000000,4.588564013,0.000000000,4.133137703
1772715892.743153572,0.018809000,0.008682000,0.056250000,-0.002286610,0.008724880,0.048306340,0.998791840,-0.003725000,0.017651000,0.096621000,-0.000043607,0.000254631,-0.000132822,-0.004788394,-0.003118340,-0.001711685,0.005678403,-0.004054204,1.000286110,0.001948472,0.004208873,-0.003336710,0.000000000,0.000000000,0.000000000,0.000000000,0.018968651,0.008677072,0.056260805,0.015970501,0.000758299,-0.000182337,0.005764847,0.000545360,0.000440544,-0.218999140,0.017287413,4.588439258,-0.001903554,-0.000227244,0.040030588,0.999195609,0.000000000,0.000000000,0.000000000,0.000000000,0.000000000,0.000000000,4.589970424,0.000000000,4.133137703
1772715892.753153801,0.018807000,0.008675000,0.056255000,-0.002331470,0.008499810,0.048266680,0.998795600,-0.003837000,0.017205000,0.096542000,0.000132123,0.000205643,0.000067305,-0.001249684,-0.024684264,0.003168585,0.005688649,-0.003972076,1.000464798,0.001315618,0.004709564,-0.002277494,0.000000000,0.000000000,0.000000000,0.000000000,0.018969742,0.008676572,0.056260459,0.015997177,0.000760589,-0.000195292,0.005782211,0.000509469,0.000439420,-0.218726346,0.016917238,4.588819697,-0.001901304,-0.000223927,0.040033912,0.999195482,0.000000000,0.000000000,0.000000000,0.000000000,0.000000000,0.000000000,4.591376802,0.000000000,4.133137703
1772715892.763154030,0.018812000,0.008679000,0.056253000,-0.002345950,0.008199750,0.048294380,0.998796730,-0.003895000,0.016607000,0.096598000,0.000154830,0.000063284,0.000097684,0.001495663,-0.032612655,0.007323150,0.005698894,-0.003889948,1.000643487,0.000682764,0.005210255,-0.001218279,0.000000000,0.000000000,0.000000000,0.000000000,0.018970832,0.008676071,0.056260112,0.016023854,0.000762879,-0.000208248,0.005799574,0.000473578,0.000438297,-0.218453553,0.016547063,4.589200137,-0.001899054,-0.000220611,0.040037236,0.999195355,0.000000000,0.000000000,0.000000000,0.000000000,0.000000000,0.000000000,4.592783181,0.000000000,4.133137703
1772715892.773154497,0.018824000,0.008664000,0.056259000,-0.002172370,0.008075760,0.048341000,0.998795880,-0.003559000,0.016343000,0.096694000,0.000128685,-0.000274035,-0.000107454,0.006464558,-0.008577290,0.006572115,0.005709140,-0.003807818,1.000822180,0.000049895,0.005710957,-0.000159039,0.000000000,0.000000000,0.000000000,0.000000000,0.018971922,0.008675571,0.056259765,0.016050530,0.000765170,-0.000221203,0.005816937,0.000437686,0.000437173,-0.218180753,0.016176879,4.589580586,-0.001896804,-0.000217294,0.040040561,0.999195228,0.000000000,0.000000000,0.000000000,0.000000000,0.000000000,0.000000000,4.594189592,0.000000000,4.133137703
1772715892.783154726,0.018814000,0.008678000,0.056257000,-0.002192450,0.008198460,0.048333840,0.998795180,-0.003588000,0.016590000,0.096679000,-0.000195659,-0.000453903,-0.000340777,0.008306826,0.034399728,-0.002910399,0.005719386,-0.003725690,1.001000869,-0.000582959,0.006211648,0.000900176,0.000000000,0.000000000,0.000000000,0.000000000,0.018973012,0.008675071,0.056259418,0.016077207,0.000767460,-0.000234159,0.005834300,0.000401795,0.000436050,-0.217907960,0.015806703,4.589961025,-0.001894554,-0.000213977,0.040043885,0.999195101,0.000000000,0.000000000,0.000000000,0.000000000,0.000000000,0.000000000,4.595595970,0.000000000,4.133137703
1772715892.793154716,0.018808000,0.008671000,0.056249000,-0.002187250,0.008325300,0.048420840,0.998789930,-0.003563000,0.016843000,0.096853000,-0.000421989,-0.000438150,-0.000473171,0.007164163,0.068644654,-0.014015361,0.005729631,-0.003643564,1.001179554,-0.001215798,0.006712327,0.001959366,0.000000000,0.000000000,0.000000000,0.000000000,0.018969486,0.008672154,0.056256233,0.016155657,0.000764436,-0.000223797,0.005209190,0.000182617,0.000494864,-0.217704717,0.014889696,4.590980140,-0.001893100,-0.000205927,0.040052786,0.999194923,0.000000000,0.000000000,0.000000000,0.000000000,0.000000000,0.000000000,4.595904445,0.000000000,4.133137703
1772715892.803154707,0.018807000,0.008657000,0.056239000,-0.002207960,0.008896020,0.048288230,0.998791390,-0.003552000,0.017985000,0.096586000,-0.000270966,-0.000365853,-0.000141757,0.002304797,0.068586395,-0.021831742,0.005252770,-0.003877936,1.000408408,0.001060763,-0.001739013,0.000941399,0.000000000,0.000000000,0.000000000,0.000000000,0.019047684,0.008674552,0.056253848,0.016458199,0.000782949,-0.000167684,0.004609931,0.000026795,0.000581630,-0.217697968,0.011899469,4.594836740,-0.001894080,-0.000179915,0.040086461,0.999193550,0.000000000,0.000000000,0.000000000,0.000000000,0.000000000,0.000000000,4.595971829,0.000000000,4.133137703
1772715892.813155413,0.018805000,0.008659000,0.056243000,-0.002186180,0.009407430,0.048056540,0.998797920,-0.003464000,0.019004000,0.096122000,-0.000142554,-0.000020337,0.000086981,0.000003202,0.050152504,-0.024172255,0.005543191,-0.003690231,1.000738390,0.001316113,-0.005311314,0.002882166,0.000000000,0.000000000,0.000000000,0.000000000,0.019079821,0.008679692,0.056252895,0.016608404,0.000810019,-0.000107736,0.005223575,0.000360047,0.000665542,-0.216731460,0.012228152,4.598147662,-0.001885533,-0.000182497,0.040115327,0.999192409,0.000000000,0.000000000,0.000000000,0.000000000,0.000000000,0.000000000,4.602265859,0.000000000,4.133137703
1772715892.823156118,0.018802000,0.008659000,0.056243000,-0.002203760,0.009483330,0.047949560,0.998802310,-0.003493000,0.019156000,0.095907000,0.000039975,0.000046249,0.000047589,-0.003764400,0.034859433,-0.021919191,0.005893930,-0.003164762,1.001082219,0.001737952,-0.005293510,0.003103922,0.000000000,0.000000000,0.000000000,0.000000000,0.018967866,0.008682776,0.056252657,0.016355197,0.000836798,-0.000060436,0.005191094,0.001166297,0.001658666,-0.216747529,0.013163075,4.601779850,-0.001885339,-0.000190715,0.040146982,0.999191143,0.000000000,0.000000000,0.000000000,0.000000000,0.000000000,0.000000000,4.606709632,0.000000000,4.133137703
1772715892.833157301,0.018803000,0.008656000,0.056249000,-0.002218710,0.009613980,0.047817420,0.998807360,-0.003513000,0.019418000,0.095642000,0.000196553,0.000455729,0.000165707,-0.005537064,0.009318175,-0.011655609,0.005854462,-0.002543668,1.000772194,0.003645808,-0.004894057,-0.000205433,0.000000000,0.000000000,0.000000000,0.000000000,0.018971727,0.008683431,0.056253539,0.016447946,0.000908074,0.000086349,0.004277503,0.001604129,0.002513002,-0.216899689,0.012732860,4.604787182,-0.001886812,-0.000187066,0.040173212,0.999190017,0.000000000,0.000000000,0.000000000,0.000000000,0.000000000,0.000000000,4.610969771,0.000000000,4.132621800
1772715892.843158007,0.018821000,0.008674000,0.056263000,-0.002281180,0.009104040,0.047951910,0.998805550,-0.003684000,0.018406000,0.095911000,0.000428535,0.000356005,0.000211276,-0.005662774,-0.014339120,0.002799033,0.006544938,-0.003172618,0.998812561,0.001128978,-0.001768922,-0.002505135,0.000000000,0.000000000,0.000000000,0.000000000,0.018976840,0.008680912,0.056257166,0.016496164,0.001047924,0.000300920,0.006077366,0.001765574,-0.001050161,-0.216340780,0.013484169,4.608290091,-0.001881669,-0.000193479,0.040203747,0.999189001,0.000000000,0.000000000,0.000000000,0.000000000,0.000000000,0.000000000,4.608089253,0.000000000,4.132017127
1772715892.853159189,0.018802000,0.008675000,0.056242000,-0.002264760,0.009452500,0.047884550,0.998805580,-0.003620000,0.019100000,0.095776000,0.000503531,-0.000039547,0.000095936,-0.004505304,-0.015841016,0.006602640,0.007219832,-0.005056801,0.997864027,-0.004405302,0.002215171,-0.002578468,0.000000000,0.000000000,0.000000000,0.000000000,0.018974721,0.008683524,0.056256679,0.016608855,0.001186691,0.000275533,0.007145803,-0.000497626,-0.002393837,-0.215673450,0.014565544,4.611974319,-0.001875465,-0.000202734,0.040235858,0.999187656,0.000000000,0.000000000,0.000000000,0.000000000,0.000000000,0.000000000,4.616048913,0.000000000,4.131412425
1772715892.863159180,0.018814000,0.008663000,0.056236000,-0.002416400,0.009601400,0.047904750,0.998802840,-0.003908000,0.019413000,0.095813000,0.000190492,-0.000157976,0.000058719,0.001636644,-0.015764434,0.003788869,0.007533814,-0.003098036,0.999050986,0.000181171,0.002656557,-0.000445332,0.000000000,0.000000000,0.000000000,0.000000000,0.018972589,0.008678266,0.056250225,0.016841317,0.001103111,0.000010274,0.007324332,0.000419123,-0.001455392,-0.215729064,0.013887370,4.616052796,-0.001876181,-0.000196907,0.040271426,0.999186117,0.000000000,0.000000000,0.000000000,0.000000000,0.000000000,0.000000000,4.617713551,0.000000000,4.130807795
1772715892.873159885,0.018828000,0.008674000,0.056264000,-0.002200280,0.009034240,0.048051600,0.998801570,-0.003528000,0.018259000,0.096112000,0.000140922,-0.000146633,-0.000069888,0.003308587,-0.018888617,0.001921509,0.005554349,-0.004534923,0.998946234,-0.000477473,-0.002176744,0.004824039,0.000000000,0.000000000,0.000000000,0.000000000,0.018971957,0.008672636,0.056244797,0.017152195,0.001069136,-0.000198451,0.005679886,0.000452628,-0.000991635,-0.215536864,0.012128726,4.620549844,-0.001875116,-0.000181578,0.040310668,0.999184540,0.000000000,0.000000000,0.000000000,0.000000000,0.000000000,0.000000000,4.623269984,0.000000000,4.130203122
1772715892.883160353,0.018826000,0.008655000,0.056256000,-0.002260610,0.009071780,0.048001990,0.998803490,-0.003645000,0.018340000,0.096012000,-0.000086282,0.000005245,0.000011518,0.005057519,-0.021363655,0.001823965,0.004572648,-0.002875517,0.999350251,-0.001579415,-0.000127038,0.000770093,0.000000000,0.000000000,0.000000000,0.000000000,0.018971359,0.008670786,0.056242670,0.017291304,0.001065241,-0.000299975,0.004377446,0.001538333,0.000159474,-0.215702050,0.011130212,4.624851024,-0.001876901,-0.000173000,0.040348190,0.999183039,0.000000000,0.000000000,0.000000000,0.000000000,0.000000000,0.000000000,4.628242561,0.000000000,4.129598463
1772715892.893160343,0.018813000,0.008660000,0.056248000,-0.002241690,0.009126030,0.047875570,0.998809100,-0.003605000,0.018446000,0.095759000,-0.000094984,0.000448891,0.000129967,0.002014485,-0.039548906,0.008860465,0.004494540,-0.004475701,0.998642432,0.000056997,-0.003075156,-0.001840916,0.000000000,0.000000000,0.000000000,0.000000000,0.019026563,0.008672502,0.056242922,0.017396265,0.001147800,-0.000364634,0.003249821,-0.000034248,-0.001906676,-0.216836894,0.010750938,4.628700192,-0.001886924,-0.000170156,0.040381763,0.999181672,0.000000000,0.000000000,0.000000000,0.000000000,0.000000000,0.000000000,4.629160348,0.000000000,4.128993833
1772715892.903160810,0.018806000,0.008677000,0.056249000,-0.002150020,0.008783960,0.047977390,0.998807480,-0.003453000,0.017754000,0.095965000,-0.000176604,0.000393707,0.000037838,-0.001318347,-0.033249512,0.010228973,0.005769051,-0.004608740,0.999723003,0.000478689,0.000218898,-0.001830329,0.000000000,0.000000000,0.000000000,0.000000000,0.019065894,0.008681301,0.056242415,0.017371502,0.001181202,-0.000449840,0.005277976,-0.000865363,-0.000644570,-0.216495947,0.012550413,4.631113306,-0.001883313,-0.000185766,0.040402771,0.999180748,0.000000000,0.000000000,0.000000000,0.000000000,0.000000000,0.000000000,4.629789982,0.000000000,4.128389174
1772715892.913161039,0.018828000,0.008678000,0.056247000,-0.002284340,0.008733500,0.048109110,0.998801290,-0.003723000,0.017667000,0.096226000,-0.000065848,-0.000076881,-0.000013927,-0.006089877,-0.011290503,0.009947626,0.004417592,-0.004118468,0.999893294,-0.002261571,-0.000526215,0.000763523,0.000000000,0.000000000,0.000000000,0.000000000,0.018977014,0.008679855,0.056241023,0.017179890,0.001092455,-0.000493433,0.004381592,0.000532624,-0.000212089,-0.215717981,0.012783481,4.633935206,-0.001876443,-0.000187570,0.040427373,0.999179839,0.000000000,0.000000000,0.000000000,0.000000000,0.000000000,0.000000000,4.635442364,0.000000000,4.127859116
1772715892.923161507,0.018806000,0.008678000,0.056258000,-0.002206010,0.008587680,0.048195790,0.998798550,-0.003579000,0.017368000,0.096402000,0.000076259,-0.000268441,0.000184801,-0.003818970,-0.002434506,0.009248448,0.005433106,-0.005339457,0.999132484,0.000503991,-0.000454102,-0.001547011,0.000000000,0.000000000,0.000000000,0.000000000,0.018982690,0.008679328,0.056242908,0.017195124,0.001067691,-0.000465234,0.004665045,-0.000766224,-0.000329365,-0.216905657,0.013006823,4.636459487,-0.001886716,-0.000189978,0.040449376,0.999178907,0.000000000,0.000000000,0.000000000,0.000000000,0.000000000,0.000000000,4.640962454,0.000000000,4.127859116
1772715892.933162212,0.018821000,0.008674000,0.056257000,-0.002296840,0.008362620,0.048246220,0.998797820,-0.003782000,0.016928000,0.096502000,0.000112485,-0.000445201,0.000063187,-0.005638202,0.013549918,0.004061346,0.006257106,-0.003516700,0.999846703,-0.002445569,0.000573853,-0.002031402,0.000000000,0.000000000,0.000000000,0.000000000,0.018988970,0.008677111,0.056249413,0.017206397,0.000993742,-0.000454550,0.006151270,-0.000391399,-0.001021555,-0.216930730,0.012736078,4.638331309,-0.001887027,-0.000187657,0.040465703,0.999178198,0.000000000,0.000000000,0.000000000,0.000000000,0.000000000,0.000000000,4.638523565,0.000000000,4.127859116
1772715892.943162918,0.018822000,0.008651000,0.056259000,-0.002313400,0.008829510,0.048129250,0.998799410,-0.003772000,0.017861000,0.096266000,-0.000076550,-0.000290701,0.000105046,-0.003277417,0.019166693,0.001643290,0.006202597,-0.003393931,0.999794440,-0.001849343,-0.000468251,0.000067947,0.000000000,0.000000000,0.000000000,0.000000000,0.018989359,0.008671922,0.056248905,0.017286238,0.000914278,-0.000480771,0.005651464,0.000843277,0.000229252,-0.217195127,0.012543610,4.640146416,-0.001889397,-0.000186102,0.040481531,0.999177562,0.000000000,0.000000000,0.000000000,0.000000000,0.000000000,0.000000000,4.640446168,0.000000000,4.127859116
1772715892.953162670,0.018809000,0.008652000,0.056248000,-0.002317190,0.009159150,0.048121280,0.998796820,-0.003748000,0.018520000,0.096249000,-0.000339106,0.000082688,-0.000113592,-0.001040801,0.003780754,0.002959547,0.005789156,-0.004901049,0.999802268,0.001456689,-0.000549090,0.000499268,0.000000000,0.000000000,0.000000000,0.000000000,0.018986049,0.008671650,0.056246496,0.017353665,0.000955776,-0.000489222,0.004857228,-0.000225851,-0.001061358,-0.216925329,0.013314964,4.642938430,-0.001886767,-0.000192779,0.040505864,0.999176646,0.000000000,0.000000000,0.000000000,0.000000000,0.000000000,0.000000000,4.643496541,0.000000000,4.127859116
1772715892.963163137,0.018813000,0.008672000,0.056252000,-0.002304450,0.008811340,0.048176370,0.998797320,-0.003755000,0.017824000,0.096361000,-0.000154519,0.000143078,-0.000259409,-0.000077323,-0.005956848,0.002655971,0.005139435,-0.006608870,1.000618497,0.001715067,-0.001015576,-0.000255024,0.000000000,0.000000000,0.000000000,0.000000000,0.018997924,0.008679882,0.056244978,0.017452304,0.000983160,-0.000495468,0.005177294,-0.002373947,0.000881459,-0.216254144,0.013776079,4.645734070,-0.001880747,-0.000196608,0.040530237,0.999175610,0.000000000,0.000000000,0.000000000,0.000000000,0.000000000,0.000000000,4.649465292,0.000000000,4.127859116
1772715892.973162651,0.018815000,0.008675000,0.056255000,-0.002352990,0.008770860,0.048252240,0.998793900,-0.003855000,0.017749000,0.096512000,-0.000288467,0.000045744,-0.000200418,0.000479586,-0.005934346,0.001018278,0.004990497,-0.005345232,1.001441900,-0.001908782,-0.004653365,0.003187529,0.000000000,0.000000000,0.000000000,0.000000000,0.019142845,0.008687794,0.056241222,0.017854653,0.000801398,-0.000484110,0.005019541,-0.000653932,0.001349402,-0.216263005,0.014357193,4.648352643,-0.001880614,-0.000201721,0.040553062,0.999174725,0.000000000,0.000000000,0.000000000,0.000000000,0.000000000,0.000000000,4.650186904,0.000000000,4.127859116
1772715892.983163118,0.018805000,0.008667000,0.056260000,-0.002268200,0.008585850,0.048329320,0.998791980,-0.003702000,0.017371000,0.096668000,0.000025698,-0.000160268,0.000021231,0.000930689,-0.005339914,-0.001896159,0.005529147,-0.002996077,1.002234211,-0.000387666,-0.001229092,0.002367407,0.000000000,0.000000000,0.000000000,0.000000000,0.018983042,0.008683844,0.056249437,0.017427546,0.000565434,-0.000314193,0.005441414,0.000880838,0.002525947,-0.215727971,0.015594846,4.651744222,-0.001875505,-0.000212379,0.040582611,0.999173574,0.000000000,0.000000000,0.000000000,0.000000000,0.000000000,0.000000000,4.654796676,0.000000000,4.127859116
1772715892.993164062,0.018802000,0.008663000,0.056236000,-0.002305590,0.008529650,0.048178930,0.998799640,-0.003784000,0.017262000,0.096366000,0.000211470,-0.000188647,0.000278250,0.003645625,-0.000635241,-0.004923693,0.006593548,-0.003544985,1.001131039,-0.001456243,0.000863520,-0.000879496,0.000000000,0.000000000,0.000000000,0.000000000,0.019003439,0.008682763,0.056252120,0.017472549,0.000647568,-0.000066390,0.006429641,0.000646196,0.001526173,-0.215157305,0.016277960,4.655010825,-0.001870281,-0.000218187,0.040611083,0.999172402,0.000000000,0.000000000,0.000000000,0.000000000,0.000000000,0.000000000,4.656543731,0.000000000,4.127859116
1772715893.003164768,0.018818000,0.008651000,0.056251000,-0.002263960,0.008927190,0.048085480,0.998800760,-0.003665000,0.018052000,0.096179000,0.000000486,-0.000154344,0.000098888,0.006849136,0.009567311,-0.006664264,0.006095619,-0.003034890,1.000789381,-0.001164898,0.001718232,-0.000232110,0.000000000,0.000000000,0.000000000,0.000000000,0.019164595,0.008687619,0.056252609,0.018050252,0.000719934,0.000090378,0.006068513,0.001270249,0.000282992,-0.214800860,0.016750190,4.657944595,-0.001867000,-0.000222226,0.040636656,0.999171377,0.000000000,0.000000000,0.000000000,0.000000000,0.000000000,0.000000000,4.658078898,0.000000000,4.127859116
1772715893.013165474,0.018810000,0.008657000,0.056256000,-0.002336190,0.009081070,0.048117480,0.998797670,-0.003794000,0.018366000,0.096242000,0.000067052,0.000131540,-0.000110465,0.005229438,-0.001424923,-0.001793791,0.005677605,-0.002341593,1.000363188,-0.000963958,0.001847531,0.001388132,0.000000000,0.000000000,0.000000000,0.000000000,0.019153785,0.008675955,0.056256657,0.018124798,0.000736376,0.000198796,0.005417583,0.002131045,-0.000915330,-0.214545305,0.017136389,4.660218044,-0.001864630,-0.000225540,0.040656472,0.999170502,0.000000000,0.000000000,0.000000000,0.000000000,0.000000000,0.000000000,4.660530305,0.000000000,4.127859116
1772715893.023165941,0.018818000,0.008667000,0.056265000,-0.002168120,0.008693420,0.048151470,0.998799860,-0.003494000,0.017576000,0.096313000,-0.000009557,0.000253912,-0.000288545,0.002358544,-0.009730587,0.001681040,0.005690409,-0.003505111,1.000569287,0.000946973,-0.000666775,0.001209978,0.000000000,0.000000000,0.000000000,0.000000000,0.018985548,0.008672525,0.056253180,0.017679016,0.000879494,0.000209828,0.005693416,-0.000857738,-0.001334492,-0.214469821,0.017776365,4.662781510,-0.001863739,-0.000231135,0.040678814,0.999169627,0.000000000,0.000000000,0.000000000,0.000000000,0.000000000,0.000000000,4.666632450,0.000000000,4.127859116
1772715893.033165932,0.018810000,0.008679000,0.056253000,-0.002174010,0.008501180,0.048198680,0.998799220,-0.003524000,0.017192000,0.096408000,-0.000116758,0.000073579,-0.000309504,-0.001141535,-0.005407583,0.001280162,0.005815882,-0.003731878,1.001484789,0.000670121,0.000287356,0.002409100,0.000000000,0.000000000,0.000000000,0.000000000,0.018960218,0.008674013,0.056254363,0.016711022,0.000774446,0.000117311,0.005630767,0.000743345,0.001260834,-0.213195967,0.018289480,4.666309575,-0.001852443,-0.000235214,0.040709575,0.999168414,0.000000000,0.000000000,0.000000000,0.000000000,0.000000000,0.000000000,4.674479218,0.000000000,4.127859116
1772715893.043165922,0.018800000,0.008655000,0.056232000,-0.002210430,0.008872840,0.048118920,0.998799760,-0.003562000,0.017938000,0.096247000,-0.000024241,-0.000263197,-0.000397184,-0.005364145,0.014888417,-0.007190680,0.005789914,-0.004519213,0.999916289,-0.001126962,0.001601380,0.001619773,0.000000000,0.000000000,0.000000000,0.000000000,0.018872772,0.008660954,0.056251057,0.013455516,0.000264076,0.000223940,0.005384167,-0.001071921,-0.001259355,-0.215056777,0.037942415,4.670099429,-0.001861649,-0.000407298,0.040742292,0.999165584,0.000000000,0.000000000,0.000000000,0.000000000,0.000000000,0.000000000,4.682325987,0.000000000,4.127859116
1772715893.053165913,0.018817000,0.008663000,0.056236000,-0.002312450,0.008618720,0.048189410,0.998798350,-0.003789000,0.017440000,0.096387000,0.000080144,-0.000403186,-0.000020706,-0.006136076,0.039077403,-0.012851346,0.005527305,-0.004020199,0.998476033,-0.000759742,0.001004728,-0.001484344,0.000000000,0.000000000,0.000000000,0.000000000,0.018886947,0.008663168,0.056244719,0.014067857,0.000264038,0.000102378,0.004925180,-0.000460618,-0.001163765,-0.215930524,0.047038456,4.685383307,-0.001865992,-0.000487170,0.040875401,0.999162204,0.000000000,0.000000000,0.000000000,0.000000000,0.000000000,0.000000000,4.690071501,0.000000000,4.127859116
1772715893.063166380,0.018808000,0.008659000,0.056245000,-0.002299750,0.008993670,0.047997430,0.998804320,-0.003731000,0.018188000,0.096002000,0.000067965,-0.000049357,0.000447939,-0.005266155,0.038344047,-0.009967099,0.005638210,-0.004176213,0.998353056,0.000192986,-0.000352465,0.000174742,0.000000000,0.000000000,0.000000000,0.000000000,0.018956580,0.008665763,0.056240557,0.014646562,0.000284471,-0.000026068,0.005163510,-0.000172802,-0.001857928,-0.215162152,0.043438323,4.687596677,-0.001860568,-0.000455541,0.040894767,0.999160897,0.000000000,0.000000000,0.000000000,0.000000000,0.000000000,0.000000000,4.692774402,0.000000000,4.127859116
1772715893.073166609,0.018816000,0.008652000,0.056255000,-0.002389890,0.009489050,0.047937620,0.998802400,-0.003865000,0.019186000,0.095880000,0.000056621,0.000288875,0.000507552,-0.001537663,0.018803003,-0.002991541,0.005450624,-0.004228179,0.999630644,0.001462891,-0.001822460,0.001908747,0.000000000,0.000000000,0.000000000,0.000000000,0.018985286,0.008662694,0.056244883,0.015020597,0.000282109,-0.000176819,0.005084614,-0.000973497,-0.000943696,-0.214296767,0.040068284,4.689781589,-0.001854217,-0.000425883,0.040913881,0.999159988,0.000000000,0.000000000,0.000000000,0.000000000,0.000000000,0.000000000,4.694672062,0.000000000,4.127859116
1772715893.083166838,0.018815000,0.008656000,0.056255000,-0.002341690,0.009513690,0.047913620,0.998803430,-0.003767000,0.019230000,0.095832000,-0.000158792,0.000313505,0.000033099,0.000054222,0.007907829,0.001614419,0.007349288,-0.004808993,1.000747715,0.000294012,0.006782138,0.001959197,0.000000000,0.000000000,0.000000000,0.000000000,0.018952073,0.008658887,0.056249753,0.015263458,0.000237770,-0.000244726,0.005978220,-0.000052709,0.000271623,-0.214200986,0.037245068,4.692375138,-0.001854381,-0.000401274,0.040936534,0.999159000,0.000000000,0.000000000,0.000000000,0.000000000,0.000000000,0.000000000,4.696806613,0.000000000,4.127859116
1772715893.093167543,0.018804000,0.008675000,0.056256000,-0.002307630,0.009194860,0.048039150,0.998800470,-0.003727000,0.018590000,0.096085000,-0.000241189,0.000090031,-0.000432556,0.000889233,0.004660758,0.003440707,0.007217838,-0.004429173,1.000291313,-0.000437355,-0.000299936,-0.001506834,0.000000000,0.000000000,0.000000000,0.000000000,0.018955285,0.008667929,0.056251979,0.015623072,0.000238741,-0.000180954,0.006930650,0.000188580,0.001220001,-0.214098367,0.035100773,4.694090884,-0.001854246,-0.000382568,0.040951531,0.999158363,0.000000000,0.000000000,0.000000000,0.000000000,0.000000000,0.000000000,4.699419662,0.000000000,4.127859116
1772715893.103167534,0.018811000,0.008677000,0.056253000,-0.002296910,0.008947830,0.048134010,0.998798170,-0.003728000,0.018096000,0.096276000,-0.000041937,0.000102326,-0.000343282,0.000352611,-0.012165502,0.006367143,0.007061717,-0.003062504,1.001057574,-0.000445908,0.002021176,0.001789210,0.000000000,0.000000000,0.000000000,0.000000000,0.018961067,0.008672733,0.056249662,0.016032106,0.000257296,-0.000130481,0.007116539,0.001051495,0.000949383,-0.214979495,0.034094228,4.694960240,-0.001862286,-0.000374121,0.040959124,0.999158047,0.000000000,0.000000000,0.000000000,0.000000000,0.000000000,0.000000000,4.700806150,0.000000000,4.127859116
1772715893.113167524,0.018805000,0.008659000,0.056230000,-0.002378920,0.009231250,0.048082510,0.998797880,-0.003865000,0.018670000,0.096170000,0.000179071,-0.000044229,-0.000091818,0.000181920,-0.017127862,0.004118081,0.005689815,-0.002884709,1.000458466,0.000378162,0.002001071,0.001532050,0.000000000,0.000000000,0.000000000,0.000000000,0.018963472,0.008666282,0.056239743,0.016381316,0.000359983,-0.000037200,0.004428107,0.001706468,0.001274073,-0.214769589,0.033249221,4.697167479,-0.001860751,-0.000366714,0.040978384,0.999157357,0.000000000,0.000000000,0.000000000,0.000000000,0.000000000,0.000000000,4.701611925,0.000000000,4.127859116
1772715893.123168230,0.018808000,0.008654000,0.056236000,-0.002344030,0.009416440,0.047988690,0.998800740,-0.003779000,0.019036000,0.095983000,0.000450484,-0.000092906,0.000293809,-0.000158940,-0.022214572,0.003499717,0.006163323,-0.004711324,1.000560435,0.001946491,0.002218936,-0.001834290,0.000000000,0.000000000,0.000000000,0.000000000,0.018968652,0.008664876,0.056241345,0.016542815,0.000484631,0.000058846,0.004918653,-0.000074247,-0.000269097,-0.215013408,0.030905039,4.698436394,-0.001863711,-0.000346382,0.040989484,0.999156836,0.000000000,0.000000000,0.000000000,0.000000000,0.000000000,0.000000000,4.704217290,0.000000000,4.127859116
1772715893.133168221,0.018817000,0.008670000,0.056255000,-0.002310340,0.009074740,0.048073920,0.998799880,-0.003743000,0.018351000,0.096155000,0.000260303,0.000137018,0.000564096,0.000448419,-0.033410700,0.005858167,0.005436656,-0.004128045,1.000669791,-0.000012840,-0.002351631,0.001362368,0.000000000,0.000000000,0.000000000,0.000000000,0.018975158,0.008670114,0.056251117,0.016703042,0.000516806,0.000132038,0.005113868,-0.000297653,0.000803466,-0.214147870,0.030746434,4.700256445,-0.001856215,-0.000344719,0.041005363,0.999156156,0.000000000,0.000000000,0.000000000,0.000000000,0.000000000,0.000000000,4.705172530,0.000000000,4.127859116
1772715893.143168449,0.018819000,0.008670000,0.056265000,-0.002284020,0.008675110,0.048157360,0.998799480,-0.003728000,0.017550000,0.096323000,-0.000034672,0.000347866,0.000590182,0.000178548,-0.045808313,0.009437157,0.005151113,-0.003771758,1.000494387,-0.001220547,-0.002372152,0.001592143,0.000000000,0.000000000,0.000000000,0.000000000,0.018978573,0.008671981,0.056256867,0.016805566,0.000449103,0.000201428,0.003935935,0.000460595,0.000611909,-0.214264354,0.030850975,4.700637782,-0.001857193,-0.000345678,0.041008686,0.999155995,0.000000000,0.000000000,0.000000000,0.000000000,0.000000000,0.000000000,4.706681243,0.000000000,4.127859116
1772715893.153168440,0.018826000,0.008669000,0.056257000,-0.002315580,0.008484550,0.048208680,0.998798560,-0.003808000,0.017173000,0.096426000,0.000033759,0.000421756,0.000300433,-0.002340541,-0.054391290,0.012039906,0.005076018,-0.003950318,1.000447035,-0.001126392,-0.001685886,0.000909170,0.000000000,0.000000000,0.000000000,0.000000000,0.018979694,0.008672092,0.056257080,0.016823233,0.000456245,0.000210925,0.003980982,0.000242581,0.000537548,-0.214380834,0.030955513,4.701019110,-0.001858170,-0.000346638,0.041012009,0.999155867,0.000000000,0.000000000,0.000000000,0.000000000,0.000000000,0.000000000,4.707049921,0.000000000,4.127859116
1772715893.163169146,0.018813000,0.008677000,0.056262000,-0.002265210,0.008249420,0.048253940,0.998798460,-0.003729000,0.016698000,0.096518000,-0.000122838,0.000137348,-0.000288623,-0.002717504,-0.034277171,0.010311627,0.005000917,-0.004128890,1.000399680,-0.001032231,-0.000999571,0.000226149,0.000000000,0.000000000,0.000000000,0.000000000,0.018980814,0.008672203,0.056257293,0.016840901,0.000463388,0.000220422,0.004026031,0.000024552,0.000463182,-0.214497323,0.031060059,4.701400465,-0.001859147,-0.000347597,0.041015332,0.999155738,0.000000000,0.000000000,0.000000000,0.000000000,0.000000000,0.000000000,4.707418626,0.000000000,4.127859116
1772715893.173169136,0.018801000,0.008677000,0.056258000,-0.002320440,0.008282540,0.048297970,0.998795940,-0.003836000,0.016770000,0.096605000,-0.000109241,-0.000184684,-0.000436887,0.001502616,-0.002638846,0.003824637,0.004925821,-0.004307449,1.000352328,-0.000938077,-0.000313305,-0.000456824,0.000000000,0.000000000,0.000000000,0.000000000,0.018981935,0.008672314,0.056257507,0.016858568,0.000470530,0.000229918,0.004071077,-0.000193462,0.000388822,-0.214613804,0.031164598,4.701781793,-0.001860124,-0.000348557,0.041018655,0.999155610,0.000000000,0.000000000,0.000000000,0.000000000,0.000000000,0.000000000,4.707787304,0.000000000,4.127859116
1772715893.183169603,0.018817000,0.008667000,0.056250000,-0.002313430,0.008258020,0.048249630,0.998798490,-0.003825000,0.016720000,0.096508000,-0.000013908,-0.000301210,-0.000223241,0.004852076,0.024507410,-0.003962223,0.004850722,-0.004486017,1.000304974,-0.000843918,0.000372993,-0.001139829,0.000000000,0.000000000,0.000000000,0.000000000,0.018983056,0.008672425,0.056257720,0.016876236,0.000477672,0.000239415,0.004116125,-0.000411487,0.000314457,-0.214730290,0.031269141,4.702163140,-0.001861101,-0.000349516,0.041021979,0.999155482,0.000000000,0.000000000,0.000000000,0.000000000,0.000000000,0.000000000,4.708156000,0.000000000,4.127859116
1772715893.193169832,0.018826000,0.008675000,0.056247000,-0.002304740,0.008220670,0.048294600,0.998796650,-0.003810000,0.016645000,0.096599000,0.000077813,-0.000460623,-0.000309154,0.007356855,0.053720610,-0.011473145,0.004775624,-0.004664581,1.000257621,-0.000749762,0.001059275,-0.001822817,0.000000000,0.000000000,0.000000000,0.000000000,0.018984176,0.008672537,0.056257933,0.016893904,0.000484814,0.000248912,0.004161173,-0.000629506,0.000240095,-0.214842474,0.031357108,4.702624367,-0.001862046,-0.000350331,0.041025998,0.999155353,0.000000000,0.000000000,0.000000000,0.000000000,0.000000000,0.000000000,4.708524687,0.000000000,4.127859116
1772715893.203170300,0.018809000,0.008662000,0.056245000,-0.002201490,0.008823590,0.048231140,0.998794800,-0.003547000,0.017839000,0.096472000,-0.000080027,-0.000522276,-0.000564737,0.006656479,0.079915226,-0.020161550,0.005449055,-0.004470434,0.999952140,0.000085432,-0.000619194,0.000615776,0.000000000,0.000000000,0.000000000,0.000000000,0.018984128,0.008673795,0.056259002,0.016902805,0.000486070,0.000269607,0.004206221,-0.000847530,0.000165731,-0.214909535,0.031271085,4.703924297,-0.001862658,-0.000349626,0.041037332,0.999154867,0.000000000,0.000000000,0.000000000,0.000000000,0.000000000,0.000000000,4.708893382,0.000000000,4.127859116
1772715893.213171005,0.018815000,0.008655000,0.056250000,-0.002199730,0.009183890,0.048061890,0.998799720,-0.003512000,0.018558000,0.096133000,-0.000098558,-0.000194552,-0.000532221,0.004818713,0.076338840,-0.019239621,0.006112200,-0.003958786,0.999594754,0.001265120,-0.001255811,0.000264822,0.000000000,0.000000000,0.000000000,0.000000000,0.018979394,0.008677869,0.056261541,0.016914596,0.000469895,0.000298096,0.005538053,0.000435206,-0.000735873,-0.214666005,0.031865095,4.706787021,-0.001860313,-0.000354764,0.041062282,0.999153916,0.000000000,0.000000000,0.000000000,0.000000000,0.000000000,0.000000000,4.710738153,0.000000000,4.128236648
1772715893.223170757,0.018811000,0.008657000,0.056242000,-0.002261110,0.009571920,0.047920310,0.998802740,-0.003600000,0.019339000,0.095847000,-0.000185869,-0.000052600,-0.000361755,-0.000602188,0.056484831,-0.014768107,0.005811867,-0.004217322,1.000965370,0.000696554,-0.001932100,-0.001845645,0.000000000,0.000000000,0.000000000,0.000000000,0.018976327,0.008677760,0.056259278,0.017033142,0.000469309,0.000234028,0.005062777,0.000100080,0.000298441,-0.213739935,0.033213559,4.708724646,-0.001851749,-0.000366221,0.041079160,0.999153168,0.000000000,0.000000000,0.000000000,0.000000000,0.000000000,0.000000000,4.713996478,0.000000000,4.128752312
