t,px,py,pz,qx,qy,qz,qw,roll,pitch,yaw,vx,vy,vz,wx_vicon,wy_vicon,wz_vicon,imu_acc_x,imu_acc_y,imu_acc_z,imu_gyro_x,imu_gyro_y,imu_gyro_z,motor_motor_m1,motor_motor_m2,motor_motor_m3,motor_motor_m4,est_stateEstimate_x,est_stateEstimate_y,est_stateEstimate_z,est_stateEstimate_vx,est_stateEstimate_vy,est_stateEstimate_vz,est_stateEstimate_ax,est_stateEstimate_ay,est_stateEstimate_az,att_stateEstimate_roll,att_stateEstimate_pitch,att_stateEstimate_yaw,att_stateEstimate_qx,att_stateEstimate_qy,att_stateEstimate_qz,att_stateEstimate_qw,sp_ctrltarget_x,sp_ctrltarget_y,sp_ctrltarget_z,sp_ctrltarget_yaw,pid_controller_roll,pid_controller_pitch,pid_controller_yaw,pid_controller_cmd_thrust,pwr_pm_vbat
1772724380.242999315,0.016316000,0.006358000,0.071439000,-0.007560270,0.005725010,-0.018519850,0.999783520,-0.015331000,0.011168000,-0.037129000,0.000431877,-0.001379022,0.002560861,-0.003690043,-0.049983071,-0.034483532,0.009534989,-0.013854100,1.000700254,-0.002611900,0.001407173,0.000275697,0.000000000,0.000000000,0.000000000,0.000000000,0.016469788,0.006328925,0.071469074,0.016984722,-0.002953728,0.000880518,0.005882200,-0.001298845,0.000333378,-0.768924182,0.187512664,-1.597240269,-0.006732219,-0.001542636,-0.013948733,0.999877843,0.000000000,0.000000000,0.000000000,0.000000000,0.000000000,0.000000000,0.058337945,0.000000000,4.207038403
1772724380.252999067,0.016322000,0.006349000,0.071463000,-0.007559600,0.005756480,-0.018662230,0.999780690,-0.015332000,0.011229000,-0.037414000,-0.000158800,0.000038695,0.000821465,-0.005242776,-0.005565109,-0.008147943,0.008440626,-0.014770985,1.000032309,-0.001178988,-0.001105006,-0.001137838,0.000000000,0.000000000,0.000000000,0.000000000,0.016471226,0.006336110,0.071466158,0.017027676,-0.002928579,0.000870727,0.005337353,-0.001950505,0.000177249,-0.769528940,0.186394474,-1.595552531,-0.006737338,-0.001532905,-0.013933949,0.999878032,0.000000000,0.000000000,0.000000000,0.000000000,0.000000000,0.000000000,0.058337945,0.000000000,4.207038403
1772724380.262998343,0.016312000,0.006357000,0.071459000,-0.007586670,0.005488550,-0.018586880,0.999783400,-0.015376000,0.010693000,-0.037260000,-0.000372902,0.000628439,-0.000094270,-0.004937663,0.015237504,0.007509238,0.010034871,-0.015102367,0.999579180,-0.000328966,-0.000208505,-0.001570501,0.000000000,0.000000000,0.000000000,0.000000000,0.016471561,0.006334767,0.071461536,0.017063825,-0.002976848,0.000819773,0.006037493,-0.002024255,0.000456306,-0.769701487,0.185836318,-1.593930995,-0.006738754,-0.001528109,-0.013919770,0.999878225,0.000000000,0.000000000,0.000000000,0.000000000,0.000000000,0.000000000,0.058337945,0.000000000,4.207038403
1772724380.272997856,0.016317000,0.006356000,0.071457000,-0.007621130,0.005835650,-0.018581490,0.999781270,-0.015457000,0.011386000,-0.037255000,-0.000317425,0.000619581,-0.000391240,-0.003399422,0.018419281,0.014603524,0.009196973,-0.015022608,0.999747698,-0.002685656,-0.001053770,-0.001813746,0.000000000,0.000000000,0.000000000,0.000000000,0.016473197,0.006333975,0.071455470,0.017140675,-0.003033104,0.000776125,0.006605137,-0.001514820,0.000225054,-0.770056051,0.185758866,-1.592766516,-0.006741823,-0.001527459,-0.013909610,0.999878358,0.000000000,0.000000000,0.000000000,0.000000000,0.000000000,0.000000000,0.058337945,0.000000000,4.207038403
1772724380.282997131,0.016300000,0.006373000,0.071450000,-0.007679930,0.005832870,-0.018511420,0.999782140,-0.015574000,0.011379000,-0.037115000,-0.000099359,0.000241492,-0.000274340,-0.001243247,0.009977364,0.015258041,0.009682509,-0.013721991,0.999659644,-0.000379808,0.005629678,-0.003776723,0.000000000,0.000000000,0.000000000,0.000000000,0.016475806,0.006333203,0.071452350,0.017248933,-0.003062364,0.000740876,0.006700423,-0.000500498,-0.000469297,-0.770300783,0.185836566,-1.592558660,-0.006743965,-0.001528119,-0.013907804,0.999878402,0.000000000,0.000000000,0.000000000,0.000000000,0.000000000,0.000000000,0.058337945,0.000000000,4.207038403
1772724380.292997122,0.016317000,0.006368000,0.071454000,-0.007617690,0.005884110,-0.018417140,0.999784060,-0.015450000,0.011485000,-0.036927000,0.000174301,-0.000276457,0.000051535,0.000901288,-0.004089992,0.011589996,0.008823377,-0.013712233,0.999620596,-0.001590324,0.003687018,-0.000115750,0.000000000,0.000000000,0.000000000,0.000000000,0.016478953,0.006329867,0.071459791,0.017369254,-0.003007832,0.000716724,0.005315275,-0.000108641,0.000056120,-0.768720249,0.185951547,-1.590483856,-0.006730160,-0.001529436,-0.013889686,0.999878696,0.000000000,0.000000000,0.000000000,0.000000000,0.000000000,0.000000000,0.058337945,0.000000000,4.207038403
1772724380.302995920,0.016311000,0.006357000,0.071456000,-0.007606460,0.005695840,-0.018352980,0.999786410,-0.015420000,0.011110000,-0.036795000,0.000403070,-0.000489511,0.000257032,0.001497625,-0.011635517,0.005783091,0.007971575,-0.014814492,0.999327815,-0.000208682,0.000745883,0.000027661,0.000000000,0.000000000,0.000000000,0.000000000,0.016481391,0.006329427,0.071468882,0.017377187,-0.002915282,0.000723910,0.004701566,-0.001083406,-0.000038934,-0.768483483,0.183332322,-1.589374998,-0.006727762,-0.001506676,-0.013879854,0.999878854,0.000000000,0.000000000,0.000000000,0.000000000,0.000000000,0.000000000,0.058337945,0.000000000,4.207038403
1772724380.312995911,0.016318000,0.006352000,0.071466000,-0.007589130,0.005716020,-0.018378350,0.999785960,-0.015387000,0.011151000,-0.036846000,0.000150505,-0.000308217,0.000088967,0.001912635,-0.016962443,0.002291280,0.007875747,-0.016134444,1.000789993,0.001837070,-0.002791514,-0.002973976,0.000000000,0.000000000,0.000000000,0.000000000,0.016477072,0.006334686,0.071473468,0.017280564,-0.002941577,0.000697868,0.004026343,-0.003358961,0.001035734,-0.767783578,0.183615174,-1.586900593,-0.006721656,-0.001509374,-0.013858271,0.999879193,0.000000000,0.000000000,0.000000000,0.000000000,0.000000000,0.000000000,0.058337945,0.000000000,4.207038403
1772724380.322995901,0.016324000,0.006343000,0.071460000,-0.007598560,0.005615180,-0.018421120,0.999785670,-0.015402000,0.010948000,-0.036930000,-0.000069153,0.000097727,-0.000160917,-0.000266795,-0.007591074,-0.000238094,0.005704725,-0.015011403,1.000938731,0.003316851,-0.001505513,-0.000763732,0.000000000,0.000000000,0.000000000,0.000000000,0.016477445,0.006334730,0.071466518,0.017182276,-0.003093555,0.000713866,0.003065726,-0.002140714,0.001635098,-0.766288975,0.184864711,-1.587088123,-0.006708769,-0.001520446,-0.013859960,0.999879287,0.000000000,0.000000000,0.000000000,0.000000000,0.000000000,0.000000000,0.058337945,0.000000000,4.207038403
1772724380.332996607,0.016317000,0.006355000,0.071460000,-0.007648750,0.005443410,-0.018351740,0.999787520,-0.015496000,0.010604000,-0.036789000,-0.000505342,0.000579954,-0.000443474,-0.000654448,-0.003104165,-0.001894396,0.005270489,-0.014168910,0.999911501,0.001728341,0.000405298,0.001257823,0.000000000,0.000000000,0.000000000,0.000000000,0.016480104,0.006333657,0.071458997,0.016937860,-0.003125889,0.000764337,0.000770722,-0.000456459,-0.000610404,-0.763802024,0.184707223,-1.585955376,-0.006687034,-0.001519439,-0.013850034,0.999879515,0.000000000,0.000000000,0.000000000,0.000000000,0.000000000,0.000000000,0.058337945,0.000000000,4.207038403
1772724380.342996836,0.016315000,0.006364000,0.071450000,-0.007619280,0.005651670,-0.018421120,0.999785310,-0.015445000,0.011020000,-0.036931000,-0.000385704,0.000615288,-0.000532188,0.000117167,0.004427280,-0.004637539,0.007596776,-0.014683706,0.999327338,0.000430114,0.001602914,0.003801626,0.000000000,0.000000000,0.000000000,0.000000000,0.016479990,0.006331193,0.071452774,0.016598757,-0.003062984,0.000665376,0.005542258,-0.001562546,-0.000804033,-0.762864944,0.184001383,-1.584373346,-0.006678752,-0.001513486,-0.013836177,0.999879797,0.000000000,0.000000000,0.000000000,0.000000000,0.000000000,0.000000000,0.058337945,0.000000000,4.207038403
1772724380.352996349,0.016297000,0.006372000,0.071444000,-0.007588900,0.005686620,-0.018405630,0.999785630,-0.015385000,0.011092000,-0.036900000,-0.000265773,0.000231488,-0.000236442,0.000136952,0.007734401,-0.007963546,0.008945734,-0.014500259,1.000138833,0.001488977,0.000729774,0.002745335,0.000000000,0.000000000,0.000000000,0.000000000,0.016482071,0.006325302,0.071460926,0.016655969,-0.003124487,0.000614205,0.004715245,-0.001033505,0.000046695,-0.761663985,0.181594374,-1.582676144,-0.006667961,-0.001492727,-0.013821213,0.999880086,0.000000000,0.000000000,0.000000000,0.000000000,0.000000000,0.000000000,0.058337945,0.000000000,4.207038403
1772724380.362996340,0.016306000,0.006374000,0.071445000,-0.007630260,0.005659270,-0.018418640,0.999785230,-0.015467000,0.011035000,-0.036926000,0.000143726,-0.000312199,0.000159285,0.001311769,0.006689800,-0.011417345,0.009550191,-0.014058078,1.001109619,-0.000948342,0.000736027,0.000248461,0.000000000,0.000000000,0.000000000,0.000000000,0.016478072,0.006326193,0.071462887,0.016632660,-0.003090409,0.000639505,0.006907977,-0.001051820,0.001659027,-0.760265221,0.181083676,-1.580131791,-0.006655661,-0.001488587,-0.013798964,0.999880461,0.000000000,0.000000000,0.000000000,0.000000000,0.000000000,0.000000000,0.058337945,0.000000000,4.207038403
1772724380.372996092,0.016305000,0.006362000,0.071446000,-0.007566720,0.005623180,-0.018542800,0.999783620,-0.015340000,0.010964000,-0.037173000,0.000554701,-0.000652099,0.000248932,0.000576750,0.003943664,-0.011404602,0.009849030,-0.014020832,1.000996861,-0.002065474,0.002086091,-0.000178448,0.000000000,0.000000000,0.000000000,0.000000000,0.016478474,0.006327042,0.071463342,0.016825516,-0.003054243,0.000772140,0.006844536,-0.001433073,0.000906719,-0.760485897,0.179936850,-1.578622430,-0.006657429,-0.001478642,-0.013785729,0.999880693,0.000000000,0.000000000,0.000000000,0.000000000,0.000000000,0.000000000,0.058337945,0.000000000,4.207038403
1772724380.382996321,0.016322000,0.006352000,0.071452000,-0.007630330,0.005765510,-0.018636580,0.999780580,-0.015474000,0.011244000,-0.037364000,0.000595358,-0.000578381,0.000283722,-0.000438335,-0.000937725,-0.008471100,0.008000440,-0.014413254,1.000431393,0.000898475,0.000518150,-0.000737387,0.000000000,0.000000000,0.000000000,0.000000000,0.016471541,0.006335328,0.071460536,0.016929908,-0.003006893,0.000805073,0.004441259,-0.001267498,0.000791853,-0.760723504,0.178994290,-1.578426317,-0.006659387,-0.001470400,-0.013783967,0.999880731,0.000000000,0.000000000,0.000000000,0.000000000,0.000000000,0.000000000,0.058337945,0.000000000,4.207038403
1772724380.392995834,0.016321000,0.006344000,0.071465000,-0.007610240,0.005725080,-0.018634940,0.999781000,-0.015432000,0.011164000,-0.037360000,0.000393435,-0.000176224,0.000038151,-0.001288223,0.002770888,-0.004987220,0.007218104,-0.015000173,0.999958868,0.001115027,0.000443907,-0.000831474,0.000000000,0.000000000,0.000000000,0.000000000,0.016476109,0.006337477,0.071460928,0.016873398,-0.002994586,0.000823698,0.003812435,-0.002150664,0.000371766,-0.760388543,0.179012665,-1.577679336,-0.006656457,-0.001470644,-0.013777446,0.999880828,0.000000000,0.000000000,0.000000000,0.000000000,0.000000000,0.000000000,0.058337945,0.000000000,4.207038403
1772724380.402996302,0.016327000,0.006347000,0.071453000,-0.007576860,0.005622150,-0.018616190,0.999782190,-0.015361000,0.010960000,-0.037320000,-0.000161306,0.000233470,-0.000082498,0.001928582,0.005745093,0.001413429,0.008553147,-0.014637418,1.000443885,0.000710511,0.001043345,-0.002009612,0.000000000,0.000000000,0.000000000,0.000000000,0.016475827,0.006333983,0.071462153,0.016781239,-0.003065480,0.000811429,0.005499851,-0.001056338,0.000707969,-0.759949269,0.178462995,-1.576958098,-0.006652549,-0.001465943,-0.013771116,0.999880962,0.000000000,0.000000000,0.000000000,0.000000000,0.000000000,0.000000000,0.058337945,0.000000000,4.207038403
1772724380.412996054,0.016323000,0.006360000,0.071446000,-0.007613770,0.005786310,-0.018583910,0.999781570,-0.015441000,0.011287000,-0.037259000,-0.000333839,0.000379585,-0.000065521,0.005300222,0.006983503,0.005635149,0.009242255,-0.014428683,1.001999646,0.000663723,-0.000420010,-0.001734603,0.000000000,0.000000000,0.000000000,0.000000000,0.016477974,0.006328904,0.071467130,0.016856841,-0.003045793,0.000884417,0.005709552,-0.000994178,0.002109448,-0.759175050,0.177978456,-1.575598134,-0.006645717,-0.001461887,-0.013759212,0.999881165,0.000000000,0.000000000,0.000000000,0.000000000,0.000000000,0.000000000,0.058337945,0.000000000,4.207038403
1772724380.422996283,0.016312000,0.006361000,0.071451000,-0.007575150,0.005738210,-0.018612940,0.999781600,-0.015362000,0.011192000,-0.037316000,-0.000473816,0.000375000,-0.000067599,0.008733483,0.003003087,0.004291773,0.008154699,-0.015492199,1.002333409,-0.002977561,0.000905507,0.000468699,0.000000000,0.000000000,0.000000000,0.000000000,0.016482663,0.006321928,0.071468920,0.016905267,-0.003077531,0.001077198,0.005945105,-0.002693490,0.002194236,-0.758852119,0.177401119,-1.573948266,-0.006642810,-0.001456983,-0.013744779,0.999881410,0.000000000,0.000000000,0.000000000,0.000000000,0.000000000,0.000000000,0.058337945,0.000000000,4.207038403
1772724380.432996273,0.016309000,0.006367000,0.071448000,-0.007559720,0.005828590,-0.018552180,0.999782320,-0.015334000,0.011374000,-0.037195000,-0.000311325,0.000173349,-0.000036694,0.006464519,-0.000327825,0.002176955,0.010255932,-0.015908012,1.001685214,0.000077637,-0.000371342,0.000104467,0.000000000,0.000000000,0.000000000,0.000000000,0.016483038,0.006322344,0.071469834,0.016976479,-0.003213403,0.001236900,0.007359113,-0.003452732,0.001292541,-0.758988234,0.176558014,-1.572777405,-0.006643882,-0.001449678,-0.013734515,0.999881542,0.000000000,0.000000000,0.000000000,0.000000000,0.000000000,0.000000000,0.058337945,0.000000000,4.207038403
1772724380.442996264,0.016305000,0.006358000,0.071459000,-0.007410560,0.005826360,-0.018529120,0.999783880,-0.015035000,0.011376000,-0.037148000,-0.000133469,-0.000030750,0.000087257,0.003023468,-0.008176588,0.002478931,0.010037707,-0.016327608,1.000262163,-0.000271702,0.002712315,0.000287116,0.000000000,0.000000000,0.000000000,0.000000000,0.016516661,0.006321815,0.071467158,0.013589427,-0.002608686,0.001033645,0.005618733,-0.002419353,0.001669917,-0.760906957,0.191147452,-1.573718925,-0.006662386,-0.001576695,-0.013743602,0.999881251,0.000000000,0.000000000,0.000000000,0.000000000,0.000000000,0.000000000,0.058337945,0.000000000,4.207038403
1772724380.452996016,0.016316000,0.006356000,0.071455000,-0.007447440,0.005738610,-0.018557130,0.999783600,-0.015106000,0.011199000,-0.037203000,0.000221504,-0.000145047,-0.000087937,-0.001897404,-0.011732914,0.000653232,0.006867068,-0.015291102,0.999942417,-0.000281858,-0.001497587,0.003435603,0.000000000,0.000000000,0.000000000,0.000000000,0.016405293,0.006341828,0.071456438,0.011897532,-0.002321038,0.001053164,0.004026949,-0.001278836,0.001264304,-0.764935903,0.219633875,-1.576820265,-0.006700999,-0.001824592,-0.013772369,0.999880174,0.000000000,0.000000000,0.000000000,0.000000000,0.000000000,0.000000000,0.058337945,0.000000000,4.207038403
1772724380.462996006,0.016309000,0.006366000,0.071447000,-0.007505840,0.005574080,-0.018576350,0.999783730,-0.015217000,0.010867000,-0.037239000,0.000239763,-0.000099884,-0.000117250,-0.007381423,-0.006408148,0.000210135,0.008280705,-0.015746460,1.000838887,-0.001663213,-0.004572715,0.001142341,0.000000000,0.000000000,0.000000000,0.000000000,0.016392598,0.006343183,0.071458023,0.012506836,-0.002505872,0.001113896,0.004448799,-0.000876388,-0.000421817,-0.765116917,0.223988746,-1.575623150,-0.006703080,-0.001862640,-0.013762176,0.999880246,0.000000000,0.000000000,0.000000000,0.000000000,0.000000000,0.000000000,0.058337945,0.000000000,4.207038403
1772724380.472995520,0.016314000,0.006358000,0.071447000,-0.007579940,0.005597230,-0.018530400,0.999783900,-0.015366000,0.010911000,-0.037148000,0.000226632,-0.000081741,0.000165249,-0.004821805,-0.005258698,-0.003114849,0.010720106,-0.016827292,1.001781431,-0.002144113,-0.004690087,-0.002208806,0.000000000,0.000000000,0.000000000,0.000000000,0.016430932,0.006334538,0.071464461,0.013202351,-0.002799118,0.001252298,0.005620984,-0.003391462,0.000900954,-0.763592287,0.223904405,-1.572155663,-0.006689711,-0.001862290,-0.013731891,0.999880584,0.000000000,0.000000000,0.000000000,0.000000000,0.000000000,0.000000000,0.058337945,0.000000000,4.207038403
1772724380.482996464,0.016318000,0.006360000,0.071453000,-0.007588520,0.005598970,-0.018519600,0.999784020,-0.015383000,0.010915000,-0.037127000,0.000130128,0.000011752,0.000324184,-0.000700398,-0.000241575,-0.002338837,0.009365701,-0.017256026,1.001266100,0.000920754,-0.000347144,-0.000737641,0.000000000,0.000000000,0.000000000,0.000000000,0.016434105,0.006335171,0.071463359,0.013365970,-0.002945276,0.001287104,0.004632678,-0.003392395,0.000805398,-0.763096804,0.223730632,-1.571145056,-0.006685350,-0.001860892,-0.013723055,0.999880742,0.000000000,0.000000000,0.000000000,0.000000000,0.000000000,0.000000000,0.058337945,0.000000000,4.207038403
1772724380.492996693,0.016321000,0.006356000,0.071452000,-0.007582280,0.005707720,-0.018605260,0.999781860,-0.015375000,0.011131000,-0.037300000,-0.000008683,0.000070222,0.000350758,0.007258038,-0.000656427,0.002804370,0.007715712,-0.016340209,1.000605686,0.002196730,-0.001812882,0.001223700,0.000000000,0.000000000,0.000000000,0.000000000,0.016436375,0.006335890,0.071462039,0.013510922,-0.003088533,0.001317736,0.003296528,-0.002988437,0.000481436,-0.762483977,0.223405080,-1.570354209,-0.006679951,-0.001858171,-0.013716125,0.999880866,0.000000000,0.000000000,0.000000000,0.000000000,0.000000000,0.000000000,0.058337945,0.000000000,4.207038403
1772724380.502996445,0.016310000,0.006359000,0.071464000,-0.007516500,0.005664410,-0.018546140,0.999783710,-0.015241000,0.011048000,-0.037180000,-0.000109615,0.000136461,0.000031255,0.007267510,-0.000087409,0.005469873,0.007034958,-0.013875586,1.000031060,0.001809106,-0.004368204,0.000674602,0.000000000,0.000000000,0.000000000,0.000000000,0.016479501,0.006322439,0.071464497,0.013642585,-0.003286171,0.001321589,0.003821397,-0.000091932,0.000291338,-0.761547743,0.224396778,-1.568874709,-0.006671876,-0.001867022,-0.013703259,0.999881081,0.000000000,0.000000000,0.000000000,0.000000000,0.000000000,0.000000000,0.058337945,0.000000000,4.207038403
1772724380.512996912,0.016321000,0.006361000,0.071468000,-0.007382110,0.005516690,-0.018595920,0.999784610,-0.014968000,0.010757000,-0.037276000,-0.000245979,0.000190268,-0.000366706,0.003019047,-0.006582453,0.005951371,0.008646872,-0.013253481,1.000188134,0.005579929,-0.000353329,0.002054805,0.000000000,0.000000000,0.000000000,0.000000000,0.016439835,0.006330319,0.071470740,0.013674197,-0.003142452,0.001245521,0.005037019,0.000625613,-0.000815192,-0.758272601,0.225905913,-1.563092731,-0.006643383,-0.001880917,-0.013652840,0.999881879,0.000000000,0.000000000,0.000000000,0.000000000,0.000000000,0.000000000,0.058337945,0.000000000,4.207038403
1772724380.522997141,0.016311000,0.006365000,0.071452000,-0.007473140,0.005563580,-0.018449230,0.999786390,-0.015150000,0.010849000,-0.036984000,-0.000185470,0.000065773,-0.000458722,-0.000464416,-0.014523909,0.005476597,0.007584100,-0.013382743,0.999606138,0.001361430,-0.000478000,0.000044817,0.000000000,0.000000000,0.000000000,0.000000000,0.016451470,0.006330748,0.071472763,0.013882268,-0.003000911,0.001177012,0.004430073,-0.000502873,0.000420583,-0.756084476,0.224228970,-1.560176389,-0.006624044,-0.001866714,-0.013627261,0.999882461,0.000000000,0.000000000,0.000000000,0.000000000,0.000000000,0.000000000,0.058337945,0.000000000,4.207038403
1772724380.532997131,0.016310000,0.006367000,0.071442000,-0.007463790,0.005459130,-0.018365750,0.999788570,-0.015126000,0.010642000,-0.036816000,-0.000044211,-0.000142075,-0.000236111,-0.003585231,-0.018314560,0.003044199,0.011126904,-0.013985317,1.000038784,0.000712458,-0.000596566,-0.001595430,0.000000000,0.000000000,0.000000000,0.000000000,0.016449210,0.006334729,0.071464008,0.014053731,-0.002913821,0.001094186,0.006340618,-0.001103509,0.000832788,-0.755577889,0.223112950,-1.558532941,-0.006619465,-0.001857131,-0.013612849,0.999882676,0.000000000,0.000000000,0.000000000,0.000000000,0.000000000,0.000000000,0.058337945,0.000000000,4.207038403
1772724380.542996645,0.016308000,0.006359000,0.071441000,-0.007588770,0.005529450,-0.018489620,0.999784960,-0.015380000,0.010776000,-0.037066000,0.000174476,-0.000447825,0.000189006,-0.005462735,-0.017697585,-0.003640125,0.009040562,-0.015861766,1.002279776,-0.002976321,0.001998491,0.000025035,0.000000000,0.000000000,0.000000000,0.000000000,0.016448314,0.006333160,0.071456235,0.014435914,-0.003026356,0.001196472,0.004207461,-0.002999382,0.002438257,-0.755255616,0.221704196,-1.555961096,-0.006616443,-0.001845026,-0.013590321,0.999882990,0.000000000,0.000000000,0.000000000,0.000000000,0.000000000,0.000000000,0.058337945,0.000000000,4.207038403
1772724380.552996874,0.016315000,0.006355000,0.071449000,-0.007557720,0.005217690,-0.018518690,0.999786330,-0.015307000,0.010153000,-0.037119000,0.000260839,-0.000501846,0.000350525,-0.005989137,-0.011967508,-0.006539057,0.007621517,-0.014468029,1.000248309,0.000810516,-0.000037381,-0.001587593,0.000000000,0.000000000,0.000000000,0.000000000,0.016452376,0.006328896,0.071458915,0.014413692,-0.003200349,0.001339688,0.004817928,-0.001337435,-0.000041419,-0.756181238,0.221175207,-1.553526523,-0.006624419,-0.001840441,-0.013569064,0.999883287,0.000000000,0.000000000,0.000000000,0.000000000,0.000000000,0.000000000,0.058337945,0.000000000,4.207038403
1772724380.562997103,0.016317000,0.006353000,0.071462000,-0.007494350,0.005128260,-0.018527770,0.999787110,-0.015177000,0.009977000,-0.037135000,0.000314375,-0.000300641,0.000277487,-0.004857207,-0.011187809,-0.008873996,0.008277302,-0.014477186,0.999826698,0.002522707,0.000949709,-0.001797909,0.000000000,0.000000000,0.000000000,0.000000000,0.016455818,0.006324984,0.071467493,0.014508965,-0.003182076,0.001289670,0.003568908,-0.001750048,0.000205041,-0.754121182,0.220954907,-1.551613193,-0.006606387,-0.001838873,-0.013552322,0.999883604,0.000000000,0.000000000,0.000000000,0.000000000,0.000000000,0.000000000,0.058337945,0.000000000,4.207038403
1772724380.572996616,0.016320000,0.006344000,0.071465000,-0.007585650,0.005225510,-0.018542350,0.999785640,-0.015363000,0.010168000,-0.037167000,0.000141006,-0.000011247,-0.000092560,-0.003780664,-0.008893585,-0.004557633,0.008486638,-0.015855115,0.999699509,0.000783392,0.003430330,0.000635070,0.000000000,0.000000000,0.000000000,0.000000000,0.016500081,0.006309464,0.071475526,0.014644891,-0.003339249,0.001246984,0.004363042,-0.003159897,-0.000733608,-0.751478154,0.220238386,-1.550405634,-0.006583221,-0.001833003,-0.013541702,0.999883926,0.000000000,0.000000000,0.000000000,0.000000000,0.000000000,0.000000000,0.058337945,0.000000000,4.207038403
1772724380.582996368,0.016324000,0.006346000,0.071460000,-0.007626090,0.005204090,-0.018610280,0.999784190,-0.015444000,0.010122000,-0.037302000,-0.000119814,0.000397572,-0.000397825,-0.003788121,-0.005674719,-0.000727125,0.008608463,-0.016390381,1.001153621,0.002016456,-0.004894600,0.006118777,0.000000000,0.000000000,0.000000000,0.000000000,0.016566015,0.006294810,0.071477124,0.014872583,-0.003572223,0.001192810,0.004411860,-0.003482730,0.001225521,-0.750459139,0.217975339,-1.549056933,-0.006574041,-0.001813454,-0.013529789,0.999884174,0.000000000,0.000000000,0.000000000,0.000000000,0.000000000,0.000000000,0.058337945,0.000000000,4.207038403
1772724380.592996836,0.016318000,0.006358000,0.071434000,-0.007680460,0.005283970,-0.018557570,0.999784330,-0.015555000,0.010281000,-0.037199000,-0.000380401,0.000511325,-0.000407945,-0.006655205,-0.001778565,0.000323946,0.009177811,-0.015137334,1.001251423,0.003853930,-0.002264793,-0.000740383,0.000000000,0.000000000,0.000000000,0.000000000,0.016460610,0.006321656,0.071457812,0.014673433,-0.003632147,0.001179794,0.005417971,-0.002114376,0.001210686,-0.748736173,0.220390799,-1.545484478,-0.006559235,-0.001834938,-0.013498728,0.999884650,0.000000000,0.000000000,0.000000000,0.000000000,0.000000000,0.000000000,0.058337945,0.000000000,4.207038403
1772724380.602997303,0.016311000,0.006364000,0.071444000,-0.007655570,0.005032620,-0.018577400,0.999785450,-0.015496000,0.009779000,-0.037234000,-0.000229235,0.000387374,-0.000284888,-0.003564595,0.005239982,0.003456609,0.009162647,-0.014125016,1.000872197,0.000788837,0.001168903,-0.001618675,0.000000000,0.000000000,0.000000000,0.000000000,0.016457979,0.006325456,0.071457044,0.014792221,-0.003639982,0.001252829,0.004998396,-0.000660817,0.001700037,-0.747533001,0.219485726,-1.545037122,-0.006548623,-0.001827208,-0.013494754,0.999884824,0.000000000,0.000000000,0.000000000,0.000000000,0.000000000,0.000000000,0.058337945,0.000000000,4.207038403
1772724380.612997532,0.016313000,0.006363000,0.071446000,-0.007596900,0.005105620,-0.018535440,0.999786310,-0.015381000,0.009928000,-0.037151000,0.000034538,0.000069969,0.000059033,0.001118364,0.013356880,0.006253176,0.006398927,-0.015393448,0.999340015,-0.000578636,-0.000019556,-0.000339779,0.000000000,0.000000000,0.000000000,0.000000000,0.016456970,0.006327805,0.071458225,0.014817703,-0.003612958,0.001272152,0.002945922,-0.002512582,-0.000628174,-0.746887794,0.216858896,-1.543467739,-0.006542660,-0.001804453,-0.013480899,0.999885068,0.000000000,0.000000000,0.000000000,0.000000000,0.000000000,0.000000000,0.058337945,0.000000000,4.207038403
1772724380.622997522,0.016307000,0.006370000,0.071450000,-0.007717320,0.005281900,-0.018534310,0.999784490,-0.015629000,0.010276000,-0.037153000,0.000267541,-0.000195105,0.000398330,0.001976238,0.021838800,0.005647840,0.008058580,-0.015595963,1.000431180,-0.000211908,-0.003512180,0.001624240,0.000000000,0.000000000,0.000000000,0.000000000,0.016454807,0.006329385,0.071460394,0.014689113,-0.003724050,0.001172317,0.002936871,-0.003655617,-0.000250942,-0.746786003,0.215796098,-1.540797687,-0.006541604,-0.001795344,-0.013457540,0.999885405,0.000000000,0.000000000,0.000000000,0.000000000,0.000000000,0.000000000,0.058337945,0.000000000,4.207038403
1772724380.632997990,0.016314000,0.006356000,0.071453000,-0.007688770,0.005396330,-0.018480510,0.999785090,-0.015575000,0.010506000,-0.037047000,0.000303147,-0.000302506,0.000355129,0.001771399,0.028829248,0.001929792,0.008534234,-0.014048362,1.002056192,0.001389326,0.000711118,0.002101401,0.000000000,0.000000000,0.000000000,0.000000000,0.016509610,0.006311345,0.071466509,0.014835565,-0.003886179,0.001212911,0.005223483,-0.000535997,0.001438450,-0.746335309,0.217476819,-1.538332393,-0.006537829,-0.001810203,-0.013436118,0.999885679,0.000000000,0.000000000,0.000000000,0.000000000,0.000000000,0.000000000,0.058337945,0.000000000,4.207038403
1772724380.642998457,0.016330000,0.006352000,0.071446000,-0.007586970,0.005748530,-0.018451750,0.999784440,-0.015384000,0.011215000,-0.036994000,0.000182537,-0.000196154,-0.000046698,0.000080377,0.035380431,-0.000485268,0.008239963,-0.015394252,1.000051397,0.001601784,-0.000338506,0.001523027,0.000000000,0.000000000,0.000000000,0.000000000,0.016562762,0.006296246,0.071471277,0.015048408,-0.003906030,0.001310835,0.003585762,-0.002395969,0.000690627,-0.745039851,0.216343747,-1.536760725,-0.006526368,-0.001800557,-0.013422318,0.999885957,0.000000000,0.000000000,0.000000000,0.000000000,0.000000000,0.000000000,0.058337945,0.000000000,4.207038403
1772724380.652998686,0.016323000,0.006354000,0.071456000,-0.007605940,0.005625520,-0.018479930,0.999784470,-0.015418000,0.010968000,-0.037048000,-0.000298757,0.000165132,-0.000166181,-0.000601702,0.028659721,-0.002275546,0.008445476,-0.017356777,1.000081821,0.002094763,-0.001617160,0.002844678,0.000000000,0.000000000,0.000000000,0.000000000,0.016465026,0.006319750,0.071464577,0.014790683,-0.003938810,0.001249729,0.005169914,-0.004326533,0.000140884,-0.743118096,0.216044403,-1.534514974,-0.006509530,-0.001798298,-0.013402678,0.999886364,0.000000000,0.000000000,0.000000000,0.000000000,0.000000000,0.000000000,0.058337945,0.000000000,4.207038403
1772724380.662999153,0.016314000,0.006364000,0.071456000,-0.007639640,0.005772020,-0.018540970,0.999782250,-0.015492000,0.011258000,-0.037173000,-0.000693493,0.000415579,-0.000217502,0.000950413,0.020641988,-0.001364223,0.009280600,-0.017032281,1.000012409,0.000755057,-0.001849159,0.000220105,0.000000000,0.000000000,0.000000000,0.000000000,0.016460596,0.006322124,0.071463981,0.014861428,-0.004195341,0.001191319,0.005398008,-0.004222548,-0.000314395,-0.743614378,0.214666749,-1.532215245,-0.006513663,-0.001786350,-0.013382540,0.999886619,0.000000000,0.000000000,0.000000000,0.000000000,0.000000000,0.000000000,0.058337945,0.000000000,4.207038403
1772724380.672999144,0.016306000,0.006361000,0.071442000,-0.007649220,0.006000980,-0.018541000,0.999780830,-0.015519000,0.011716000,-0.037177000,-0.000639433,0.000614608,-0.000252273,-0.000014488,0.009115585,0.003546159,0.008487759,-0.015290270,1.000675126,-0.001458882,0.002710624,-0.001312463,0.000000000,0.000000000,0.000000000,0.000000000,0.016455939,0.006322087,0.071458317,0.014944501,-0.004388906,0.001118321,0.005375415,-0.002696175,0.001190212,-0.742820276,0.214961707,-1.530577066,-0.006506744,-0.001789109,-0.013368251,0.999886855,0.000000000,0.000000000,0.000000000,0.000000000,0.000000000,0.000000000,0.058337945,0.000000000,4.207038403
1772724380.682999849,0.016305000,0.006368000,0.071441000,-0.007652330,0.006078590,-0.018500610,0.999781090,-0.015528000,0.011872000,-0.037097000,-0.000257343,0.000315637,-0.000160548,0.001007764,0.000354684,0.007582993,0.010020234,-0.014426120,0.999971247,-0.001875646,0.002952135,-0.001463243,0.000000000,0.000000000,0.000000000,0.000000000,0.016452123,0.006325029,0.071455389,0.015021332,-0.004421937,0.001133469,0.006396877,-0.001495708,0.000499764,-0.742408856,0.213891382,-1.529414702,-0.006503011,-0.001779884,-0.013358041,0.999887000,0.000000000,0.000000000,0.000000000,0.000000000,0.000000000,0.000000000,0.058337945,0.000000000,4.207038403
1772724380.692999601,0.016289000,0.006380000,0.071445000,-0.007620760,0.005910150,-0.018438060,0.999783490,-0.015458000,0.011537000,-0.036969000,0.000471679,-0.000113287,-0.000075796,0.003777792,-0.011132036,0.006322786,0.009315842,-0.014603117,1.001115839,0.000420778,0.001076222,-0.000610510,0.000000000,0.000000000,0.000000000,0.000000000,0.016445388,0.006330630,0.071455417,0.015163881,-0.004370998,0.001101523,0.005115258,-0.002313288,0.001852557,-0.742672513,0.212314449,-1.528223615,-0.006505109,-0.001766161,-0.013347563,0.999887159,0.000000000,0.000000000,0.000000000,0.000000000,0.000000000,0.000000000,0.058337945,0.000000000,4.207038403
1772724380.703000307,0.016306000,0.006369000,0.071447000,-0.007542090,0.005812890,-0.018398050,0.999785400,-0.015296000,0.011346000,-0.036887000,0.000704604,-0.000408645,0.000333994,0.005672631,-0.024355410,0.001180731,0.007964904,-0.015071230,1.002596350,0.002271166,-0.000922695,0.000661159,0.000000000,0.000000000,0.000000000,0.000000000,0.016589045,0.006289044,0.071466747,0.015588702,-0.004574372,0.001307477,0.003088324,-0.001933935,0.001918017,-0.741901171,0.212048148,-1.526852825,-0.006498327,-0.001764005,-0.013335575,0.999887374,0.000000000,0.000000000,0.000000000,0.000000000,0.000000000,0.000000000,0.058337945,0.000000000,4.207038403
1772724380.713000298,0.016328000,0.006367000,0.071444000,-0.007570550,0.005692730,-0.018337780,0.999786980,-0.015348000,0.011106000,-0.036764000,0.000550467,-0.000401380,0.000369678,0.006383192,-0.021329650,-0.004321669,0.009052659,-0.014988452,1.001996906,0.001023371,-0.002058289,0.001537302,0.000000000,0.000000000,0.000000000,0.000000000,0.016463201,0.006326327,0.071456718,0.015110466,-0.004409665,0.001337641,0.004303057,-0.001516708,0.000964393,-0.741065059,0.211737096,-1.525123492,-0.006490968,-0.001761486,-0.013320456,0.999887619,0.000000000,0.000000000,0.000000000,0.000000000,0.000000000,0.000000000,0.058337945,0.000000000,4.207038403
1772724380.723000050,0.016322000,0.006353000,0.071453000,-0.007574330,0.005681920,-0.018487400,0.999784260,-0.015357000,0.011082000,-0.037064000,0.000125466,-0.000258295,0.000241065,0.008331950,-0.016874168,-0.008329056,0.009743330,-0.015257644,1.001558333,0.000507383,-0.001701004,0.001380981,0.000000000,0.000000000,0.000000000,0.000000000,0.016466523,0.006318531,0.071461607,0.015180601,-0.004437061,0.001411431,0.005568273,-0.002889300,0.001010013,-0.740790596,0.212012739,-1.524025899,-0.006488588,-0.001763985,-0.013310890,0.999887771,0.000000000,0.000000000,0.000000000,0.000000000,0.000000000,0.000000000,0.058337945,0.000000000,4.207038403
1772724380.733000755,0.016329000,0.006353000,0.071454000,-0.007512950,0.005395340,-0.018571890,0.999784740,-0.015224000,0.010509000,-0.037228000,-0.000288209,0.000017502,0.000087685,0.006223189,-0.014675394,-0.010120069,0.010047545,-0.015869489,1.001276307,0.000703704,0.000109550,0.000219598,0.000000000,0.000000000,0.000000000,0.000000000,0.016468437,0.006317072,0.071462713,0.015253239,-0.004505042,0.001432405,0.006562810,-0.004016852,0.001135532,-0.740570520,0.212609735,-1.523180390,-0.006486724,-0.001769268,-0.013303542,0.999887873,0.000000000,0.000000000,0.000000000,0.000000000,0.000000000,0.000000000,0.058337945,0.000000000,4.207038403
1772724380.743001461,0.016307000,0.006362000,0.071461000,-0.007449010,0.005540950,-0.018552690,0.999784780,-0.015102000,0.010803000,-0.037191000,-0.000656003,0.000291589,-0.000108314,0.002932313,-0.017793622,-0.007191441,0.010351760,-0.016481335,1.000994280,0.000900024,0.001920104,-0.000941785,0.000000000,0.000000000,0.000000000,0.000000000,0.016470352,0.006315613,0.071463819,0.015325877,-0.004573024,0.001453379,0.006467622,-0.003072704,0.001153096,-0.740350444,0.213206731,-1.522334880,-0.006484860,-0.001774550,-0.013296194,0.999887974,0.000000000,0.000000000,0.000000000,0.000000000,0.000000000,0.000000000,0.058337945,0.000000000,4.207038403
1772724380.753001451,0.016303000,0.006370000,0.071444000,-0.007445900,0.005542900,-0.018539320,0.999785040,-0.015096000,0.010808000,-0.037164000,-0.000393843,0.000324223,-0.000404818,-0.003478636,-0.014476309,-0.002454762,0.010295837,-0.015396816,1.000529570,0.001827005,0.000535237,-0.000338282,0.000000000,0.000000000,0.000000000,0.000000000,0.016471971,0.006314265,0.071465053,0.015400768,-0.004638426,0.001474468,0.006372441,-0.002128623,0.001170659,-0.740011668,0.211460341,-1.520778702,-0.006481678,-0.001759439,-0.013282513,0.999888205,0.000000000,0.000000000,0.000000000,0.000000000,0.000000000,0.000000000,0.058337945,0.000000000,4.207038403
1772724380.763001204,0.016303000,0.006370000,0.071451000,-0.007442770,0.005219840,-0.018584240,0.999785970,-0.015078000,0.010161000,-0.037249000,0.000031546,0.000204099,-0.000436655,-0.009327782,-0.008718712,0.002640129,0.009664930,-0.014706956,1.000148352,0.001713728,-0.000649880,-0.001097565,0.000000000,0.000000000,0.000000000,0.000000000,0.016465064,0.006316138,0.071469945,0.015540844,-0.004629497,0.001498894,0.005599957,-0.001903250,0.000439076,-0.739272843,0.210910408,-1.517804155,-0.006475122,-0.001754894,-0.013256515,0.999888558,0.000000000,0.000000000,0.000000000,0.000000000,0.000000000,0.000000000,0.058337945,0.000000000,4.207038403
1772724380.773001194,0.016310000,0.006364000,0.071442000,-0.007604770,0.005224890,-0.018585220,0.999784710,-0.015402000,0.010165000,-0.037252000,0.000201943,-0.000124398,-0.000217017,-0.010382955,0.001000907,0.002617446,0.009184460,-0.014615844,1.000196771,0.000366637,0.000956547,-0.000670347,0.000000000,0.000000000,0.000000000,0.000000000,0.016469932,0.006319334,0.071465530,0.015700399,-0.004629722,0.001325248,0.005603799,-0.001126869,0.000792647,-0.738734528,0.210038544,-1.516172731,-0.006470300,-0.001747441,-0.013242222,0.999888835,0.000000000,0.000000000,0.000000000,0.000000000,0.000000000,0.000000000,0.058337945,0.000000000,4.207038403
1772724380.783001661,0.016313000,0.006365000,0.071438000,-0.007633650,0.005240370,-0.018515800,0.999785690,-0.015460000,0.010196000,-0.037114000,0.000461189,-0.000203108,0.000021426,-0.008923898,-0.000554629,0.004849060,0.008965518,-0.013277368,0.999362802,0.001624195,0.001664128,0.002710800,0.000000000,0.000000000,0.000000000,0.000000000,0.016460114,0.006322195,0.071459343,0.015744935,-0.004515007,0.001287207,0.005356894,-0.000140305,-0.001072061,-0.738091003,0.207516499,-1.515202614,-0.006464379,-0.001725564,-0.013233607,0.999889014,0.000000000,0.000000000,0.000000000,0.000000000,0.000000000,0.000000000,0.058337945,0.000000000,4.207038403
1772724380.793002605,0.016319000,0.006366000,0.071438000,-0.007704230,0.005425910,-0.018515570,0.999784170,-0.015608000,0.010564000,-0.037117000,0.000171115,-0.000134751,0.000276399,-0.004467117,0.000822811,0.009145910,0.008096560,-0.013352389,0.998921652,0.002584733,0.001268644,-0.000383672,0.000000000,0.000000000,0.000000000,0.000000000,0.016462725,0.006322428,0.071455172,0.015766923,-0.004377003,0.001096930,0.004945693,-0.000244379,-0.000451894,-0.736669746,0.207002112,-1.514616322,-0.006451909,-0.001721272,-0.013228441,0.999889182,0.000000000,0.000000000,0.000000000,0.000000000,0.000000000,0.000000000,0.058337945,0.000000000,4.207038403
1772724380.803002357,0.016313000,0.006360000,0.071454000,-0.007603490,0.005403610,-0.018476460,0.999785780,-0.015405000,0.010524000,-0.037038000,0.000047047,-0.000081391,0.000380148,0.001106239,0.001326049,0.008822978,0.008063277,-0.013643999,1.002446543,-0.001769326,0.003256081,-0.000572898,0.000000000,0.000000000,0.000000000,0.000000000,0.016466140,0.006323203,0.071452214,0.015764437,-0.004256380,0.001052988,0.004007668,-0.000443407,0.000755102,-0.735600166,0.207342339,-1.514157557,-0.006442609,-0.001724390,-0.013224440,0.999889283,0.000000000,0.000000000,0.000000000,0.000000000,0.000000000,0.000000000,0.058337945,0.000000000,4.207038403
1772724380.813003302,0.016313000,0.006361000,0.071451000,-0.007591790,0.005387800,-0.018446840,0.999786500,-0.015381000,0.010493000,-0.036978000,-0.000188539,-0.000030653,0.000426477,0.006195625,0.000752601,0.003841165,0.007054377,-0.014602940,1.000830893,-0.000017121,0.002217681,-0.002847321,0.000000000,0.000000000,0.000000000,0.000000000,0.016467502,0.006322848,0.071454383,0.015685782,-0.004171250,0.001122485,0.003339713,-0.001375335,0.001761301,-0.735383431,0.206438166,-1.513193661,-0.006440599,-0.001716580,-0.013215976,0.999889392,0.000000000,0.000000000,0.000000000,0.000000000,0.000000000,0.000000000,0.058337945,0.000000000,4.207038403
1772724380.823003531,0.016319000,0.006367000,0.071452000,-0.007659110,0.005150960,-0.018350850,0.999789000,-0.015505000,0.010019000,-0.036783000,-0.000311694,0.000081391,0.000131566,0.005201491,0.005164153,-0.000644276,0.008224030,-0.015896666,1.002994090,0.000202523,0.005739261,-0.000317118,0.000000000,0.000000000,0.000000000,0.000000000,0.016466303,0.006321741,0.071459178,0.015579559,-0.004195570,0.001268068,0.004254671,-0.003601266,0.002374621,-0.734263903,0.204552310,-1.512110529,-0.006430596,-0.001700314,-0.013206403,0.999889608,0.000000000,0.000000000,0.000000000,0.000000000,0.000000000,0.000000000,0.058337945,0.000000000,4.207038403
1772724380.833003998,0.016305000,0.006362000,0.071455000,-0.007580960,0.005274790,-0.018380990,0.999788400,-0.015354000,0.010269000,-0.036844000,-0.000230439,0.000348485,-0.000295397,0.003545654,0.007656248,-0.002404128,0.008960574,-0.017106546,1.000634079,-0.000926125,0.003477334,-0.000956489,0.000000000,0.000000000,0.000000000,0.000000000,0.016466293,0.006322053,0.071461364,0.015559197,-0.004349423,0.001412399,0.005192119,-0.004268651,0.001136309,-0.734009941,0.202397689,-1.510189840,-0.006428105,-0.001681651,-0.013189519,0.999889902,0.000000000,0.000000000,0.000000000,0.000000000,0.000000000,0.000000000,0.058337945,0.000000000,4.207038403
1772724380.843004227,0.016313000,0.006362000,0.071457000,-0.007535860,0.005506540,-0.018498900,0.999785320,-0.015274000,0.010732000,-0.037083000,-0.000095008,0.000387840,-0.000360296,0.001579206,0.010516931,-0.001642084,0.009275075,-0.016281160,0.999572278,-0.002106716,-0.000740237,0.002716897,0.000000000,0.000000000,0.000000000,0.000000000,0.016466788,0.006322688,0.071463490,0.015598992,-0.004539524,0.001417378,0.005262827,-0.003209761,-0.001082465,-0.733512823,0.200865710,-1.508467435,-0.006423566,-0.001668437,-0.013174397,0.999890158,0.000000000,0.000000000,0.000000000,0.000000000,0.000000000,0.000000000,0.058337945,0.000000000,4.207038403
1772724380.853003502,0.016300000,0.006371000,0.071444000,-0.007527740,0.005607090,-0.018504610,0.999784710,-0.015261000,0.010933000,-0.037096000,0.000030187,0.000107168,-0.000152564,0.002136142,0.013411003,-0.000288383,0.010405009,-0.015091146,0.999540212,-0.003494081,-0.001192440,-0.001032956,0.000000000,0.000000000,0.000000000,0.000000000,0.016462770,0.006320404,0.071465729,0.015650739,-0.004659505,0.001298218,0.006759240,-0.002709164,-0.000079791,-0.733588956,0.201529395,-1.505618357,-0.006424265,-0.001674379,-0.013149577,0.999890443,0.000000000,0.000000000,0.000000000,0.000000000,0.000000000,0.000000000,0.058337945,0.000000000,4.207038403
1772724380.863003492,0.016308000,0.006377000,0.071440000,-0.007576500,0.005506490,-0.018451840,0.999785880,-0.015354000,0.010731000,-0.036990000,0.000303089,-0.000367289,0.000125039,-0.000346750,0.004287393,-0.002420879,0.010024146,-0.015102130,0.999818651,0.000911921,0.000652509,0.000036674,0.000000000,0.000000000,0.000000000,0.000000000,0.016463837,0.006319298,0.071466643,0.015838627,-0.004700666,0.001213777,0.006399961,-0.001729691,-0.001273422,-0.733708715,0.201974876,-1.505013422,-0.006425352,-0.001678286,-0.013144325,0.999890553,0.000000000,0.000000000,0.000000000,0.000000000,0.000000000,0.000000000,0.058337945,0.000000000,4.207038403
1772724380.873003483,0.016317000,0.006375000,0.071441000,-0.007565750,0.005433680,-0.018414800,0.999787040,-0.015330000,0.010587000,-0.036914000,0.000463753,-0.000551613,0.000251107,-0.001965422,-0.003089898,-0.002901381,0.008978123,-0.014973758,0.999900135,0.001207875,0.001454736,0.000476996,0.000000000,0.000000000,0.000000000,0.000000000,0.016459902,0.006322999,0.071460174,0.015933331,-0.004691164,0.001076903,0.005237310,-0.002403121,0.001101385,-0.731641578,0.202383117,-1.502201236,-0.006407321,-0.001682243,-0.013119780,0.999890945,0.000000000,0.000000000,0.000000000,0.000000000,0.000000000,0.000000000,0.058337945,0.000000000,4.207038403
1772724380.883003235,0.016314000,0.006356000,0.071460000,-0.007536220,0.005499330,-0.018403510,0.999787110,-0.015273000,0.010719000,-0.036893000,0.000118201,-0.000537510,0.000237801,0.001646361,-0.001552177,-0.004043739,0.009298835,-0.014174239,0.999143249,-0.000781639,-0.002611847,0.000490398,0.000000000,0.000000000,0.000000000,0.000000000,0.016462020,0.006327372,0.071454993,0.015956499,-0.004684341,0.001036408,0.004755662,-0.001767826,-0.001387067,-0.730603459,0.200527487,-1.499582004,-0.006398012,-0.001666316,-0.013096804,0.999891314,0.000000000,0.000000000,0.000000000,0.000000000,0.000000000,0.000000000,0.058337945,0.000000000,4.207038403
1772724380.893003225,0.016320000,0.006346000,0.071457000,-0.007552490,0.005626460,-0.018530150,0.999783940,-0.015312000,0.010971000,-0.037148000,-0.000090929,-0.000193240,0.000124398,0.005544385,0.005868957,-0.003807717,0.009490711,-0.014050525,0.999337428,-0.000998187,-0.003134270,0.000541666,0.000000000,0.000000000,0.000000000,0.000000000,0.016463896,0.006327915,0.071454097,0.015971897,-0.004664266,0.000976351,0.005147549,-0.001491562,-0.000874635,-0.730420663,0.200904841,-1.499226544,-0.006396455,-0.001669650,-0.013093721,0.999891382,0.000000000,0.000000000,0.000000000,0.000000000,0.000000000,0.000000000,0.058337945,0.000000000,4.207038403
1772724380.903003693,0.016321000,0.006344000,0.071460000,-0.007566040,0.005374790,-0.018627310,0.999783420,-0.015330000,0.010466000,-0.037339000,-0.000400428,0.000252215,-0.000108819,0.006549097,0.008455234,-0.001673126,0.009520318,-0.014098998,0.999827137,-0.001069264,-0.002390998,0.000273031,0.000000000,0.000000000,0.000000000,0.000000000,0.016465773,0.006328457,0.071453200,0.015987296,-0.004644189,0.000916292,0.005539454,-0.001215285,-0.000362179,-0.730237858,0.201282214,-1.498871068,-0.006394898,-0.001672983,-0.013090638,0.999891427,0.000000000,0.000000000,0.000000000,0.000000000,0.000000000,0.000000000,0.058337945,0.000000000,4.207038403
1772724380.913003922,0.016308000,0.006367000,0.071443000,-0.007464100,0.005680840,-0.018523440,0.999784430,-0.015137000,0.011083000,-0.037135000,-0.000515443,0.000557401,-0.000246387,0.003146450,0.002613200,-0.000028078,0.009549923,-0.014147470,1.000316833,-0.001140338,-0.001647744,0.000004402,0.000000000,0.000000000,0.000000000,0.000000000,0.016467045,0.006328181,0.071453252,0.016005644,-0.004628077,0.000889805,0.005931351,-0.000939014,0.000150265,-0.730055057,0.201659578,-1.498515600,-0.006393341,-0.001676317,-0.013087555,0.999891472,0.000000000,0.000000000,0.000000000,0.000000000,0.000000000,0.000000000,0.058337945,0.000000000,4.207038403
1772724380.923003912,0.016296000,0.006372000,0.071444000,-0.007425030,0.005604500,-0.018467340,0.999786190,-0.015055000,0.010933000,-0.037021000,-0.000264744,0.000461403,-0.000283003,-0.002349208,-0.005772216,0.001050622,0.009579529,-0.014195941,1.000806518,-0.001211411,-0.000904507,-0.000264221,0.000000000,0.000000000,0.000000000,0.000000000,0.016467345,0.006326591,0.071454831,0.016028737,-0.004618345,0.000917350,0.006323237,-0.000662749,0.000662697,-0.729872261,0.202036933,-1.498160141,-0.006391784,-0.001679650,-0.013084472,0.999891517,0.000000000,0.000000000,0.000000000,0.000000000,0.000000000,0.000000000,0.058337945,0.000000000,4.207038403
1772724380.933003664,0.016307000,0.006373000,0.071449000,-0.007465740,0.005609330,-0.018444820,0.999786270,-0.015137000,0.010941000,-0.036976000,0.000133780,-0.000078030,-0.000124204,-0.005995222,-0.006505330,0.000501832,0.009609133,-0.014244411,1.001296192,-0.001282482,-0.000161289,-0.000532837,0.000000000,0.000000000,0.000000000,0.000000000,0.016467645,0.006325000,0.071456410,0.016051830,-0.004608613,0.000944893,0.006426364,-0.001044620,0.001317423,-0.729818563,0.202204818,-1.497816680,-0.006391329,-0.001681141,-0.013081483,0.999891562,0.000000000,0.000000000,0.000000000,0.000000000,0.000000000,0.000000000,0.058337945,0.000000000,4.207038403
1772724380.943003416,0.016306000,0.006363000,0.071451000,-0.007548580,0.005481900,-0.018537650,0.999784640,-0.015299000,0.010682000,-0.037161000,0.000557149,-0.000553070,0.000027914,-0.007989762,-0.003766896,-0.003086531,0.009638738,-0.014292881,1.001785865,-0.001353553,0.000581930,-0.000801453,0.000000000,0.000000000,0.000000000,0.000000000,0.016467945,0.006323410,0.071457988,0.016074923,-0.004598881,0.000972437,0.006354174,-0.001826079,0.002058551,-0.729881952,0.202182727,-1.497484093,-0.006391875,-0.001680959,-0.013078581,0.999891604,0.000000000,0.000000000,0.000000000,0.000000000,0.000000000,0.000000000,0.058337945,0.000000000,4.207038403
1772724380.953003407,0.016307000,0.006358000,0.071447000,-0.007623920,0.005410720,-0.018590310,0.999783480,-0.015447000,0.010536000,-0.037266000,0.000502798,-0.000502448,0.000079895,-0.006396589,-0.004997064,-0.003188852,0.009668343,-0.014341352,1.002275550,-0.001424626,0.001325166,-0.001070076,0.000000000,0.000000000,0.000000000,0.000000000,0.016468245,0.006321819,0.071459567,0.016098017,-0.004589149,0.000999981,0.006281982,-0.002607557,0.002799698,-0.729945342,0.202160636,-1.497151499,-0.006392421,-0.001680778,-0.013075679,0.999891644,0.000000000,0.000000000,0.000000000,0.000000000,0.000000000,0.000000000,0.058337945,0.000000000,4.207038403
1772724380.963003159,0.016326000,0.006350000,0.071443000,-0.007644890,0.005431860,-0.018555190,0.999783850,-0.015490000,0.010578000,-0.037196000,0.000096756,-0.000198718,0.000099243,-0.001218175,-0.003677291,-0.001850269,0.010212387,-0.015270223,1.002107831,-0.000429386,-0.000616854,-0.000275828,0.000000000,0.000000000,0.000000000,0.000000000,0.016469050,0.006319265,0.071461352,0.016135822,-0.004598948,0.001051822,0.006209895,-0.003383799,0.003528018,-0.730008730,0.202138546,-1.496818912,-0.006392966,-0.001680596,-0.013072777,0.999891685,0.000000000,0.000000000,0.000000000,0.000000000,0.000000000,0.000000000,0.058337945,0.000000000,4.207038403
1772724380.973001957,0.016325000,0.006349000,0.071446000,-0.007561100,0.005584770,-0.018537160,0.999783980,-0.015327000,0.010887000,-0.037162000,-0.000310140,0.000153264,0.000114083,0.001447175,-0.002844631,0.001436793,0.009269018,-0.015645139,1.000998562,0.001210068,-0.001449373,-0.000122314,0.000000000,0.000000000,0.000000000,0.000000000,0.016472970,0.006310767,0.071464411,0.016264346,-0.004729182,0.001253484,0.006163537,-0.002847042,0.001033152,-0.729454490,0.202443647,-1.495785834,-0.006388150,-0.001683379,-0.013063771,0.999891814,0.000000000,0.000000000,0.000000000,0.000000000,0.000000000,0.000000000,0.058337945,0.000000000,4.207038403
1772724380.983001947,0.016313000,0.006359000,0.071454000,-0.007550020,0.005534040,-0.018514080,0.999784780,-0.015303000,0.010786000,-0.037114000,-0.000318765,0.000482032,0.000032848,0.004650640,0.004984901,0.005094580,0.007378583,-0.015504883,0.999755527,-0.001079464,0.000626918,-0.002034268,0.000000000,0.000000000,0.000000000,0.000000000,0.016475289,0.006305711,0.071467197,0.016280444,-0.004829433,0.001243715,0.003830060,-0.003042331,-0.000212687,-0.728774531,0.202687758,-1.494352798,-0.006382223,-0.001685667,-0.013051268,0.999892007,0.000000000,0.000000000,0.000000000,0.000000000,0.000000000,0.000000000,0.058337945,0.000000000,4.207038403
1772724380.993001461,0.016297000,0.006372000,0.071448000,-0.007540690,0.005439160,-0.018475790,0.999786080,-0.015281000,0.010598000,-0.037036000,-0.000286791,0.000452215,-0.000178361,0.005592514,0.010459754,0.005803149,0.008217836,-0.014994586,1.000612758,-0.000714596,-0.002353587,-0.000177792,0.000000000,0.000000000,0.000000000,0.000000000,0.016468187,0.006314827,0.071460449,0.016110488,-0.004874207,0.001149049,0.004617934,-0.002461994,0.000644109,-0.728553547,0.202005009,-1.492132206,-0.006380185,-0.001679858,-0.013031853,0.999892280,0.000000000,0.000000000,0.000000000,0.000000000,0.000000000,0.000000000,0.058337945,0.000000000,4.207038403
1772724381.003001451,0.016304000,0.006359000,0.071456000,-0.007559500,0.005342980,-0.018568320,0.999784740,-0.015316000,0.010403000,-0.037220000,0.000047766,0.000133256,-0.000212957,0.003633217,0.013408834,0.004559186,0.010184876,-0.014509861,0.998244394,0.001353167,0.004072021,0.002304381,0.000000000,0.000000000,0.000000000,0.000000000,0.016462153,0.006321191,0.071458478,0.016107341,-0.004874795,0.001088717,0.006227826,-0.002212898,-0.000590145,-0.727202308,0.201928438,-1.489567134,-0.006368348,-0.001679486,-0.013009447,0.999892694,0.000000000,0.000000000,0.000000000,0.000000000,0.000000000,0.000000000,0.058337945,0.000000000,4.207038403
1772724381.013001204,0.016311000,0.006371000,0.071440000,-0.007558010,0.005696650,-0.018429620,0.999785360,-0.015324000,0.011113000,-0.036948000,0.000437355,-0.000144503,-0.000223097,0.001933428,0.012628741,0.005426022,0.008190990,-0.014716505,0.999659018,-0.000964178,0.004816049,0.002352667,0.000000000,0.000000000,0.000000000,0.000000000,0.016589612,0.006284370,0.071466289,0.016594016,-0.005033649,0.000965900,0.004299545,-0.002467993,0.000232691,-0.726360221,0.200293696,-1.487309981,-0.006360781,-0.001665443,-0.012989650,0.999892982,0.000000000,0.000000000,0.000000000,0.000000000,0.000000000,0.000000000,0.058337945,0.000000000,4.207038403
1772724381.023000717,0.016320000,0.006369000,0.071437000,-0.007421970,0.005837610,-0.018398660,0.999786140,-0.015057000,0.011400000,-0.036887000,0.000403400,-0.000147708,0.000073407,0.003752929,0.009542137,0.002917932,0.007352903,-0.014580242,1.001428972,0.002260546,0.003172096,0.000108615,0.000000000,0.000000000,0.000000000,0.000000000,0.016464816,0.006314466,0.071457145,0.016063335,-0.004921582,0.000961163,0.005098761,-0.001410171,0.002919465,-0.725394460,0.196275115,-1.484823307,-0.006351865,-0.001630625,-0.012967717,0.999893380,0.000000000,0.000000000,0.000000000,0.000000000,0.000000000,0.000000000,0.058337945,0.000000000,4.207038403
1772724381.033000469,0.016318000,0.006357000,0.071441000,-0.007470750,0.005748760,-0.018416700,0.999785960,-0.015152000,0.011220000,-0.036922000,0.000130575,-0.000032071,0.000381313,0.004680535,-0.003885442,0.000953729,0.007790055,-0.014042412,0.999668632,0.003161659,0.001621218,0.000362493,0.000000000,0.000000000,0.000000000,0.000000000,0.016538174,0.006289208,0.071459539,0.016187704,-0.004959817,0.001078345,0.004093158,-0.001692074,-0.000052473,-0.723141720,0.194195648,-1.483430175,-0.006331953,-0.001612812,-0.012955413,0.999893680,0.000000000,0.000000000,0.000000000,0.000000000,0.000000000,0.000000000,0.058337945,0.000000000,4.207038403
1772724381.042999506,0.016323000,0.006355000,0.071457000,-0.007506360,0.005639640,-0.018451570,0.999785670,-0.015219000,0.011000000,-0.036991000,-0.000295571,0.000058159,0.000358722,0.003426691,-0.013184239,-0.003120533,0.009976430,-0.013750022,1.001562998,-0.000713324,-0.002690289,0.002839513,0.000000000,0.000000000,0.000000000,0.000000000,0.016528872,0.006292087,0.071462173,0.016167021,-0.004857680,0.001120932,0.006770279,-0.001000423,0.001154894,-0.721576108,0.193454318,-1.480978866,-0.006318174,-0.001606655,-0.012933961,0.999894079,0.000000000,0.000000000,0.000000000,0.000000000,0.000000000,0.000000000,0.058337945,0.000000000,4.207038403
1772724381.052999258,0.016309000,0.006370000,0.071452000,-0.007465450,0.005520800,-0.018416810,0.999787280,-0.015133000,0.010764000,-0.036919000,-0.000492172,0.000099514,0.000253302,0.000646369,-0.017796282,-0.007041216,0.010712710,-0.012651674,0.999105203,0.002243282,0.001296223,0.002263224,0.000000000,0.000000000,0.000000000,0.000000000,0.016469489,0.006316357,0.071457791,0.016197270,-0.004694586,0.001084752,0.005963947,-0.002726978,0.001527587,-0.719794922,0.193296023,-1.478616592,-0.006302582,-0.001605605,-0.012913316,0.999894391,0.000000000,0.000000000,0.000000000,0.000000000,0.000000000,0.000000000,0.058337945,0.000000000,4.207038403
1772724381.062999487,0.016304000,0.006373000,0.071462000,-0.007409240,0.005479790,-0.018516240,0.999786090,-0.015020000,0.010683000,-0.037116000,-0.000515171,0.000298233,-0.000094775,-0.003337995,-0.008514523,-0.003156350,0.008804719,-0.013403079,0.999094806,0.001007542,-0.000389724,0.001835455,0.000000000,0.000000000,0.000000000,0.000000000,0.016469758,0.006322486,0.071453814,0.016300483,-0.004749374,0.001157453,0.004059942,-0.004010372,0.003121196,-0.715015532,0.193129863,-1.476124901,-0.006260824,-0.001604830,-0.012891498,0.999894985,0.000000000,0.000000000,0.000000000,0.000000000,0.000000000,0.000000000,0.058337945,0.000000000,4.207038403
1772724381.072999477,0.016307000,0.006364000,0.071451000,-0.007452970,0.005410720,-0.018468530,0.999787020,-0.015104000,0.010544000,-0.037020000,-0.000247358,0.000269853,-0.000323835,-0.005288086,-0.001125869,0.001000771,0.006991752,-0.014111679,0.999076551,-0.000195169,-0.001929059,0.001398984,0.000000000,0.000000000,0.000000000,0.000000000,0.016473660,0.006319265,0.071452074,0.016213548,-0.004875840,0.001310463,0.004563078,-0.001789019,0.000264776,-0.714060864,0.193748557,-1.474893771,-0.006252546,-0.001610403,-0.012880776,0.999895191,0.000000000,0.000000000,0.000000000,0.000000000,0.000000000,0.000000000,0.058337945,0.000000000,4.207038403
1772724381.082998753,0.016300000,0.006366000,0.071442000,-0.007521500,0.005598690,-0.018527330,0.999784390,-0.015249000,0.010916000,-0.037142000,-0.000004118,0.000138345,-0.000340249,-0.008833952,0.001231978,0.006201756,0.009062241,-0.013093117,0.998726677,-0.000072766,0.002351246,0.000609506,0.000000000,0.000000000,0.000000000,0.000000000,0.016476109,0.006314430,0.071456782,0.016187520,-0.004826145,0.001228524,0.005050162,-0.000812888,-0.001573893,-0.712835198,0.193857573,-1.472870702,-0.006241835,-0.001611602,-0.012863111,0.999895450,0.000000000,0.000000000,0.000000000,0.000000000,0.000000000,0.000000000,0.058337945,0.000000000,4.207038403
1772724381.092998743,0.016301000,0.006376000,0.071445000,-0.007562170,0.005496240,-0.018441020,0.999786240,-0.015325000,0.010711000,-0.036968000,0.000223660,-0.000111344,-0.000063889,-0.011403966,0.002076875,0.009346106,0.008547811,-0.013821528,0.998320818,-0.001481603,-0.001886982,0.000139766,0.000000000,0.000000000,0.000000000,0.000000000,0.016475509,0.006315193,0.071461210,0.016195128,-0.004727397,0.001076167,0.004849144,-0.001172170,-0.000942496,-0.712631626,0.192739963,-1.470553934,-0.006239901,-0.001601999,-0.012842833,0.999895773,0.000000000,0.000000000,0.000000000,0.000000000,0.000000000,0.000000000,0.058337945,0.000000000,4.207038403
1772724381.102997541,0.016306000,0.006371000,0.071448000,-0.007638430,0.005530520,-0.018365460,0.999786870,-0.015478000,0.010778000,-0.036818000,0.000428167,-0.000346640,0.000193706,-0.008548129,0.005588579,0.007183027,0.008595462,-0.013331835,0.999036335,-0.000458691,-0.000181640,0.000787525,0.000000000,0.000000000,0.000000000,0.000000000,0.016470598,0.006320264,0.071463184,0.016180579,-0.004639517,0.000940991,0.005131499,-0.001130683,-0.001082424,-0.712582713,0.192786658,-1.469384719,-0.006239464,-0.001602476,-0.012832633,0.999895920,0.000000000,0.000000000,0.000000000,0.000000000,0.000000000,0.000000000,0.058337945,0.000000000,4.207038403
1772724381.112997293,0.016315000,0.006368000,0.071448000,-0.007643980,0.005497720,-0.018354490,0.999787210,-0.015488000,0.010713000,-0.036796000,0.000445358,-0.000439045,0.000293959,-0.001901372,0.010429715,-0.002515713,0.007060599,-0.014314325,1.001405134,-0.001626588,0.000064100,0.001171820,0.000000000,0.000000000,0.000000000,0.000000000,0.016466317,0.006323022,0.071464971,0.016155744,-0.004559164,0.000862009,0.004176249,-0.001966367,0.000695129,-0.711622499,0.193353572,-1.467546652,-0.006231122,-0.001607630,-0.012816612,0.999896171,0.000000000,0.000000000,0.000000000,0.000000000,0.000000000,0.000000000,0.058337945,0.000000000,4.207038403
1772724381.122997522,0.016312000,0.006365000,0.071452000,-0.007643930,0.005561780,-0.018325550,0.999787380,-0.015490000,0.010841000,-0.036739000,0.000301108,-0.000393221,0.000287821,0.001530089,0.011439380,-0.008266269,0.007294440,-0.014278420,1.002630515,0.002260758,-0.001405523,0.002423726,0.000000000,0.000000000,0.000000000,0.000000000,0.016463318,0.006322057,0.071459954,0.016042948,-0.004555528,0.000938623,0.003322672,-0.001724907,0.001685818,-0.711231140,0.194528309,-1.466741273,-0.006227828,-0.001617968,-0.012809641,0.999896240,0.000000000,0.000000000,0.000000000,0.000000000,0.000000000,0.000000000,0.058337945,0.000000000,4.207038403
1772724381.132997036,0.016316000,0.006348000,0.071458000,-0.007661330,0.005677240,-0.018438180,0.999784530,-0.015530000,0.011070000,-0.036966000,-0.000036810,-0.000117891,0.000105400,0.001746038,0.014239433,-0.012529590,0.007344267,-0.013222465,1.000645160,0.001440723,0.004148551,-0.002772345,0.000000000,0.000000000,0.000000000,0.000000000,0.016459557,0.006325006,0.071456394,0.015894498,-0.004498736,0.001075169,0.003303142,-0.001237722,0.001109698,-0.709386507,0.194063133,-1.466011594,-0.006211669,-0.001614155,-0.012803222,0.999896437,0.000000000,0.000000000,0.000000000,0.000000000,0.000000000,0.000000000,0.058337945,0.000000000,4.207038403
1772724381.142997265,0.016325000,0.006350000,0.071457000,-0.007579580,0.005814690,-0.018589190,0.999781570,-0.015374000,0.011345000,-0.037269000,-0.000342580,0.000245008,-0.000141978,0.001365217,0.004824035,-0.010060940,0.007776236,-0.014587987,0.997816239,-0.001613008,-0.003433994,-0.002160021,0.000000000,0.000000000,0.000000000,0.000000000,0.016458894,0.006328021,0.071456673,0.015801809,-0.004430287,0.001044287,0.004875116,-0.001631212,-0.001041417,-0.708775994,0.193120829,-1.464874126,-0.006206220,-0.001606062,-0.012793238,0.999896605,0.000000000,0.000000000,0.000000000,0.000000000,0.000000000,0.000000000,0.058337945,0.000000000,4.207647017
