t,px,py,pz,qx,qy,qz,qw,roll,pitch,yaw,vx,vy,vz,wx_vicon,wy_vicon,wz_vicon,imu_acc_x,imu_acc_y,imu_acc_z,imu_gyro_x,imu_gyro_y,imu_gyro_z,motor_motor_m1,motor_motor_m2,motor_motor_m3,motor_motor_m4,est_stateEstimate_x,est_stateEstimate_y,est_stateEstimate_z,est_stateEstimate_vx,est_stateEstimate_vy,est_stateEstimate_vz,est_stateEstimate_ax,est_stateEstimate_ay,est_stateEstimate_az,att_stateEstimate_roll,att_stateEstimate_pitch,att_stateEstimate_yaw,att_stateEstimate_qx,att_stateEstimate_qy,att_stateEstimate_qz,att_stateEstimate_qw,sp_ctrltarget_x,sp_ctrltarget_y,sp_ctrltarget_z,sp_ctrltarget_yaw,pid_controller_roll,pid_controller_pitch,pid_controller_yaw,pid_controller_cmd_thrust,pwr_pm_vbat
1772724844.597169638,0.016247000,0.008787000,0.071222000,-0.002170570,0.000801990,0.016829720,0.999855690,-0.004314000,0.001677000,0.033658000,-0.000336927,0.001070261,0.003451907,0.053566419,-0.125756485,0.043592492,0.011175942,-0.004449642,0.997607316,-0.000523601,-0.001714158,-0.000411556,0.000000000,0.000000000,0.000000000,0.000000000,0.016522913,0.008746384,0.071133084,0.012878566,-0.001446882,-0.002208243,0.003333581,-0.001525810,-0.002264344,-0.183416173,0.413941096,1.444531112,-0.001554933,-0.003632198,0.012599687,0.999912120,0.000000000,0.000000000,0.000000000,0.000000000,0.000000000,0.000000000,2.728611231,0.000000000,4.228152752
1772724844.607170105,0.016266000,0.008785000,0.071202000,-0.001854300,0.000619850,0.016999430,0.999853590,-0.003687000,0.001303000,0.033998000,0.000702001,-0.000398505,0.000369387,0.002061962,-0.011196071,0.009165770,0.011287919,-0.004269290,0.997395604,-0.001866101,-0.002342715,-0.000991503,0.000000000,0.000000000,0.000000000,0.000000000,0.016521842,0.008749070,0.071131684,0.012882766,-0.001466418,-0.002222310,0.003248459,-0.001413650,-0.002560740,-0.182726057,0.413524729,1.443164994,-0.001549000,-0.003628471,0.012587794,0.999912216,0.000000000,0.000000000,0.000000000,0.000000000,0.000000000,0.000000000,2.728611231,0.000000000,4.228152752
1772724844.617170334,0.016266000,0.008794000,0.071193000,-0.001690460,0.000311780,0.017133880,0.999851730,-0.003370000,0.000681000,0.034268000,0.000982072,-0.000830789,-0.001172107,-0.019762498,0.029516113,-0.006015157,0.012992427,-0.003847314,0.997922234,0.001269190,-0.003678837,0.001140032,0.000000000,0.000000000,0.000000000,0.000000000,0.016514202,0.008762973,0.071134537,0.012873481,-0.001475339,-0.002333982,0.005765693,-0.000650602,-0.001829193,-0.182090336,0.413285576,1.441365121,-0.001543536,-0.003626290,0.012572111,0.999912332,0.000000000,0.000000000,0.000000000,0.000000000,0.000000000,0.000000000,2.728611231,0.000000000,4.228152752
1772724844.627170801,0.016255000,0.008758000,0.071264000,-0.002540820,0.001156850,0.016733610,0.999856090,-0.005042000,0.002398000,0.033463000,0.000747339,-0.000558761,-0.001568378,-0.019818600,0.019909637,-0.007286273,0.013351478,-0.003471877,0.998383821,0.002954702,-0.003458300,0.001608747,0.000000000,0.000000000,0.000000000,0.000000000,0.016514855,0.008763834,0.071134566,0.012968140,-0.001468655,-0.002367975,0.006137923,-0.000135981,-0.001484384,-0.181975235,0.413808049,1.439980236,-0.001542518,-0.003630818,0.012560023,0.999912396,0.000000000,0.000000000,0.000000000,0.000000000,0.000000000,0.000000000,2.728611231,0.000000000,4.228152752
1772724844.637170792,0.016291000,0.008772000,0.071192000,-0.002346590,0.000683560,0.016886680,0.999854420,-0.004669000,0.001446000,0.033772000,0.000241861,0.000085412,-0.001215230,-0.005985316,-0.016479780,-0.000022935,0.012396977,-0.003201896,0.998569174,0.002336486,-0.002083084,0.000215010,0.000000000,0.000000000,0.000000000,0.000000000,0.016515825,0.008764197,0.071134488,0.013066761,-0.001461376,-0.002399001,0.005451137,0.000216896,-0.001392983,-0.181250622,0.414165054,1.439843087,-0.001536161,-0.003633852,0.012558844,0.999912519,0.000000000,0.000000000,0.000000000,0.000000000,0.000000000,0.000000000,2.728611231,0.000000000,4.228152752
1772724844.647170782,0.016268000,0.008791000,0.071168000,-0.001984560,0.000184820,0.017030000,0.999852990,-0.003962000,0.000437000,0.034061000,-0.000290307,0.000769562,-0.000508470,0.013837735,-0.056124242,0.010429576,0.011442476,-0.002931914,0.998754526,0.001718271,-0.000707867,-0.001178727,0.000000000,0.000000000,0.000000000,0.000000000,0.016516658,0.008764514,0.071134790,0.013165466,-0.001452874,-0.002428621,0.004764351,0.000569773,-0.001301581,-0.180526009,0.414522059,1.439705939,-0.001529803,-0.003636886,0.012557665,0.999912641,0.000000000,0.000000000,0.000000000,0.000000000,0.000000000,0.000000000,2.728611231,0.000000000,4.228152752
1772724844.657170296,0.016273000,0.008788000,0.071170000,-0.001859540,0.000200500,0.017117970,0.999851730,-0.003712000,0.000465000,0.034237000,0.000297708,0.000573369,-0.001242192,0.038831248,-0.040215537,0.016902644,0.010519833,-0.003539004,0.999450808,0.002243469,0.000510395,0.000510001,0.000000000,0.000000000,0.000000000,0.000000000,0.016509963,0.008762266,0.071156107,0.013268750,-0.001376839,-0.002380559,0.003043573,-0.000352373,-0.000425333,-0.179309085,0.414881419,1.438534110,-0.001519182,-0.003639872,0.012547473,0.999912775,0.000000000,0.000000000,0.000000000,0.000000000,0.000000000,0.000000000,2.728611231,0.000000000,4.228152752
1772724844.667170286,0.016278000,0.008785000,0.071178000,-0.001839280,0.000193880,0.017097080,0.999852120,-0.003671000,0.000451000,0.034195000,0.000163734,-0.000193007,-0.000432227,0.026707029,0.031393163,0.007245541,0.011597819,-0.003504060,0.998679039,0.000355446,0.000332164,-0.003160005,0.000000000,0.000000000,0.000000000,0.000000000,0.016516294,0.008760627,0.071156896,0.013227515,-0.001385678,-0.002309871,0.004357465,-0.000183075,-0.001449047,-0.177329328,0.414810015,1.435792927,-0.001502002,-0.003638997,0.012523618,0.999912998,0.000000000,0.000000000,0.000000000,0.000000000,0.000000000,0.000000000,2.728611231,0.000000000,4.228152752
1772724844.677169561,0.016269000,0.008797000,0.071186000,-0.001770580,0.000030940,0.017099080,0.999852230,-0.003540000,0.000122000,0.034200000,-0.000167658,-0.000588132,0.000908198,-0.003511423,0.067495376,-0.006234446,0.011468879,-0.004527432,0.998864978,-0.001300784,0.002705902,-0.000087743,0.000000000,0.000000000,0.000000000,0.000000000,0.016520104,0.008764545,0.071152612,0.013353120,-0.001334206,-0.002389540,0.004038339,-0.001513521,-0.001193522,-0.175969993,0.414213915,1.433659908,-0.001490273,-0.003633619,0.012505057,0.999913292,0.000000000,0.000000000,0.000000000,0.000000000,0.000000000,0.000000000,2.728611231,0.000000000,4.228152752
1772724844.687169552,0.016263000,0.008801000,0.071199000,-0.001674910,0.000005340,0.017220360,0.999850320,-0.003349000,0.000068000,0.034442000,0.000378730,-0.001370864,0.000654546,-0.033157045,0.140311571,-0.023920302,0.011772588,-0.004390742,0.997722249,0.001433545,0.003352820,0.000225893,0.000000000,0.000000000,0.000000000,0.000000000,0.016518714,0.008747302,0.071186350,0.013397020,-0.001488079,-0.002271179,0.004651931,-0.001349024,-0.002042790,-0.175177179,0.413374550,1.432104852,-0.001483496,-0.003626188,0.012491524,0.999913408,0.000000000,0.000000000,0.000000000,0.000000000,0.000000000,0.000000000,2.728611231,0.000000000,4.228152752
1772724844.697170019,0.016320000,0.008737000,0.071128000,-0.001749310,0.002403300,0.016918020,0.999852460,-0.003417000,0.004865000,0.033829000,0.000394872,-0.001402818,0.000286364,-0.050495341,0.183864672,-0.034996689,0.011531776,-0.003854506,0.998182406,0.002016873,-0.000413685,-0.001887776,0.000000000,0.000000000,0.000000000,0.000000000,0.016534720,0.008745335,0.071167333,0.013523423,-0.001565832,-0.002433760,0.004270826,-0.000925106,-0.001945462,-0.174454501,0.411557394,1.431613956,-0.001477404,-0.003610247,0.012487289,0.999913626,0.000000000,0.000000000,0.000000000,0.000000000,0.000000000,0.000000000,2.728611231,0.000000000,4.228152752
1772724844.707170248,0.016255000,0.008743000,0.071236000,-0.002657880,0.002932490,0.016617530,0.999854090,-0.005218000,0.005953000,0.033221000,0.000559286,-0.000696757,-0.000428827,-0.041446441,0.157722928,-0.030411477,0.011508493,-0.004496705,0.998555151,-0.000622401,0.002052968,-0.000935014,0.000000000,0.000000000,0.000000000,0.000000000,0.016532481,0.008753106,0.071143342,0.013554047,-0.001548950,-0.002616101,0.004370038,-0.001556248,-0.000761907,-0.172973464,0.410095311,1.430086519,-0.001464688,-0.003597308,0.012474028,0.999913866,0.000000000,0.000000000,0.000000000,0.000000000,0.000000000,0.000000000,2.728611231,0.000000000,4.228152752
1772724844.717170715,0.016277000,0.008776000,0.071194000,-0.002384250,0.001899900,0.016760150,0.999854890,-0.004704000,0.003879000,0.033513000,0.000122164,-0.000212743,0.000254021,-0.035625502,0.095305490,-0.024296505,0.011339430,-0.004094257,0.997487780,-0.000341648,0.002303465,0.000692711,0.000000000,0.000000000,0.000000000,0.000000000,0.016533882,0.008755679,0.071130634,0.013618099,-0.001638071,-0.002628440,0.004012539,-0.001080489,-0.002577748,-0.171884030,0.408840078,1.428309070,-0.001455374,-0.003586213,0.012458569,0.999914130,0.000000000,0.000000000,0.000000000,0.000000000,0.000000000,0.000000000,2.728611231,0.000000000,4.228152752
1772724844.727170706,0.016311000,0.008708000,0.071181000,-0.003024480,0.004944590,0.016209670,0.999851810,-0.005888000,0.009986000,0.032392000,-0.000507013,0.000633509,0.000715754,-0.018922703,0.000700100,-0.011401717,0.011931474,-0.004000041,0.998106244,0.001943760,-0.003114812,0.001495388,0.000000000,0.000000000,0.000000000,0.000000000,0.016537700,0.008754435,0.071128202,0.013665405,-0.001655925,-0.002812141,0.004947120,-0.001105615,-0.001781838,-0.171357290,0.406189833,1.426411133,-0.001451125,-0.003563006,0.012442060,0.999914467,0.000000000,0.000000000,0.000000000,0.000000000,0.000000000,0.000000000,2.728611231,0.000000000,4.228152752
1772724844.737170696,0.016287000,0.008775000,0.071175000,-0.002596000,0.003309710,0.016538120,0.999854390,-0.005082000,0.006704000,0.033061000,-0.000748991,0.001138890,0.000697631,0.005720928,-0.088334803,0.007869677,0.012631319,-0.004381562,0.998694407,0.000067801,-0.001949989,0.002137243,0.000000000,0.000000000,0.000000000,0.000000000,0.016536356,0.008759370,0.071130184,0.013781900,-0.001651167,-0.002824884,0.005572122,-0.001110028,-0.001350370,-0.170805651,0.404200737,1.424650293,-0.001446582,-0.003545568,0.012426738,0.999914473,0.000000000,0.000000000,0.000000000,0.000000000,0.000000000,0.000000000,2.728611231,0.000000000,4.228152752
1772724844.747170687,0.016278000,0.008790000,0.071179000,-0.002200860,0.001983480,0.016744420,0.999855410,-0.004335000,0.004040000,0.033482000,-0.000398388,0.000823447,-0.000142483,0.024112852,-0.123748735,0.018824610,0.012641810,-0.003255911,0.998983411,0.000999534,0.000163801,-0.000770871,0.000000000,0.000000000,0.000000000,0.000000000,0.016533614,0.008764707,0.071138377,0.013950665,-0.001678343,-0.002808630,0.005228737,0.000247571,-0.000834376,-0.169867534,0.404756078,1.424077017,-0.001438354,-0.003550305,0.012421757,0.999914562,0.000000000,0.000000000,0.000000000,0.000000000,0.000000000,0.000000000,2.728611231,0.000000000,4.228152752
1772724844.757170677,0.016247000,0.008756000,0.071260000,-0.002778740,0.002088800,0.016561490,0.999856810,-0.005488000,0.004269000,0.033113000,-0.000703672,0.000794465,0.000195707,0.024513390,-0.165130246,0.024836969,0.012688968,-0.002503438,0.999170185,0.003002301,0.000413189,-0.002373605,0.000000000,0.000000000,0.000000000,0.000000000,0.016556254,0.008741854,0.071113591,0.014141832,-0.001684227,-0.002874935,0.005577617,0.000485930,-0.000939551,-0.169605992,0.404369314,1.423500786,-0.001436131,-0.003546894,0.012416742,0.999914762,0.000000000,0.000000000,0.000000000,0.000000000,0.000000000,0.000000000,2.728611231,0.000000000,4.228152752
1772724844.767171144,0.016262000,0.008791000,0.071196000,-0.002344060,0.001103690,0.016784900,0.999855770,-0.004650000,0.002286000,0.033566000,-0.000116434,0.000677196,-0.000572514,0.034416505,-0.184864885,0.030926774,0.012767534,-0.003378590,0.998558348,0.001468570,0.001876764,-0.000463698,0.000000000,0.000000000,0.000000000,0.000000000,0.016554120,0.008726472,0.071130278,0.014315810,-0.001639706,-0.002785212,0.005680725,-0.000405943,-0.001489134,-0.169273299,0.403931002,1.422194567,-0.001433316,-0.003543017,0.012405359,0.999915032,0.000000000,0.000000000,0.000000000,0.000000000,0.000000000,0.000000000,2.728611231,0.000000000,4.228152752
1772724844.777171135,0.016274000,0.008790000,0.071180000,-0.002065380,0.000318650,0.017003990,0.999853240,-0.004119000,0.000707000,0.034008000,0.000646368,-0.000175777,-0.000945222,0.032513444,-0.107763287,0.023339293,0.012462759,-0.004745699,0.997078052,0.000524317,0.001679115,-0.000674114,0.000000000,0.000000000,0.000000000,0.000000000,0.016550552,0.008729741,0.071144552,0.014457707,-0.001614687,-0.002751601,0.005330743,-0.001386806,-0.002595670,-0.168608906,0.402483524,1.420078729,-0.001427741,-0.003530288,0.012386939,0.999915163,0.000000000,0.000000000,0.000000000,0.000000000,0.000000000,0.000000000,2.728611231,0.000000000,4.228152752
1772724844.787171602,0.016276000,0.008790000,0.071168000,-0.001895320,-0.000317430,0.017102880,0.999851890,-0.003801000,-0.000570000,0.034209000,0.000314200,0.000645416,-0.000642444,0.039907968,-0.113691622,0.028848150,0.012248512,-0.004469870,0.996308688,-0.002664934,0.003929708,0.000908671,0.000000000,0.000000000,0.000000000,0.000000000,0.016565802,0.008716402,0.071137997,0.014688501,-0.001724344,-0.002956740,0.005460772,-0.001304349,-0.003241272,-0.167952240,0.402401243,1.419046393,-0.001422052,-0.003529486,0.012377952,0.999915378,0.000000000,0.000000000,0.000000000,0.000000000,0.000000000,0.000000000,2.728611231,0.000000000,4.228152752
1772724844.797172308,0.016282000,0.008787000,0.071170000,-0.001725560,-0.000652360,0.017179300,0.999850720,-0.003473000,-0.001245000,0.034363000,0.000444018,0.000592192,-0.000719348,0.045938610,-0.082410037,0.023805840,0.011692836,-0.005044866,0.999256934,-0.000514204,0.002994232,-0.000013152,0.000000000,0.000000000,0.000000000,0.000000000,0.016575065,0.008715763,0.071128336,0.014835015,-0.001764411,-0.003117283,0.004734202,-0.001876914,-0.001032784,-0.168613482,0.399325967,1.417666124,-0.001428196,-0.003502706,0.012365927,0.999915618,0.000000000,0.000000000,0.000000000,0.000000000,0.000000000,0.000000000,2.728611231,0.000000000,4.228152752
1772724844.807172298,0.016281000,0.008789000,0.071181000,-0.001603650,-0.000657730,0.017267640,0.999849400,-0.003230000,-0.001260000,0.034539000,0.000833897,-0.000719465,-0.000560393,0.019967438,0.066958835,-0.004512715,0.012814156,-0.006592065,0.998282986,0.003668687,0.003780168,-0.001057839,0.000000000,0.000000000,0.000000000,0.000000000,0.016571739,0.008735176,0.071123030,0.014936275,-0.001874777,-0.003125710,0.006199621,-0.003140538,-0.001673180,-0.169073083,0.396546302,1.415562662,-0.001432571,-0.003478474,0.012347595,0.999915882,0.000000000,0.000000000,0.000000000,0.000000000,0.000000000,0.000000000,2.728611231,0.000000000,4.228152752
1772724844.817172289,0.016282000,0.008794000,0.071186000,-0.001453770,-0.000417540,0.017284430,0.999849470,-0.002922000,-0.000785000,0.034572000,0.000761928,-0.001459053,-0.000298777,-0.014006149,0.215787294,-0.032274116,0.011188633,-0.003833320,0.995337336,0.000126408,0.004004058,-0.002060133,0.000000000,0.000000000,0.000000000,0.000000000,0.016555586,0.008730204,0.071158288,0.015082426,-0.002109146,-0.003055444,0.004471991,-0.001065580,-0.004625401,-0.167789750,0.393772459,1.414107390,-0.001421715,-0.003454113,0.012334973,0.999916105,0.000000000,0.000000000,0.000000000,0.000000000,0.000000000,0.000000000,2.728611231,0.000000000,4.228152752
1772724844.827172279,0.016273000,0.008806000,0.071179000,-0.001584560,-0.000196890,0.017198130,0.999850830,-0.003175000,-0.000339000,0.034399000,0.000375991,-0.001616571,0.000257459,-0.049115355,0.295438729,-0.049866363,0.010130655,-0.003201440,0.996391570,0.000957937,0.000355094,-0.000033938,0.000000000,0.000000000,0.000000000,0.000000000,0.016552913,0.008740688,0.071147991,0.014984007,-0.002043851,-0.003501295,0.003312151,-0.000183813,-0.003627577,-0.167218725,0.391888247,1.412950637,-0.001416970,-0.003437596,0.012324921,0.999916329,0.000000000,0.000000000,0.000000000,0.000000000,0.000000000,0.000000000,2.728611231,0.000000000,4.228152752
1772724844.837172747,0.016330000,0.008741000,0.071119000,-0.001655330,0.002507030,0.016752630,0.999855150,-0.003226000,0.005069000,0.033499000,-0.000213015,-0.001058490,0.000722922,-0.065131663,0.267592915,-0.049917715,0.011126235,-0.004861082,0.998791735,0.002387124,-0.002277000,0.002142056,0.000000000,0.000000000,0.000000000,0.000000000,0.016557592,0.008747025,0.071128513,0.014866935,-0.001930810,-0.003735370,0.004100714,-0.001726597,-0.000748675,-0.166284808,0.391459773,1.411270152,-0.001408918,-0.003433736,0.012310290,0.999916426,0.000000000,0.000000000,0.000000000,0.000000000,0.000000000,0.000000000,2.728611231,0.000000000,4.228152752
1772724844.847173214,0.016321000,0.008706000,0.071157000,-0.002500870,0.005515370,0.016239960,0.999849780,-0.004822000,0.011111000,0.032455000,-0.000678769,-0.000166434,0.001022689,-0.055149385,0.148457986,-0.029979432,0.010724687,-0.005960130,0.997848591,-0.001071149,0.002142565,-0.003431094,0.000000000,0.000000000,0.000000000,0.000000000,0.016560436,0.008749173,0.071111128,0.014818965,-0.002082900,-0.003738462,0.003988117,-0.003326901,-0.002781172,-0.164746664,0.391063632,1.410372144,-0.001395565,-0.003430103,0.012302507,0.999916741,0.000000000,0.000000000,0.000000000,0.000000000,0.000000000,0.000000000,2.728611231,0.000000000,4.228152752
1772724844.857172728,0.016256000,0.008743000,0.071244000,-0.003030070,0.004953600,0.016240580,0.999851250,-0.005899000,0.010004000,0.032454000,-0.000862122,0.000762530,0.001014609,-0.023435845,-0.019277210,0.000304695,0.011982747,-0.006235915,1.001501102,0.001113194,0.003635750,0.001165808,0.000000000,0.000000000,0.000000000,0.000000000,0.016563707,0.008746500,0.071106458,0.014771427,-0.002386157,-0.003727826,0.005002051,-0.003395673,0.000657332,-0.165604488,0.389442043,1.407068959,-0.001403323,-0.003416005,0.012273679,0.999917011,0.000000000,0.000000000,0.000000000,0.000000000,0.000000000,0.000000000,2.728611231,0.000000000,4.228152752
1772724844.867173433,0.016266000,0.008786000,0.071203000,-0.002706380,0.003254410,0.016519520,0.999854580,-0.005305000,0.006597000,0.033023000,-0.000747573,0.001451847,0.000561578,0.018273605,-0.183760760,0.030706209,0.011614730,-0.004030468,0.997914802,0.001249681,0.000618557,-0.001248340,0.000000000,0.000000000,0.000000000,0.000000000,0.016521771,0.008731106,0.071112940,0.013730384,-0.002515488,-0.003415594,0.005214867,-0.000961933,-0.000460940,-0.165340950,0.388523169,1.405764111,-0.001401161,-0.003407943,0.012262310,0.999917078,0.000000000,0.000000000,0.000000000,0.000000000,0.000000000,0.000000000,2.728611231,0.000000000,4.228152752
1772724844.877173185,0.016268000,0.008794000,0.071195000,-0.002228290,0.001730500,0.016839820,0.999854220,-0.004398000,0.003536000,0.033674000,-0.000269464,0.001821505,-0.000656061,0.060404608,-0.292611322,0.052267841,0.012122894,-0.002246759,0.997288812,-0.000117827,-0.002335099,-0.000090123,0.000000000,0.000000000,0.000000000,0.000000000,0.016445399,0.008721981,0.071132013,0.012288722,-0.002432273,-0.003175259,0.004557257,0.000237477,-0.000607151,-0.168178390,0.407067771,1.409087480,-0.001423831,-0.003570107,0.012290982,0.999916559,0.000000000,0.000000000,0.000000000,0.000000000,0.000000000,0.000000000,2.728611231,0.000000000,4.228152752
1772724844.887173176,0.016276000,0.008789000,0.071183000,-0.001907660,0.000741570,0.017054100,0.999852470,-0.003789000,0.001548000,0.034107000,0.000270008,0.000473505,-0.000907577,0.061219450,-0.228268717,0.041848078,0.011332055,-0.002151694,0.999510482,0.000583427,-0.001935170,-0.003000595,0.000000000,0.000000000,0.000000000,0.000000000,0.016444365,0.008750271,0.071150653,0.012830257,-0.002226932,-0.003316188,0.004575360,0.000797407,-0.001292007,-0.168046798,0.404662070,1.409518942,-0.001422927,-0.003549106,0.012294783,0.999916407,0.000000000,0.000000000,0.000000000,0.000000000,0.000000000,0.000000000,2.728611231,0.000000000,4.228152752
1772724844.897173882,0.016284000,0.008784000,0.071176000,-0.001682020,0.000075990,0.017115310,0.999852100,-0.003361000,0.000210000,0.034232000,0.000080381,-0.000600292,0.000076904,0.025605067,-0.090552654,0.016585416,0.013750780,-0.002577860,0.997078669,-0.000424121,0.000046096,0.000264725,0.000000000,0.000000000,0.000000000,0.000000000,0.016485509,0.008748431,0.071131358,0.013304978,-0.002382518,-0.003460161,0.006591259,-0.000327669,-0.002661287,-0.165216497,0.405173819,1.405685170,-0.001398294,-0.003553221,0.012261410,0.999916690,0.000000000,0.000000000,0.000000000,0.000000000,0.000000000,0.000000000,2.728611231,0.000000000,4.228152752
1772724844.907173872,0.016278000,0.008786000,0.071177000,-0.001580210,-0.000356380,0.017227300,0.999850290,-0.003172000,-0.000658000,0.034457000,-0.000537782,-0.000648000,0.001144912,-0.009841547,-0.003334712,-0.002427765,0.013089969,-0.003690858,0.999164234,-0.001009037,0.000916795,0.002806285,0.000000000,0.000000000,0.000000000,0.000000000,0.016498042,0.008734130,0.071149138,0.013741197,-0.002468060,-0.003467204,0.006059880,-0.000472547,-0.000954872,-0.166332750,0.404158659,1.404264227,-0.001408187,-0.003544465,0.012248991,0.999916789,0.000000000,0.000000000,0.000000000,0.000000000,0.000000000,0.000000000,2.728611231,0.000000000,4.228152752
1772724844.917173862,0.016270000,0.008791000,0.071184000,-0.001547840,-0.000337710,0.017240870,0.999850110,-0.003107000,-0.000622000,0.034484000,-0.000352331,-0.000240637,0.000670086,-0.025570414,0.028396607,-0.010601881,0.011756909,-0.004204955,0.998678488,0.002077836,0.005157772,0.002630383,0.000000000,0.000000000,0.000000000,0.000000000,0.016514004,0.008730980,0.071151965,0.014018627,-0.002461946,-0.003430563,0.004818849,-0.000895089,-0.001143137,-0.166247875,0.403582942,1.403654855,-0.001407527,-0.003539425,0.012243684,0.999916879,0.000000000,0.000000000,0.000000000,0.000000000,0.000000000,0.000000000,2.728611231,0.000000000,4.228152752
1772724844.927173853,0.016241000,0.008756000,0.071257000,-0.002410750,0.000950310,0.016890460,0.999853990,-0.004789000,0.001982000,0.033778000,-0.000052486,0.000075913,0.000045357,-0.021366564,0.026854244,-0.008397054,0.011985778,-0.003693773,0.998049158,0.002688748,-0.001493000,0.001825606,0.000000000,0.000000000,0.000000000,0.000000000,0.016531547,0.008735575,0.071134173,0.014195310,-0.002443111,-0.003507194,0.005189109,-0.000909232,-0.001843709,-0.165618225,0.401267006,1.403132672,-0.001402297,-0.003519142,0.012239177,0.999916971,0.000000000,0.000000000,0.000000000,0.000000000,0.000000000,0.000000000,2.728611231,0.000000000,4.228152752
1772724844.937174082,0.016266000,0.008784000,0.071204000,-0.002099790,0.000449570,0.016998460,0.999853210,-0.004184000,0.000970000,0.033997000,0.000197630,0.000777371,-0.000588831,0.002501440,-0.032600835,0.003656201,0.011776945,-0.005496123,0.998665550,-0.001427638,-0.000840972,0.001875172,0.000000000,0.000000000,0.000000000,0.000000000,0.016544598,0.008738765,0.071119016,0.014365466,-0.002457096,-0.003613318,0.005129734,-0.002043564,-0.001707397,-0.163739582,0.401024652,1.402626721,-0.001385945,-0.003516821,0.012234822,0.999917178,0.000000000,0.000000000,0.000000000,0.000000000,0.000000000,0.000000000,2.728611231,0.000000000,4.228152752
1772724844.947173834,0.016278000,0.008788000,0.071176000,-0.001930630,0.000192740,0.017047930,0.999852790,-0.003854000,0.000451000,0.034097000,0.000680381,0.000017133,-0.000926555,0.008451992,0.004570646,-0.001035818,0.011109063,-0.006243271,0.999077301,-0.000445569,-0.002017930,0.005202015,0.000000000,0.000000000,0.000000000,0.000000000,0.016552064,0.008740807,0.071111664,0.014454363,-0.002583144,-0.003631674,0.003802634,-0.003345954,-0.001142430,-0.163184208,0.400713418,1.401335134,-0.001381172,-0.003514030,0.012223574,0.999917209,0.000000000,0.000000000,0.000000000,0.000000000,0.000000000,0.000000000,2.728611231,0.000000000,4.228152752
1772724844.957173824,0.016284000,0.008790000,0.071169000,-0.001913820,-0.000075600,0.017097480,0.999851990,-0.003830000,-0.000086000,0.034197000,0.000729294,-0.000604915,-0.000892736,0.002931542,0.066909464,-0.008193807,0.009898019,-0.006802030,0.999260843,0.001233361,-0.001552436,-0.001319639,0.000000000,0.000000000,0.000000000,0.000000000,0.016554453,0.008740041,0.071112879,0.014449763,-0.002848941,-0.003551504,0.003387043,-0.004327356,-0.000848815,-0.162763547,0.401214243,1.400745015,-0.001377466,-0.003518348,0.012218429,0.999917299,0.000000000,0.000000000,0.000000000,0.000000000,0.000000000,0.000000000,2.728611231,0.000000000,4.228152752
1772724844.967174292,0.016279000,0.008792000,0.071176000,-0.001723560,0.000029980,0.017146940,0.999851490,-0.003446000,0.000119000,0.034295000,0.000426069,-0.000833742,-0.000490385,-0.006025547,0.124496861,-0.014670410,0.010497147,-0.005824903,0.999301830,0.001096986,-0.000656919,-0.001247706,0.000000000,0.000000000,0.000000000,0.000000000,0.016556657,0.008731356,0.071115287,0.014458738,-0.002998547,-0.003489997,0.003628737,-0.003431215,-0.000750351,-0.162638507,0.401515548,1.400430040,-0.001376352,-0.003520960,0.012215681,0.999917387,0.000000000,0.000000000,0.000000000,0.000000000,0.000000000,0.000000000,2.728611231,0.000000000,4.228152752
1772724844.977174282,0.016276000,0.008791000,0.071186000,-0.001718470,0.000190740,0.017083400,0.999852570,-0.003430000,0.000440000,0.034168000,-0.000060626,-0.000769037,-0.000052778,-0.014094099,0.136772232,-0.015341981,0.011096247,-0.004847822,0.999342814,0.000960617,0.000238556,-0.001175777,0.000000000,0.000000000,0.000000000,0.000000000,0.016559776,0.008718721,0.071116281,0.014491303,-0.003038109,-0.003458494,0.003870419,-0.002535116,-0.000651891,-0.162513472,0.401816839,1.400115081,-0.001375239,-0.003523572,0.012212934,0.999917466,0.000000000,0.000000000,0.000000000,0.000000000,0.000000000,0.000000000,2.728611231,0.000000000,4.228152752
1772724844.987174511,0.016296000,0.008703000,0.071187000,-0.002599760,0.004023600,0.016475710,0.999852790,-0.005066000,0.008132000,0.032933000,-0.000300583,-0.000336927,0.000395610,-0.016891992,0.095530279,-0.010628591,0.011695361,-0.003870718,0.999383800,0.000824245,0.001134052,-0.001103846,0.000000000,0.000000000,0.000000000,0.000000000,0.016562894,0.008706085,0.071117275,0.014523869,-0.003077671,-0.003426991,0.004112107,-0.001638997,-0.000553430,-0.162388434,0.402118137,1.399800114,-0.001374125,-0.003526184,0.012210186,0.999917545,0.000000000,0.000000000,0.000000000,0.000000000,0.000000000,0.000000000,2.728611231,0.000000000,4.228152752
1772724844.997174263,0.016277000,0.008766000,0.071178000,-0.002366460,0.002839940,0.016717040,0.999853430,-0.004637000,0.005758000,0.033423000,-0.000268998,0.000175058,0.000439627,-0.009445426,0.015458649,0.001286494,0.012395651,-0.002460529,0.999449697,0.002123220,0.002252609,-0.001275335,0.000000000,0.000000000,0.000000000,0.000000000,0.016566013,0.008693450,0.071118269,0.014556432,-0.003117231,-0.003395488,0.005150187,0.000323161,-0.000362278,-0.162203749,0.402316148,1.399350186,-0.001372506,-0.003527887,0.012206263,0.999917624,0.000000000,0.000000000,0.000000000,0.000000000,0.000000000,0.000000000,2.728611231,0.000000000,4.228152752
1772724845.007173538,0.016275000,0.008787000,0.071170000,-0.002027400,0.001870190,0.016932740,0.999852830,-0.003991000,0.003809000,0.033860000,-0.000461908,0.000736131,0.000615405,-0.003349792,-0.062711692,0.008467014,0.012225736,-0.002282349,0.999268509,0.002773481,0.000705622,-0.000589638,0.000000000,0.000000000,0.000000000,0.000000000,0.016565089,0.008697389,0.071116847,0.014733546,-0.002911552,-0.003318082,0.005215672,0.000584032,-0.000442890,-0.161232483,0.401024661,1.397159939,-0.001364236,-0.003516488,0.012187197,0.999917857,0.000000000,0.000000000,0.000000000,0.000000000,0.000000000,0.000000000,2.728611231,0.000000000,4.228152752
1772724845.017174482,0.016272000,0.008791000,0.071172000,-0.001874140,0.000819360,0.017087250,0.999851910,-0.003720000,0.001703000,0.034173000,-0.000799243,0.000951827,0.001045261,-0.010071211,-0.102086352,0.004796609,0.011939272,-0.004181398,0.998166535,0.003030877,-0.001262970,0.001222050,0.000000000,0.000000000,0.000000000,0.000000000,0.016563488,0.008713759,0.071112619,0.014819117,-0.002781380,-0.003257886,0.005214432,-0.001258649,-0.001720232,-0.160172461,0.398844486,1.395738180,-0.001355262,-0.003497334,0.012174850,0.999917877,0.000000000,0.000000000,0.000000000,0.000000000,0.000000000,0.000000000,2.728611231,0.000000000,4.228152752
1772724845.027175188,0.016257000,0.008765000,0.071250000,-0.002574870,0.001405750,0.016809410,0.999854410,-0.005102000,0.002898000,0.033613000,-0.000797184,0.000713132,0.001153886,-0.023124941,-0.096618727,-0.005460849,0.012635093,-0.004113418,0.997706873,0.005714506,0.001605149,0.001485079,0.000000000,0.000000000,0.000000000,0.000000000,0.016561590,0.008726304,0.071110752,0.014943548,-0.002781536,-0.003333686,0.005084279,-0.001750202,-0.002063938,-0.158012463,0.398675030,1.395237046,-0.001336447,-0.003495620,0.012170545,0.999918082,0.000000000,0.000000000,0.000000000,0.000000000,0.000000000,0.000000000,2.728611231,0.000000000,4.228152752
1772724845.037175179,0.016270000,0.008788000,0.071196000,-0.002221670,0.000755540,0.016952800,0.999853540,-0.004417000,0.001586000,0.033904000,-0.000083295,0.000022242,0.000240948,-0.027341664,-0.031313728,-0.015133165,0.011045557,-0.005305583,0.998469802,0.000979872,0.000307494,0.002563706,0.000000000,0.000000000,0.000000000,0.000000000,0.016554667,0.008721979,0.071148924,0.015041598,-0.002712182,-0.003294892,0.003473723,-0.002331764,-0.001373388,-0.156008237,0.396712856,1.393998736,-0.001319205,-0.003478271,0.012159825,0.999918381,0.000000000,0.000000000,0.000000000,0.000000000,0.000000000,0.000000000,2.728611231,0.000000000,4.228152752
1772724845.047175407,0.016244000,0.008791000,0.071218000,-0.002606080,0.001063350,0.016655310,0.999857330,-0.005176000,0.002213000,0.033307000,0.000082013,0.000275292,-0.000366978,-0.013132520,-0.030414697,-0.006811322,0.013085416,-0.002831757,0.998259546,-0.000833007,0.001103113,0.000907763,0.000000000,0.000000000,0.000000000,0.000000000,0.016555089,0.008729594,0.071143287,0.015016528,-0.002760414,-0.003315321,0.006036152,0.000038599,-0.001609532,-0.154959105,0.395126654,1.392309595,-0.001310269,-0.003464300,0.012145137,0.999918589,0.000000000,0.000000000,0.000000000,0.000000000,0.000000000,0.000000000,2.728611231,0.000000000,4.228152752
1772724845.057176113,0.016248000,0.008786000,0.071222000,-0.002948630,0.000939030,0.016570960,0.999857900,-0.005865000,0.001976000,0.033138000,0.000006546,-0.000110062,0.000018201,-0.009238802,-0.006597975,-0.001727203,0.013080878,-0.004368856,0.997889134,-0.003035581,0.001143726,-0.001896199,0.000000000,0.000000000,0.000000000,0.000000000,0.016545514,0.008733987,0.071149798,0.015152919,-0.002690569,-0.003293694,0.006717909,-0.000798804,-0.001606119,-0.154071018,0.393124505,1.390673838,-0.001302782,-0.003446716,0.012130915,0.999918834,0.000000000,0.000000000,0.000000000,0.000000000,0.000000000,0.000000000,2.728611231,0.000000000,4.228152752
1772724845.067176819,0.016267000,0.008795000,0.071196000,-0.002523730,0.000332390,0.016808020,0.999855490,-0.005036000,0.000750000,0.033616000,0.000022009,-0.000295591,0.000017269,0.000101238,0.003870163,0.005486415,0.011598901,-0.004814995,0.998511806,0.000915679,-0.002408380,-0.000005271,0.000000000,0.000000000,0.000000000,0.000000000,0.016545811,0.008735441,0.071152178,0.015349820,-0.002703862,-0.003295402,0.004978266,-0.002998448,-0.001438176,-0.153856335,0.391204324,1.388901188,-0.001301165,-0.003429918,0.012115476,0.999919050,0.000000000,0.000000000,0.000000000,0.000000000,0.000000000,0.000000000,2.728611231,0.000000000,4.228152752
1772724845.077176332,0.016279000,0.008798000,0.071179000,-0.002144340,0.000109860,0.016996460,0.999853240,-0.004284000,0.000293000,0.033994000,-0.000213928,-0.000833237,0.001081586,-0.016927569,0.052439221,0.000768087,0.011852129,-0.002819013,0.998486985,0.001740311,-0.003136844,0.005057942,0.000000000,0.000000000,0.000000000,0.000000000,0.016556259,0.008739424,0.071140614,0.015450924,-0.002806865,-0.003353332,0.005246775,0.000295218,-0.001356607,-0.153823716,0.390613917,1.387099282,-0.001300997,-0.003424742,0.012099760,0.999919116,0.000000000,0.000000000,0.000000000,0.000000000,0.000000000,0.000000000,2.728611231,0.000000000,4.228152752
1772724845.087176800,0.016245000,0.008762000,0.071245000,-0.002793600,0.001212880,0.016801220,0.999854210,-0.005546000,0.002519000,0.033597000,-0.000103011,-0.000537704,0.000550583,-0.016849140,0.069800489,0.000282169,0.012859992,-0.004107413,0.997687399,0.003690536,-0.004271747,0.003773692,0.000000000,0.000000000,0.000000000,0.000000000,0.016566227,0.008742250,0.071128369,0.015527110,-0.002702956,-0.003417665,0.006158902,-0.001433037,-0.002027564,-0.153671182,0.390820946,1.386637343,-0.001299657,-0.003426527,0.012095732,0.999919176,0.000000000,0.000000000,0.000000000,0.000000000,0.000000000,0.000000000,2.728611231,0.000000000,4.228152752
1772724845.097177029,0.016241000,0.008755000,0.071262000,-0.003144250,0.001948470,0.016624420,0.999854960,-0.006223000,0.004001000,0.033238000,-0.000039957,0.000022203,-0.000303788,-0.009731749,0.053023898,0.001262705,0.012295203,-0.004973358,0.997566559,0.004463376,-0.000841420,0.000375460,0.000000000,0.000000000,0.000000000,0.000000000,0.016556862,0.008727118,0.071152933,0.015630972,-0.002797306,-0.003392698,0.004865005,-0.001981204,-0.002705776,-0.152922189,0.390881662,1.386767988,-0.001293111,-0.003426979,0.012096895,0.999919302,0.000000000,0.000000000,0.000000000,0.000000000,0.000000000,0.000000000,2.728611231,0.000000000,4.228152752
1772724845.107177496,0.016260000,0.008786000,0.071196000,-0.002665750,0.001410490,0.016834300,0.999853740,-0.005283000,0.002910000,0.033663000,0.000054507,0.000142735,-0.000493493,-0.009370484,0.028561886,0.002648263,0.011656439,-0.004118529,0.998353369,0.001574759,0.001201729,-0.000715223,0.000000000,0.000000000,0.000000000,0.000000000,0.016550304,0.008714467,0.071174766,0.015657248,-0.002912511,-0.003418809,0.005366960,-0.001624667,-0.001683990,-0.150926894,0.389745563,1.385770455,-0.001275850,-0.003416844,0.012088263,0.999919359,0.000000000,0.000000000,0.000000000,0.000000000,0.000000000,0.000000000,2.728611231,0.000000000,4.228152752
1772724845.117177248,0.016252000,0.008767000,0.071236000,-0.003123350,0.002038720,0.016723980,0.999853190,-0.006178000,0.004181000,0.033437000,0.000441434,0.000605848,-0.001185452,0.022918920,-0.023108641,0.015164642,0.011865818,-0.003141136,0.998478510,-0.001731917,-0.000585121,0.001273460,0.000000000,0.000000000,0.000000000,0.000000000,0.016555326,0.008719984,0.071158127,0.015791978,-0.002914391,-0.003460518,0.005239901,-0.000281641,-0.001244541,-0.150113786,0.388244788,1.385618732,-0.001268918,-0.003403661,0.012086980,0.999919428,0.000000000,0.000000000,0.000000000,0.000000000,0.000000000,0.000000000,2.728611231,0.000000000,4.228152752
1772724845.127177000,0.016271000,0.008794000,0.071180000,-0.002629970,0.001366030,0.016929200,0.999852300,-0.005213000,0.002821000,0.033853000,0.000297689,0.000335334,-0.000681256,0.032260752,-0.038260941,0.015654315,0.011378381,-0.003840981,0.998164458,-0.000401095,0.000983442,0.001051468,0.000000000,0.000000000,0.000000000,0.000000000,0.016557176,0.008718723,0.071159815,0.015839130,-0.002790483,-0.003443626,0.004854220,-0.000972592,-0.001822049,-0.149571703,0.388295217,1.384927608,-0.001264203,-0.003404036,0.012080965,0.999919586,0.000000000,0.000000000,0.000000000,0.000000000,0.000000000,0.000000000,2.728611231,0.000000000,4.228152752
1772724845.137176752,0.016272000,0.008792000,0.071171000,-0.002233580,0.000660210,0.017160310,0.999850040,-0.004444000,0.001397000,0.034319000,-0.000015715,-0.000480809,0.000449262,0.016115478,-0.020383356,0.006015437,0.012053746,-0.005826252,0.999071014,0.003040625,0.000936346,0.000639340,0.000000000,0.000000000,0.000000000,0.000000000,0.016458302,0.008748945,0.071156793,0.015575847,-0.002716028,-0.003479939,0.005581887,-0.002861783,-0.000892208,-0.148389629,0.387599125,1.383593565,-0.001254001,-0.003397823,0.012069368,0.999919820,0.000000000,0.000000000,0.000000000,0.000000000,0.000000000,0.000000000,2.728611231,0.000000000,4.228152752
1772724845.147176743,0.016251000,0.008763000,0.071239000,-0.002698760,0.001516870,0.016927820,0.999851920,-0.005345000,0.003125000,0.033849000,-0.000089006,-0.000617988,0.000662802,0.005207408,-0.012433533,-0.000081274,0.012653107,-0.005705650,0.999384668,0.000270638,0.000285018,0.003156172,0.000000000,0.000000000,0.000000000,0.000000000,0.016516739,0.008744005,0.071132334,0.015810512,-0.002888722,-0.003484903,0.006003876,-0.002971758,-0.000595234,-0.146214478,0.386296255,1.381890986,-0.001235209,-0.003386207,0.012054591,0.999919985,0.000000000,0.000000000,0.000000000,0.000000000,0.000000000,0.000000000,2.728611231,0.000000000,4.228152752
1772724845.157176733,0.016265000,0.008785000,0.071200000,-0.002138630,0.000984280,0.017069920,0.999851530,-0.004243000,0.002041000,0.034137000,0.000355925,-0.000048252,-0.000459538,0.020190548,-0.042357840,0.004282164,0.012313952,-0.005308593,0.996161996,-0.002387601,-0.000374926,-0.000320942,0.000000000,0.000000000,0.000000000,0.000000000,0.016570028,0.008724011,0.071137571,0.016074713,-0.003129670,-0.003431350,0.005592525,-0.002712272,-0.002953790,-0.145426779,0.384906265,1.381095541,-0.001228505,-0.003373987,0.012047690,0.999920062,0.000000000,0.000000000,0.000000000,0.000000000,0.000000000,0.000000000,2.728611231,0.000000000,4.228152752
1772724845.167176723,0.016251000,0.008750000,0.071241000,-0.002789730,0.001470030,0.016793580,0.999854010,-0.005529000,0.003033000,0.033581000,0.000206177,-0.000158120,-0.000016162,0.007788573,-0.031298569,0.001148792,0.011085262,-0.005000356,0.996463604,0.000681862,0.001128028,0.002083689,0.000000000,0.000000000,0.000000000,0.000000000,0.016569463,0.008719493,0.071144600,0.016103945,-0.003239779,-0.003542092,0.004308663,-0.002247255,-0.003494965,-0.145421508,0.383814284,1.380636960,-0.001228587,-0.003364452,0.012043700,0.999920070,0.000000000,0.000000000,0.000000000,0.000000000,0.000000000,0.000000000,2.728611231,0.000000000,4.228152752
1772724845.177176476,0.016281000,0.008768000,0.071190000,-0.002359660,0.000702180,0.017018520,0.999852140,-0.004695000,0.001484000,0.034035000,0.000113617,0.000260062,-0.000500020,0.009307196,-0.037173946,0.003882374,0.010726121,-0.005487287,0.998340975,0.004354914,0.002764335,-0.001565954,0.000000000,0.000000000,0.000000000,0.000000000,0.016570099,0.008715913,0.071144807,0.016078844,-0.003335764,-0.003690045,0.004381376,-0.003222200,-0.002073803,-0.145122519,0.382980651,1.380675952,-0.001226065,-0.003357147,0.012044058,0.999920170,0.000000000,0.000000000,0.000000000,0.000000000,0.000000000,0.000000000,2.728611231,0.000000000,4.228152752
1772724845.187176704,0.016273000,0.008793000,0.071175000,-0.002074230,0.000201730,0.017174800,0.999850330,-0.004141000,0.000475000,0.034350000,0.000087879,0.000649360,-0.000819134,0.022629938,-0.049390819,0.009914860,0.009740872,-0.005085403,1.000401881,0.001436163,0.000546944,0.002234480,0.000000000,0.000000000,0.000000000,0.000000000,0.016568209,0.008702433,0.071153287,0.016013302,-0.003524023,-0.003658064,0.002932224,-0.002336075,0.000799167,-0.143835995,0.381921771,1.380090654,-0.001214967,-0.003347766,0.012039001,0.999920419,0.000000000,0.000000000,0.000000000,0.000000000,0.000000000,0.000000000,2.728611231,0.000000000,4.228152752
1772724845.197176695,0.016280000,0.008789000,0.071177000,-0.001849240,-0.000053030,0.017168620,0.999850900,-0.003700000,-0.000043000,0.034339000,-0.000350952,0.000210412,0.000367968,0.002553342,-0.007970767,-0.000180831,0.009964340,-0.004300186,0.998789929,-0.000559988,0.000049481,0.003458560,0.000000000,0.000000000,0.000000000,0.000000000,0.016577604,0.008703333,0.071135551,0.015855835,-0.003596397,-0.003544413,0.003286724,-0.001975570,-0.000815558,-0.142363326,0.380756299,1.378405367,-0.001202289,-0.003337423,0.012024352,0.999920607,0.000000000,0.000000000,0.000000000,0.000000000,0.000000000,0.000000000,2.728611231,0.000000000,4.228152752
1772724845.207176685,0.016245000,0.008761000,0.071242000,-0.002527250,0.000923440,0.016961970,0.999852510,-0.005022000,0.001932000,0.033921000,-0.000284868,0.000032712,0.000600894,-0.007076891,0.022159576,-0.006361148,0.009772208,-0.004929169,0.997701653,0.001556933,0.002135317,0.000033130,0.000000000,0.000000000,0.000000000,0.000000000,0.016577632,0.008713730,0.071121625,0.015706576,-0.003608095,-0.003570548,0.002872785,-0.002445156,-0.002326986,-0.141449610,0.379813096,1.377121541,-0.001194452,-0.003329084,0.012013186,0.999920641,0.000000000,0.000000000,0.000000000,0.000000000,0.000000000,0.000000000,2.728611231,0.000000000,4.228152752
1772724845.217175961,0.016258000,0.008790000,0.071193000,-0.002225490,0.000530310,0.017029220,0.999852370,-0.004432000,0.001136000,0.034058000,-0.000165579,-0.000334674,0.000721796,-0.022494566,0.046558326,-0.013818380,0.009633799,-0.005493793,0.997322673,-0.000845794,-0.001193609,0.001011407,0.000000000,0.000000000,0.000000000,0.000000000,0.016578096,0.008715612,0.071116510,0.015515402,-0.003713121,-0.003701130,0.003360550,-0.003018300,-0.002445729,-0.140863541,0.378822084,1.376684698,-0.001189454,-0.003320370,0.012009402,0.999920762,0.000000000,0.000000000,0.000000000,0.000000000,0.000000000,0.000000000,2.728611231,0.000000000,4.228152752
1772724845.227175713,0.016274000,0.008793000,0.071189000,-0.001979680,0.000370440,0.017062890,0.999852390,-0.003946000,0.000808000,0.034126000,0.000424787,-0.000049514,-0.000319250,-0.001769113,0.023467060,-0.004540436,0.007729511,-0.004313572,0.996780722,0.002167096,-0.002080959,0.000625981,0.000000000,0.000000000,0.000000000,0.000000000,0.016559454,0.008702743,0.071143770,0.015261268,-0.003894535,-0.003654424,0.000484789,-0.002222026,-0.002749837,-0.140859211,0.378542305,1.375635393,-0.001189476,-0.003317918,0.012000249,0.999920889,0.000000000,0.000000000,0.000000000,0.000000000,0.000000000,0.000000000,2.728611231,0.000000000,4.228152752
1772724845.237175226,0.016256000,0.008758000,0.071239000,-0.002753510,0.001272060,0.016791910,0.999854410,-0.005464000,0.002636000,0.033578000,0.000242910,0.000318182,-0.000576399,0.011241219,-0.002413358,0.000434302,0.010265709,-0.002903713,0.996944291,0.002142553,0.003658455,-0.000777874,0.000000000,0.000000000,0.000000000,0.000000000,0.016554725,0.008709970,0.071131690,0.014882536,-0.003885810,-0.003848654,0.003794863,-0.000491039,-0.003002484,-0.140422549,0.378770009,1.374575428,-0.001185673,-0.003319848,0.011991010,0.999921030,0.000000000,0.000000000,0.000000000,0.000000000,0.000000000,0.000000000,2.728611231,0.000000000,4.228152752
1772724845.247175455,0.016277000,0.008782000,0.071193000,-0.002317660,0.000952930,0.016955120,0.999853110,-0.004602000,0.001984000,0.033907000,0.000199864,0.000566123,-0.000799418,0.027465025,-0.036506049,0.006162437,0.011624261,-0.002491624,0.997433742,-0.000647306,0.006169146,-0.000197928,0.000000000,0.000000000,0.000000000,0.000000000,0.016553535,0.008715046,0.071124929,0.014766009,-0.003748361,-0.003982173,0.004808260,-0.000097300,-0.002581964,-0.139241770,0.377171055,1.373777105,-0.001175560,-0.003305764,0.011984094,0.999921143,0.000000000,0.000000000,0.000000000,0.000000000,0.000000000,0.000000000,2.728611231,0.000000000,4.228152752
1772724845.257175446,0.016275000,0.008794000,0.071176000,-0.001947270,0.000457210,0.017051130,0.999852620,-0.003878000,0.000981000,0.034102000,-0.000273174,0.000046523,0.000333159,0.006833642,-0.018172494,0.000690109,0.011669133,-0.003502813,0.997301872,0.002268013,0.000971304,-0.000209426,0.000000000,0.000000000,0.000000000,0.000000000,0.016502153,0.008720597,0.071146993,0.013959000,-0.003317297,-0.003605610,0.005150536,-0.000958112,-0.002490693,-0.140894388,0.378811718,1.377866019,-0.001189688,-0.003320297,0.012019707,0.999920808,0.000000000,0.000000000,0.000000000,0.000000000,0.000000000,0.000000000,2.728611231,0.000000000,4.228152752
1772724845.267175913,0.016269000,0.008793000,0.071187000,-0.001794760,0.000279590,0.017097250,0.999852180,-0.003579000,0.000620000,0.034195000,-0.000233839,-0.000022514,0.000404604,-0.000388570,-0.008163999,-0.002315476,0.010826495,-0.003722668,0.996442243,0.002507344,0.001168157,-0.002177770,0.000000000,0.000000000,0.000000000,0.000000000,0.016472831,0.008741873,0.071138189,0.014161707,-0.003247929,-0.003830793,0.004153536,-0.000573292,-0.003752360,-0.143526248,0.385711607,1.384863729,-0.001211725,-0.003380854,0.012080616,0.999919830,0.000000000,0.000000000,0.000000000,0.000000000,0.000000000,0.000000000,2.728611231,0.000000000,4.228152752
1772724845.277176380,0.016247000,0.008789000,0.071218000,-0.002242920,0.000454800,0.016881990,0.999854870,-0.004470000,0.000985000,0.033763000,0.000174767,-0.000104759,0.000074165,0.002553047,-0.009051960,-0.003662317,0.010649361,-0.004787931,0.996670820,0.000687946,0.002111772,0.000271289,0.000000000,0.000000000,0.000000000,0.000000000,0.016500998,0.008733926,0.071138528,0.014346970,-0.003268448,-0.004056154,0.004111866,-0.002429434,-0.003013886,-0.141666073,0.385844474,1.382373358,-0.001195553,-0.003381791,0.012058940,0.999920035,0.000000000,0.000000000,0.000000000,0.000000000,0.000000000,0.000000000,2.728611231,0.000000000,4.228152752
1772724845.287175894,0.016273000,0.008791000,0.071192000,-0.001995960,0.000200540,0.017027610,0.999853010,-0.003985000,0.000469000,0.034056000,0.000074048,-0.000542133,0.000566861,-0.012737096,0.014886657,-0.009217006,0.010161774,-0.005353208,0.996377629,0.001600615,-0.000793814,-0.002691534,0.000000000,0.000000000,0.000000000,0.000000000,0.016528032,0.008725191,0.071130949,0.014446000,-0.003454078,-0.004257693,0.003465856,-0.002636757,-0.003927732,-0.140589283,0.385125427,1.380752082,-0.001186280,-0.003375387,0.012044832,0.999920160,0.000000000,0.000000000,0.000000000,0.000000000,0.000000000,0.000000000,2.728611231,0.000000000,4.228152752
1772724845.297176600,0.016264000,0.008755000,0.071244000,-0.002663710,0.001238890,0.016751580,0.999855370,-0.005285000,0.002567000,0.033498000,-0.000064375,-0.000730789,0.000849107,-0.029049914,0.038599936,-0.013367284,0.010967933,-0.004957170,0.996622787,0.000864961,-0.001097732,-0.001612686,0.000000000,0.000000000,0.000000000,0.000000000,0.016537297,0.008708664,0.071141240,0.014432079,-0.003643935,-0.004400536,0.003744326,-0.002889116,-0.003578049,-0.140024687,0.384475665,1.379703711,-0.001181453,-0.003369647,0.012035707,0.999920312,0.000000000,0.000000000,0.000000000,0.000000000,0.000000000,0.000000000,2.728611231,0.000000000,4.228152752
1772724845.307175875,0.016273000,0.008778000,0.071199000,-0.002226410,0.000830780,0.016856610,0.999855090,-0.004424000,0.001736000,0.033711000,-0.000232673,-0.000258178,0.000233178,-0.026310764,0.035601116,-0.009179096,0.014430601,-0.002753261,0.999122348,0.000863803,0.001353803,0.003906402,0.000000000,0.000000000,0.000000000,0.000000000,0.016545486,0.008709036,0.071125145,0.014494584,-0.003722932,-0.004557015,0.007891297,-0.000139058,-0.000630336,-0.139571484,0.383872554,1.378505047,-0.001177597,-0.003364324,0.012025268,0.999920453,0.000000000,0.000000000,0.000000000,0.000000000,0.000000000,0.000000000,2.728611231,0.000000000,4.228152752
1772724845.317175150,0.016277000,0.008784000,0.071182000,-0.002038950,0.000360030,0.016907570,0.999854910,-0.004065000,0.000789000,0.033815000,-0.000464861,-0.000056061,0.000012199,-0.025717865,0.031591537,-0.002570561,0.013473479,-0.003532727,0.998225354,-0.002724529,0.003388071,0.001789925,0.000000000,0.000000000,0.000000000,0.000000000,0.016550493,0.008710191,0.071113872,0.014764932,-0.003641912,-0.004529560,0.007295684,-0.001240593,-0.001428009,-0.139344974,0.382626979,1.377565204,-0.001175779,-0.003353422,0.012017087,0.999920589,0.000000000,0.000000000,0.000000000,0.000000000,0.000000000,0.000000000,2.728611231,0.000000000,4.228152752
1772724845.327175140,0.016243000,0.008762000,0.071250000,-0.002749330,0.001266210,0.016743120,0.999855240,-0.005456000,0.002624000,0.033481000,-0.000733839,0.000061053,0.000188714,-0.036179761,0.037524253,-0.001839220,0.011703813,-0.004294402,0.997653510,-0.002084887,-0.000937195,0.000623912,0.000000000,0.000000000,0.000000000,0.000000000,0.016540293,0.008701686,0.071139780,0.014978903,-0.003630639,-0.004371657,0.005415065,-0.001908017,-0.002007326,-0.139457508,0.381177893,1.376898943,-0.001176932,-0.003340782,0.012011287,0.999920702,0.000000000,0.000000000,0.000000000,0.000000000,0.000000000,0.000000000,2.728611231,0.000000000,4.228152752
1772724845.337175608,0.016237000,0.008755000,0.071254000,-0.003363450,0.001847640,0.016590460,0.999855000,-0.006665000,0.003806000,0.033170000,-0.000713307,-0.000243745,0.000681139,-0.047650375,0.058314928,-0.002919201,0.009378358,-0.004605948,0.998964724,-0.001266403,-0.002223350,0.000065890,0.000000000,0.000000000,0.000000000,0.000000000,0.016533604,0.008694336,0.071154790,0.014986287,-0.003668426,-0.004327632,0.003004869,-0.002203301,-0.001131901,-0.139682321,0.380147483,1.376141465,-0.001179024,-0.003331807,0.012004682,0.999920872,0.000000000,0.000000000,0.000000000,0.000000000,0.000000000,0.000000000,2.728611231,0.000000000,4.228152752
1772724845.347175121,0.016255000,0.008793000,0.071182000,-0.002734650,0.001261510,0.016902290,0.999852610,-0.005426000,0.002615000,0.033799000,-0.000402836,-0.000564025,0.001025661,-0.054910675,0.076768647,-0.010631726,0.010572310,-0.003274593,0.999091178,0.001063619,-0.001020327,0.002434733,0.000000000,0.000000000,0.000000000,0.000000000,0.016537894,0.008708590,0.071127422,0.014827165,-0.003680388,-0.004348020,0.004303566,-0.000910258,-0.001091437,-0.139305175,0.379803918,1.373646529,-0.001175842,-0.003328744,0.011982924,0.999921083,0.000000000,0.000000000,0.000000000,0.000000000,0.000000000,0.000000000,2.728611231,0.000000000,4.228152752
1772724845.357174873,0.016246000,0.008758000,0.071231000,-0.003192880,0.001794770,0.016812400,0.999851950,-0.006325000,0.003696000,0.033615000,0.000192327,0.000041123,-0.000090929,-0.022308364,0.037312246,-0.005068333,0.012103982,-0.002126277,0.998949303,0.002829221,-0.000391961,-0.001141116,0.000000000,0.000000000,0.000000000,0.000000000,0.016534500,0.008698364,0.071142755,0.014871088,-0.003558593,-0.004161802,0.006233759,0.000857544,-0.001002655,-0.139169966,0.379468027,1.372669065,-0.001174725,-0.003325788,0.011974404,0.999921203,0.000000000,0.000000000,0.000000000,0.000000000,0.000000000,0.000000000,2.728611231,0.000000000,4.228152752
1772724845.367173910,0.016241000,0.008760000,0.071247000,-0.003472670,0.002252110,0.016650000,0.999852810,-0.006869000,0.004619000,0.033286000,0.000921563,0.000382906,-0.001280926,0.022794720,-0.029894646,0.005033199,0.011007760,-0.004725766,0.998636884,0.002624859,0.001766829,0.003018091,0.000000000,0.000000000,0.000000000,0.000000000,0.016531996,0.008696377,0.071155322,0.014975722,-0.003387600,-0.004038272,0.004281260,-0.002213515,-0.000825792,-0.137852323,0.378954685,1.371134313,-0.001163326,-0.003321156,0.011961055,0.999921438,0.000000000,0.000000000,0.000000000,0.000000000,0.000000000,0.000000000,2.728611231,0.000000000,4.228152752
1772724845.377173901,0.016240000,0.008750000,0.071259000,-0.003629600,0.002474360,0.016546180,0.999853450,-0.007176000,0.005068000,0.033076000,0.000907713,0.000547903,-0.001361132,0.049726926,-0.068865531,0.008271707,0.011072678,-0.004874717,0.998471642,0.002677448,0.001689420,0.003113628,0.000000000,0.000000000,0.000000000,0.000000000,0.016531850,0.008695798,0.071157028,0.014974107,-0.003392908,-0.004018372,0.004485854,-0.002196395,-0.000967443,-0.137436558,0.378778290,1.370531642,-0.001159734,-0.003319567,0.011955810,0.999921518,0.000000000,0.000000000,0.000000000,0.000000000,0.000000000,0.000000000,2.728611231,0.000000000,4.228152752
1772724845.387173414,0.016275000,0.008783000,0.071190000,-0.002901550,0.001398710,0.016717060,0.999855070,-0.005756000,0.002894000,0.033428000,0.000512568,0.000304759,-0.000794368,0.047518786,-0.072861068,0.004803056,0.011233842,-0.004816589,0.998326213,0.002753994,0.001440393,0.002797588,0.000000000,0.000000000,0.000000000,0.000000000,0.016531703,0.008695218,0.071158734,0.014972493,-0.003398216,-0.003998473,0.004690439,-0.002179275,-0.001109088,-0.137369035,0.378687888,1.370402506,-0.001159158,-0.003318770,0.011954686,0.999921543,0.000000000,0.000000000,0.000000000,0.000000000,0.000000000,0.000000000,2.728611231,0.000000000,4.228152752
1772724845.397173166,0.016275000,0.008796000,0.071168000,-0.002367490,0.000642090,0.016960970,0.999853140,-0.004713000,0.001364000,0.033920000,0.000441997,0.000573680,-0.001070592,0.060680628,-0.088476068,0.010921925,0.011395008,-0.004758459,0.998180781,0.002830543,0.001191360,0.002481541,0.000000000,0.000000000,0.000000000,0.000000000,0.016531557,0.008694638,0.071160440,0.014970878,-0.003403523,-0.003978573,0.004895029,-0.002162154,-0.001250736,-0.137301511,0.378597484,1.370273366,-0.001158582,-0.003317973,0.011953562,0.999921568,0.000000000,0.000000000,0.000000000,0.000000000,0.000000000,0.000000000,2.728611231,0.000000000,4.228152752
1772724845.407173157,0.016286000,0.008779000,0.071167000,-0.002024360,0.000203010,0.016981120,0.999853740,-0.004041000,0.000475000,0.033963000,-0.000612044,0.000241958,0.000725855,0.026777864,-0.071466226,0.007117609,0.011556179,-0.004700328,0.998035344,0.002907093,0.000942321,0.002165486,0.000000000,0.000000000,0.000000000,0.000000000,0.016531411,0.008694059,0.071162147,0.014969263,-0.003408831,-0.003958673,0.005099624,-0.002145034,-0.001392387,-0.137233985,0.378507078,1.370144224,-0.001158006,-0.003317175,0.011952438,0.999921594,0.000000000,0.000000000,0.000000000,0.000000000,0.000000000,0.000000000,2.728611231,0.000000000,4.228152752
1772724845.417174101,0.016256000,0.008783000,0.071209000,-0.002272240,0.000611350,0.016788420,0.999856300,-0.004523000,0.001299000,0.033576000,-0.000481663,-0.000475078,0.000877837,-0.012272968,0.029113938,-0.006359593,0.011717365,-0.004642191,0.997889895,0.002983651,0.000693259,0.001849401,0.000000000,0.000000000,0.000000000,0.000000000,0.016531264,0.008693479,0.071163853,0.014967649,-0.003414140,-0.003938771,0.005304238,-0.002127911,-0.001534052,-0.137166452,0.378416664,1.370015069,-0.001157429,-0.003316378,0.011951314,0.999921619,0.000000000,0.000000000,0.000000000,0.000000000,0.000000000,0.000000000,2.728611231,0.000000000,4.228152752
1772724845.427173853,0.016243000,0.008757000,0.071251000,-0.002838460,0.001237540,0.016671880,0.999856220,-0.005635000,0.002569000,0.033338000,0.000049825,-0.000633334,-0.000029410,-0.024501554,0.100900330,-0.013085332,0.011878532,-0.004584061,0.997744462,0.003060199,0.000444226,0.001533353,0.000000000,0.000000000,0.000000000,0.000000000,0.016531118,0.008692899,0.071165559,0.014966034,-0.003419447,-0.003918872,0.005508827,-0.002110791,-0.001675700,-0.137098928,0.378326260,1.369885929,-0.001156853,-0.003315581,0.011950191,0.999921644,0.000000000,0.000000000,0.000000000,0.000000000,0.000000000,0.000000000,2.728611231,0.000000000,4.228152752
1772724845.437173128,0.016265000,0.008789000,0.071195000,-0.002340570,0.000663270,0.016862110,0.999854860,-0.004658000,0.001405000,0.033723000,0.000325972,-0.000575933,-0.000758256,-0.022132658,0.127234089,-0.015298854,0.012039691,-0.004525934,0.997599036,0.003136744,0.000195205,0.001217321,0.000000000,0.000000000,0.000000000,0.000000000,0.016530972,0.008692320,0.071167265,0.014964420,-0.003424755,-0.003898973,0.005713407,-0.002093671,-0.001817342,-0.137031406,0.378235860,1.369756796,-0.001156277,-0.003314784,0.011949067,0.999921669,0.000000000,0.000000000,0.000000000,0.000000000,0.000000000,0.000000000,2.728611231,0.000000000,4.228152752
1772724845.447173119,0.016239000,0.008771000,0.071231000,-0.002968350,0.001549660,0.016704760,0.999854860,-0.005884000,0.003198000,0.033402000,0.000548272,-0.000391997,-0.000820475,-0.010612379,0.108556797,-0.008233786,0.012200862,-0.004467803,0.997453600,0.003213294,-0.000053834,0.000901266,0.000000000,0.000000000,0.000000000,0.000000000,0.016530825,0.008691740,0.071168971,0.014962805,-0.003430063,-0.003879073,0.005918002,-0.002076550,-0.001958993,-0.136963880,0.378145454,1.369627653,-0.001155701,-0.003313986,0.011947943,0.999921694,0.000000000,0.000000000,0.000000000,0.000000000,0.000000000,0.000000000,2.728611231,0.000000000,4.228152752
1772724845.457173586,0.016321000,0.008740000,0.071120000,-0.002614430,0.003684790,0.016557540,0.999852710,-0.005106000,0.007455000,0.033098000,0.000759888,-0.000368240,-0.000538637,0.008688257,0.047773663,-0.000008122,0.012362040,-0.004409669,0.997308157,0.003289848,-0.000302885,0.000585196,0.000000000,0.000000000,0.000000000,0.000000000,0.016532822,0.008692934,0.071166981,0.014980427,-0.003435165,-0.003879338,0.006122606,-0.002059429,-0.002100651,-0.136896351,0.378055044,1.369498505,-0.001155125,-0.003313189,0.011946819,0.999921719,0.000000000,0.000000000,0.000000000,0.000000000,0.000000000,0.000000000,2.728611231,0.000000000,4.228152752
1772724845.467173815,0.016280000,0.008777000,0.071161000,-0.002259240,0.002283570,0.016719110,0.999855070,-0.004442000,0.004642000,0.033430000,0.000409674,-0.000021134,0.000379565,0.019886587,-0.025414517,0.007002003,0.011303062,-0.003236606,0.997801920,0.002664932,-0.000231549,0.000607951,0.000000000,0.000000000,0.000000000,0.000000000,0.016547699,0.008704791,0.071142773,0.015113669,-0.003439029,-0.004000817,0.004327734,-0.000752594,-0.002287182,-0.136720607,0.377393133,1.368884968,-0.001153678,-0.003307389,0.011941478,0.999921788,0.000000000,0.000000000,0.000000000,0.000000000,0.000000000,0.000000000,2.728611231,0.000000000,4.228152752
1772724845.477173805,0.016248000,0.008746000,0.071244000,-0.002840580,0.002428600,0.016586720,0.999855450,-0.005600000,0.004951000,0.033161000,-0.000112393,0.000352545,0.001023369,0.028042713,-0.096036025,0.015491941,0.011372698,-0.004108357,0.997517410,0.001662440,-0.000816062,-0.001285361,0.000000000,0.000000000,0.000000000,0.000000000,0.016558005,0.008719677,0.071113952,0.015040313,-0.003263100,-0.004177193,0.005290097,-0.001678034,-0.002474039,-0.135978551,0.375703157,1.367178088,-0.001147429,-0.003292548,0.011926623,0.999922041,0.000000000,0.000000000,0.000000000,0.000000000,0.000000000,0.000000000,2.728611231,0.000000000,4.228152752
1772724845.487173557,0.016287000,0.008771000,0.071215000,-0.002399970,0.001420120,0.016867940,0.999853840,-0.004751000,0.002921000,0.033731000,-0.000357032,0.001127857,0.000339278,0.045569849,-0.158415366,0.027424815,0.011768275,-0.006734346,0.996468875,0.001333519,-0.001920028,-0.001136274,0.000000000,0.000000000,0.000000000,0.000000000,0.016566957,0.008718270,0.071100524,0.015130508,-0.003314805,-0.004273730,0.005346177,-0.003854752,-0.003226269,-0.134849279,0.374931415,1.365088328,-0.001137715,-0.003285675,0.011908428,0.999922247,0.000000000,0.000000000,0.000000000,0.000000000,0.000000000,0.000000000,2.728611231,0.000000000,4.228152752
1772724845.497174025,0.016285000,0.008775000,0.071193000,-0.001975400,0.000497020,0.017003650,0.999853350,-0.003933000,0.001061000,0.034007000,-0.000568377,0.001081295,-0.000003127,0.037985515,-0.147846755,0.025146115,0.011095536,-0.006992581,0.996817992,-0.000242892,0.002470769,-0.001271884,0.000000000,0.000000000,0.000000000,0.000000000,0.016557286,0.008717812,0.071113751,0.015122868,-0.003576884,-0.004342777,0.004611785,-0.004450292,-0.003009460,-0.133902695,0.375032039,1.363156371,-0.001129500,-0.003286436,0.011891595,0.999922381,0.000000000,0.000000000,0.000000000,0.000000000,0.000000000,0.000000000,2.728611231,0.000000000,4.228152752
