t,px,py,pz,qx,qy,qz,qw,roll,pitch,yaw,vx,vy,vz,wx_vicon,wy_vicon,wz_vicon,imu_acc_x,imu_acc_y,imu_acc_z,imu_gyro_x,imu_gyro_y,imu_gyro_z,motor_motor_m1,motor_motor_m2,motor_motor_m3,motor_motor_m4,est_stateEstimate_x,est_stateEstimate_y,est_stateEstimate_z,est_stateEstimate_vx,est_stateEstimate_vy,est_stateEstimate_vz,est_stateEstimate_ax,est_stateEstimate_ay,est_stateEstimate_az,att_stateEstimate_roll,att_stateEstimate_pitch,att_stateEstimate_yaw,att_stateEstimate_qx,att_stateEstimate_qy,att_stateEstimate_qz,att_stateEstimate_qw,sp_ctrltarget_x,sp_ctrltarget_y,sp_ctrltarget_z,sp_ctrltarget_yaw,pid_controller_roll,pid_controller_pitch,pid_controller_yaw,pid_controller_cmd_thrust,pwr_pm_vbat
1772692211.510318518,0.016375000,0.007221000,0.071668000,0.027754630,0.017289190,0.038870230,0.998709100,0.056842000,0.032382000,0.078722000,-0.005891886,-0.003881278,0.009543230,-0.324902223,0.443940976,-0.143730004,0.007407219,-0.000606949,0.999071480,-0.000495309,-0.000139805,-0.000073357,0.000000000,0.000000000,0.000000000,0.000000000,0.016677697,0.006827111,0.071753959,0.036290271,-0.037474511,-0.000752439,0.011043301,-0.008275541,-0.000722415,0.475073160,-0.190439583,3.487652446,0.004093281,0.001787275,0.030423592,0.999526870,0.000000000,0.000000000,0.000000000,0.000000000,0.000000000,0.000000000,3.487842229,0.000000000,4.066069633
1772692211.520318031,0.016362000,0.007225000,0.071666000,0.027629020,0.017283180,0.038887060,0.998712030,0.056591000,0.032379000,0.078752000,-0.002821021,-0.001569621,0.005062456,-0.211875297,0.293343233,-0.090973664,0.007549473,-0.000467006,0.998879308,-0.000659044,-0.000600722,0.000031004,0.000000000,0.000000000,0.000000000,0.000000000,0.016680180,0.006830020,0.071749176,0.036296194,-0.037449202,-0.000775858,0.011081960,-0.008172128,-0.000850982,0.474836294,-0.190584665,3.488316623,0.004091166,0.001788501,0.030429384,0.999526987,0.000000000,0.000000000,0.000000000,0.000000000,0.000000000,0.000000000,3.488502984,0.000000000,4.066375747
1772692211.530317068,0.016302000,0.007171000,0.071800000,0.025586480,0.020164930,0.038120550,0.998741970,0.052709000,0.038338000,0.077311000,-0.000856916,-0.000326962,0.002113269,-0.135793823,0.192163609,-0.056903971,0.007322858,-0.000543172,0.998761003,-0.001113611,-0.000079428,0.000373079,0.000000000,0.000000000,0.000000000,0.000000000,0.016682662,0.006832929,0.071744392,0.036302116,-0.037423894,-0.000799275,0.011120617,-0.008068720,-0.000979542,0.474599439,-0.190729740,3.488980768,0.004089051,0.001789728,0.030435175,0.999525491,0.000000000,0.000000000,0.000000000,0.000000000,0.000000000,0.000000000,3.489163708,0.000000000,4.066681845
1772692211.540317297,0.016286000,0.007164000,0.071840000,0.024014930,0.022036450,0.037521550,0.998764140,0.049689000,0.042229000,0.076150000,0.000232595,0.000132013,0.000367697,-0.086962063,0.126963357,-0.036378764,0.006477985,-0.001228147,0.998980240,-0.001913763,0.001617230,0.001126527,0.000000000,0.000000000,0.000000000,0.000000000,0.016703195,0.006843007,0.071714826,0.036423657,-0.037230972,-0.000965804,0.010796692,-0.008589921,-0.000872395,0.473683907,-0.190731326,3.491139324,0.004081031,0.001789575,0.030454016,0.999523639,0.000000000,0.000000000,0.000000000,0.000000000,0.000000000,0.000000000,3.492780282,0.000000000,4.066987981
1772692211.550316334,0.016347000,0.007222000,0.071715000,0.024986550,0.020807060,0.037922310,0.998751540,0.051552000,0.039677000,0.076926000,0.000679682,0.000092619,-0.000502234,-0.055626269,0.084266696,-0.024528566,0.006455767,-0.003401535,1.000742806,-0.000931177,-0.002639172,0.001452875,0.000000000,0.000000000,0.000000000,0.000000000,0.016695472,0.006833608,0.071731018,0.036446659,-0.037086015,-0.000936249,0.010264704,-0.009886203,-0.000086286,0.471804466,-0.190233453,3.495809250,0.004064698,0.001784899,0.030494795,0.999524207,0.000000000,0.000000000,0.000000000,0.000000000,0.000000000,0.000000000,3.498934726,0.000000000,4.067294080
1772692211.560315847,0.016379000,0.007223000,0.071679000,0.025817280,0.019816410,0.038253480,0.998737930,0.053148000,0.037616000,0.077566000,0.000716512,-0.000159829,-0.000824496,-0.032124209,0.050572735,-0.016333418,0.005848376,-0.002061309,1.000715149,-0.001384329,-0.000527697,-0.002439922,0.000000000,0.000000000,0.000000000,0.000000000,0.016678548,0.006816465,0.071767256,0.036438910,-0.037044589,-0.000768188,0.009859640,-0.010242387,0.000467382,0.470159896,-0.188698748,3.499875979,0.004050699,0.001771218,0.030530351,0.999523118,0.000000000,0.000000000,0.000000000,0.000000000,0.000000000,0.000000000,3.504501915,0.000000000,4.067600193
1772692211.570315599,0.016310000,0.007171000,0.071792000,0.024527140,0.021557940,0.037709740,0.998755050,0.050684000,0.041224000,0.076523000,0.001083140,0.000269581,-0.001843028,0.029231657,-0.043414907,0.011352109,0.005210828,-0.002091462,1.000068008,-0.000435853,0.002436176,-0.000308573,0.000000000,0.000000000,0.000000000,0.000000000,0.016686814,0.006818754,0.071754796,0.036471076,-0.036998009,-0.000756921,0.009368724,-0.009437849,-0.000027737,0.467229099,-0.187509073,3.502012391,0.004025420,0.001760136,0.030549073,0.999522678,0.000000000,0.000000000,0.000000000,0.000000000,0.000000000,0.000000000,3.507771245,0.000000000,4.067906314
1772692211.580315590,0.016300000,0.007154000,0.071827000,0.023573660,0.022675240,0.037406010,0.998764690,0.048851000,0.043545000,0.075934000,0.000583043,0.000315987,-0.001207849,0.053452707,-0.075550839,0.020617448,0.004336041,-0.002443491,1.001146486,0.000460723,0.001287538,0.001701723,0.000000000,0.000000000,0.000000000,0.000000000,0.016705915,0.006833059,0.071717581,0.036466352,-0.036902384,-0.000882621,0.008810631,-0.010299997,0.000235368,0.465372433,-0.187720915,3.505075858,0.004009121,0.001761596,0.030575819,0.999521973,0.000000000,0.000000000,0.000000000,0.000000000,0.000000000,0.000000000,3.510329402,0.000000000,4.068212442
1772692211.590315104,0.016367000,0.007204000,0.071692000,0.024898130,0.020983550,0.037827080,0.998753670,0.051385000,0.040042000,0.076742000,0.000379993,0.000837569,-0.001285918,0.078371719,-0.113818159,0.030629121,0.004572650,-0.002480960,1.000440923,0.000130245,0.002795225,0.000944412,0.000000000,0.000000000,0.000000000,0.000000000,0.016716788,0.006846639,0.071693489,0.036364699,-0.036827116,-0.000950172,0.008395251,-0.010033894,0.000699447,0.464266060,-0.187836586,3.510257220,0.003999360,0.001762490,0.030621024,0.999520664,0.000000000,0.000000000,0.000000000,0.000000000,0.000000000,0.000000000,3.513984891,0.000000000,4.068518556
1772692211.600314856,0.016376000,0.007218000,0.071673000,0.025969760,0.019601070,0.038189840,0.998740660,0.053434000,0.037178000,0.077432000,0.000822106,0.001608218,-0.002567291,0.129602695,-0.184412428,0.055091517,0.006560435,-0.002162124,0.999833101,0.001739307,0.001537954,0.001847014,0.000000000,0.000000000,0.000000000,0.000000000,0.016717563,0.006860280,0.071680703,0.036154348,-0.036812284,-0.000913073,0.009648473,-0.009941606,-0.000108295,0.463720478,-0.187590009,3.514962392,0.003994595,0.001760358,0.030662080,0.999519454,0.000000000,0.000000000,0.000000000,0.000000000,0.000000000,0.000000000,3.519797973,0.000000000,4.068824676
1772692211.610313892,0.016368000,0.007233000,0.071679000,0.026661450,0.018560050,0.038496340,0.998730560,0.054745000,0.035027000,0.078012000,0.000874632,0.001435200,-0.002500371,0.147521730,-0.206072308,0.066392634,0.007211929,-0.001676975,1.000106804,-0.001517194,-0.002057932,0.003027386,0.000000000,0.000000000,0.000000000,0.000000000,0.016713323,0.006867715,0.071673141,0.035999934,-0.036801762,-0.000927917,0.011356349,-0.009476554,-0.000135661,0.462981251,-0.186932163,3.520530038,0.003988238,0.001754615,0.030710677,0.999517991,0.000000000,0.000000000,0.000000000,0.000000000,0.000000000,0.000000000,3.524663065,0.000000000,4.069130775
1772692211.620313644,0.016356000,0.007237000,0.071675000,0.027121020,0.018158250,0.038617750,0.998720880,0.055636000,0.034182000,0.078247000,-0.000167716,0.000289666,-0.000461189,0.095452413,-0.132466956,0.042542847,0.007321012,-0.001960079,1.000950630,-0.002621577,-0.000271466,0.000010069,0.000000000,0.000000000,0.000000000,0.000000000,0.016712701,0.006868134,0.071668080,0.036019132,-0.036785831,-0.000941060,0.010863184,-0.009425570,0.000392911,0.461784171,-0.183203369,3.525504849,0.003978721,0.001721943,0.030754221,0.999516700,0.000000000,0.000000000,0.000000000,0.000000000,0.000000000,0.000000000,3.530250508,0.000000000,4.069436896
1772692211.630313158,0.016359000,0.007232000,0.071673000,0.027359720,0.017796760,0.038712770,0.998717200,0.056088000,0.033436000,0.078424000,-0.000297494,-0.000598835,0.000697864,0.032590425,-0.050052487,0.016765098,0.006322636,-0.002378312,1.001902923,-0.000284146,-0.000338491,-0.001781475,0.000000000,0.000000000,0.000000000,0.000000000,0.016715273,0.006864656,0.071665036,0.036073705,-0.036764849,-0.000893936,0.011194551,-0.009546238,0.001636690,0.460432281,-0.181730324,3.529795358,0.003967262,0.001708880,0.030791719,0.999515820,0.000000000,0.000000000,0.000000000,0.000000000,0.000000000,0.000000000,3.534769000,0.000000000,4.069743009
1772692211.640313148,0.016364000,0.007222000,0.071671000,0.027455240,0.017651080,0.038794590,0.998713990,0.056270000,0.033133000,0.078583000,0.000506275,-0.000649903,0.000169347,0.010945967,-0.020849477,0.007208176,0.005330113,-0.002240095,1.001850869,0.000105494,-0.003048301,-0.001999805,0.000000000,0.000000000,0.000000000,0.000000000,0.016719373,0.006862793,0.071663201,0.036117848,-0.036768544,-0.000816456,0.009277966,-0.010010791,0.001360162,0.460455731,-0.179037506,3.532818992,0.003968146,0.001685504,0.030818186,0.999514928,0.000000000,0.000000000,0.000000000,0.000000000,0.000000000,0.000000000,3.537740965,0.000000000,4.070180506
1772692211.650313139,0.016373000,0.007221000,0.071669000,0.027499320,0.017551060,0.038830890,0.998713130,0.056351000,0.032927000,0.078651000,0.000666182,-0.000491842,0.000270921,0.000722252,-0.004932639,0.003013996,0.005769494,-0.001688956,1.000373694,-0.002032967,-0.003664638,-0.000804210,0.000000000,0.000000000,0.000000000,0.000000000,0.016721074,0.006857541,0.071668428,0.036066737,-0.036802710,-0.000564578,0.009470844,-0.009266036,0.000576236,0.460559336,-0.175827572,3.536661671,0.003969857,0.001657666,0.030851817,0.999513907,0.000000000,0.000000000,0.000000000,0.000000000,0.000000000,0.000000000,3.541492688,0.000000000,4.070644664
1772692211.660313129,0.016371000,0.007212000,0.071681000,0.027447890,0.017535870,0.038737500,0.998718440,0.056244000,0.032906000,0.078461000,0.000794232,0.000253477,-0.000355284,0.016029294,-0.029818036,0.010393778,0.006536661,-0.002207280,0.999757963,-0.000403385,0.001251314,0.001790007,0.000000000,0.000000000,0.000000000,0.000000000,0.016730183,0.006855677,0.071670515,0.035958095,-0.036807458,-0.000483076,0.009685745,-0.009184785,-0.000667542,0.460842299,-0.173615843,3.541707612,0.003972849,0.001638626,0.030895905,0.999512744,0.000000000,0.000000000,0.000000000,0.000000000,0.000000000,0.000000000,3.545611010,0.000000000,4.071108821
1772692211.670312405,0.016390000,0.007214000,0.071678000,0.027431160,0.017545260,0.038832820,0.998715030,0.056215000,0.032921000,0.078652000,-0.000090754,0.000378380,-0.000101865,0.005963653,-0.005639325,0.005930349,0.006603037,-0.003140042,0.998358266,-0.000898692,0.001901236,0.002812252,0.000000000,0.000000000,0.000000000,0.000000000,0.016731437,0.006856981,0.071674450,0.035922983,-0.036781827,-0.000441379,0.009748336,-0.009998816,-0.001241133,0.460876805,-0.172390198,3.546380958,0.003973414,0.001628106,0.030936711,0.999511483,0.000000000,0.000000000,0.000000000,0.000000000,0.000000000,0.000000000,3.549785069,0.000000000,4.071572945
1772692211.680312872,0.016381000,0.007221000,0.071687000,0.027427480,0.017671480,0.038829120,0.998713050,0.056217000,0.033174000,0.078652000,-0.001598467,-0.000296717,0.001721000,-0.063384056,0.094436083,-0.022935620,0.006945607,-0.002914625,0.999363658,-0.000044221,0.003378749,0.001839048,0.000000000,0.000000000,0.000000000,0.000000000,0.016727308,0.006861126,0.071676672,0.035874854,-0.036771284,-0.000485798,0.009961392,-0.010797966,-0.001254294,0.460480840,-0.171090755,3.550162276,0.003970258,0.001616796,0.030969744,0.999510266,0.000000000,0.000000000,0.000000000,0.000000000,0.000000000,0.000000000,3.554315469,0.000000000,4.072037125
1772692211.690312862,0.016363000,0.007232000,0.071681000,0.027359290,0.017774250,0.038815790,0.998713610,0.056089000,0.033385000,0.078629000,-0.002142931,-0.000875079,0.002516261,-0.124152375,0.183762864,-0.050426896,0.007239271,-0.002486666,0.999893436,-0.000498391,0.000113426,-0.002170852,0.000000000,0.000000000,0.000000000,0.000000000,0.016719098,0.006866840,0.071673182,0.035808381,-0.036812611,-0.000608195,0.010272865,-0.010059069,-0.000725784,0.459298166,-0.169097445,3.554818635,0.003960416,0.001599251,0.031010446,0.999509075,0.000000000,0.000000000,0.000000000,0.000000000,0.000000000,0.000000000,3.559402371,0.000000000,4.072501282
1772692211.700312614,0.016360000,0.007233000,0.071668000,0.027226820,0.017859840,0.038777220,0.998717200,0.055829000,0.033569000,0.078552000,-0.001620340,-0.000965036,0.002129800,-0.144604727,0.212860145,-0.061275403,0.005821498,-0.003851446,1.001085511,-0.000742245,-0.002486147,-0.000846346,0.000000000,0.000000000,0.000000000,0.000000000,0.016883122,0.006696423,0.071665904,0.036252761,-0.037305751,-0.000684665,0.010194092,-0.010082789,0.000668191,0.458378022,-0.166879678,3.558117959,0.003952945,0.001579772,0.031039311,0.999508057,0.000000000,0.000000000,0.000000000,0.000000000,0.000000000,0.000000000,3.560955300,0.000000000,4.072965428
1772692211.710312843,0.016288000,0.007177000,0.071783000,0.025162080,0.020782350,0.038098520,0.998740940,0.051908000,0.039605000,0.077284000,-0.000392735,-0.000695727,0.001142289,-0.119684816,0.173811311,-0.053229033,0.004005687,-0.003517735,1.000595695,0.000434960,0.003456495,0.000300580,0.000000000,0.000000000,0.000000000,0.000000000,0.017218105,0.006351740,0.071659693,0.037155236,-0.038226175,-0.000681433,0.008553748,-0.011796664,0.000807046,0.456647504,-0.166554088,3.555634669,0.003937973,0.001576378,0.031017688,0.999508680,0.000000000,0.000000000,0.000000000,0.000000000,0.000000000,0.000000000,3.557652454,0.000000000,4.073429597
1772692211.720313311,0.016288000,0.007165000,0.071821000,0.023768300,0.022439470,0.037563710,0.998759480,0.049229000,0.043051000,0.076245000,0.001368746,0.000171426,-0.000975467,-0.030896644,0.045182807,-0.016229145,0.004116044,-0.001817454,1.001957592,-0.000693959,0.002860296,0.003229775,0.000000000,0.000000000,0.000000000,0.000000000,0.017535317,0.006024856,0.071654183,0.037911717,-0.039130075,-0.000611025,0.007121475,-0.010008821,0.000594452,0.456323838,-0.168232413,3.551824564,0.003934749,0.001590798,0.030984401,0.999509673,0.000000000,0.000000000,0.000000000,0.000000000,0.000000000,0.000000000,3.555442196,0.000000000,4.073893776
1772692211.730314493,0.016363000,0.007202000,0.071708000,0.024941610,0.021054080,0.037905460,0.998748130,0.051481000,0.040175000,0.076904000,0.001383626,0.000309519,-0.000991551,0.028288242,-0.033730328,0.005549338,0.005018034,-0.001444589,1.001359389,-0.001387056,0.000986819,0.003394681,0.000000000,0.000000000,0.000000000,0.000000000,0.017879757,0.005668256,0.071648929,0.038591939,-0.040106984,-0.000552940,0.007757729,-0.009520954,0.002486236,0.455658154,-0.168975252,3.550336767,0.003928762,0.001597047,0.030971409,0.999510192,0.000000000,0.000000000,0.000000000,0.000000000,0.000000000,0.000000000,3.551456318,0.000000000,4.074357989
1772692211.740314722,0.016383000,0.007220000,0.071683000,0.025749870,0.019942540,0.038226010,0.998738210,0.053022000,0.037875000,0.077516000,0.000827274,0.000699185,-0.001172554,0.065213841,-0.088251239,0.019329145,0.005444576,-0.002159490,0.999186520,-0.001820022,0.000157120,0.001253775,0.000000000,0.000000000,0.000000000,0.000000000,0.018212617,0.005322051,0.071644815,0.039239352,-0.040858658,-0.000387792,0.008862051,-0.009063635,0.000105063,0.454843509,-0.169238888,3.548073617,0.003921617,0.001599049,0.030951672,0.999510753,0.000000000,0.000000000,0.000000000,0.000000000,0.000000000,0.000000000,3.550179633,0.000000000,4.074822157
1772692211.750314713,0.016385000,0.007225000,0.071684000,0.026311980,0.019193160,0.038389570,0.998731970,0.054093000,0.036325000,0.077822000,0.000464394,0.001089881,-0.002013658,0.095130750,-0.137175638,0.033585506,0.005543286,-0.002618076,0.998226609,-0.002543263,-0.000457165,-0.000340852,0.000000000,0.000000000,0.000000000,0.000000000,0.018573428,0.004946124,0.071641719,0.040004746,-0.041706323,-0.000299808,0.009071893,-0.009875567,-0.001372968,0.453693778,-0.168143355,3.544395589,0.003911935,0.001589057,0.030919644,0.999511729,0.000000000,0.000000000,0.000000000,0.000000000,0.000000000,0.000000000,3.547595658,0.000000000,4.074840179
1772692211.760314703,0.016366000,0.007223000,0.071680000,0.026828410,0.018577370,0.038481430,0.998726340,0.055080000,0.035050000,0.077989000,-0.001255324,-0.000031954,0.000538831,0.025417854,-0.035634669,0.006917768,0.006694788,-0.003037553,0.999384927,0.000611064,-0.000397393,-0.000564166,0.000000000,0.000000000,0.000000000,0.000000000,0.019019915,0.004480597,0.071637640,0.040968939,-0.042725836,-0.000454856,0.009942438,-0.010319337,-0.000840399,0.452658742,-0.167300908,3.540209242,0.003903192,0.001581287,0.030883171,0.999512987,0.000000000,0.000000000,0.000000000,0.000000000,0.000000000,0.000000000,3.542954455,0.000000000,4.074332473
1772692211.770314693,0.016292000,0.007177000,0.071795000,0.025116850,0.020903360,0.037859700,0.998748640,0.051818000,0.039863000,0.076811000,-0.001619407,-0.000623485,0.001890581,-0.041920946,0.055073767,-0.017226701,0.006275020,-0.003752132,1.000659695,0.001877113,-0.001937424,0.000798196,0.000000000,0.000000000,0.000000000,0.000000000,0.017209916,0.006265715,0.071737230,0.025185871,-0.027072276,0.000201119,0.008709063,-0.009340520,-0.000131401,0.380117482,-0.102968546,3.545650730,0.003287775,0.001000733,0.030933277,0.999510109,0.000000000,0.000000000,0.000000000,0.000000000,0.000000000,0.000000000,3.545927773,0.000000000,4.073824768
1772692211.780315161,0.016341000,0.007231000,0.071688000,0.025862650,0.019692510,0.038156740,0.998742910,0.053225000,0.037371000,0.077367000,-0.000488093,-0.000384946,0.000890619,-0.042973553,0.057912442,-0.012772918,0.005358301,-0.003096717,1.000003686,-0.001518559,0.001068284,0.000716305,0.000000000,0.000000000,0.000000000,0.000000000,0.016415740,0.007169313,0.071689365,0.023175100,-0.024897442,0.000143612,0.008169804,-0.008195550,-0.000550993,0.363973767,-0.088957436,3.583752409,0.003150421,0.000875249,0.031266370,0.999504077,0.000000000,0.000000000,0.000000000,0.000000000,0.000000000,0.000000000,3.571815558,0.000000000,4.073317038
1772692211.790315628,0.016362000,0.007230000,0.071663000,0.026514100,0.018864370,0.038450530,0.998730540,0.054473000,0.035649000,0.077932000,0.000618726,0.000000097,-0.000002603,-0.014419779,0.017022811,0.003626938,0.006618209,-0.001234765,0.998608816,-0.000602111,-0.000938567,0.001073838,0.000000000,0.000000000,0.000000000,0.000000000,0.016484004,0.007067305,0.071701680,0.024661068,-0.026687583,0.000195611,0.008238891,-0.007093161,-0.001385340,0.374508453,-0.099112726,3.592951345,0.003239471,0.000966948,0.031346245,0.999502044,0.000000000,0.000000000,0.000000000,0.000000000,0.000000000,0.000000000,3.596959271,0.000000000,4.072809308
1772692211.800315142,0.016311000,0.007176000,0.071803000,0.024964250,0.021026110,0.037936740,0.998746960,0.051525000,0.040116000,0.076966000,0.001647457,0.000614395,-0.001640270,0.049855605,-0.073814399,0.030966721,0.007339312,-0.001238142,0.998287218,0.000291341,-0.003192970,0.000634018,0.000000000,0.000000000,0.000000000,0.000000000,0.016523840,0.006992498,0.071745344,0.025242386,-0.027354318,0.000247184,0.009809129,-0.006869323,-0.001672587,0.379957961,-0.102681273,3.596153236,0.003285999,0.000999657,0.031374023,0.999500941,0.000000000,0.000000000,0.000000000,0.000000000,0.000000000,0.000000000,3.600128441,0.000000000,4.072301626
1772692211.810316324,0.016362000,0.007214000,0.071711000,0.025825530,0.019767720,0.038321090,0.998736090,0.053163000,0.037515000,0.077699000,0.000844406,0.000231624,-0.000887025,0.059202963,-0.083846863,0.029743360,0.007069116,-0.002585599,0.998583496,-0.000572575,-0.001225260,-0.000811621,0.000000000,0.000000000,0.000000000,0.000000000,0.016566246,0.006968664,0.071729931,0.025842117,-0.027670986,0.000076098,0.009729615,-0.008090018,-0.002121558,0.384010421,-0.104382313,3.598970063,0.003320856,0.001015685,0.031398506,0.999500007,0.000000000,0.000000000,0.000000000,0.000000000,0.000000000,0.000000000,3.603227854,0.000000000,4.071793860
1772692211.820316315,0.016374000,0.007222000,0.071685000,0.026429420,0.019028950,0.038522130,0.998726900,0.054319000,0.035981000,0.078082000,-0.000233858,-0.000505614,0.000411170,0.020096917,-0.026693642,0.007887157,0.006347073,-0.003738945,0.999405682,-0.000470295,0.002382226,-0.001363169,0.000000000,0.000000000,0.000000000,0.000000000,0.016594855,0.006958978,0.071710019,0.026356164,-0.027969825,-0.000148507,0.008781106,-0.009177150,-0.000641282,0.387369496,-0.106047333,3.601060316,0.003349679,0.001031189,0.031416658,0.999499305,0.000000000,0.000000000,0.000000000,0.000000000,0.000000000,0.000000000,3.606259416,0.000000000,4.071286155
1772692211.830316305,0.016374000,0.007224000,0.071681000,0.026891640,0.018421270,0.038637320,0.998721510,0.055199000,0.034724000,0.078294000,-0.000212607,-0.000074009,-0.000350214,0.018152637,-0.025448018,0.002064113,0.004238716,-0.002796946,0.999702253,0.000131372,-0.000519760,-0.002938037,0.000000000,0.000000000,0.000000000,0.000000000,0.016614649,0.006952486,0.071695412,0.026845790,-0.028404366,-0.000328459,0.007774595,-0.009319885,0.000043908,0.390161837,-0.108396502,3.602983841,0.003373373,0.001052502,0.031433340,0.999498724,0.000000000,0.000000000,0.000000000,0.000000000,0.000000000,0.000000000,3.608288933,0.000000000,4.070778449
1772692211.840315819,0.016368000,0.007225000,0.071662000,0.027198100,0.017995720,0.038724610,0.998717590,0.055781000,0.033845000,0.078454000,0.000181935,0.000374068,-0.001140327,0.037056930,-0.051602662,0.008096075,0.005213811,-0.000517957,1.000909928,0.000817545,-0.001503370,0.000505872,0.000000000,0.000000000,0.000000000,0.000000000,0.016623857,0.006947937,0.071680993,0.027086129,-0.028807368,-0.000419512,0.007504605,-0.008162982,0.000257554,0.392736071,-0.110339527,3.605634865,0.003395268,0.001070234,0.031456382,0.999497924,0.000000000,0.000000000,0.000000000,0.000000000,0.000000000,0.000000000,3.610379651,0.000000000,4.070270767
1772692211.850315809,0.016305000,0.007174000,0.071788000,0.025524470,0.020230010,0.038086800,0.998743530,0.052589000,0.038474000,0.077245000,-0.000812297,-0.000422164,0.001358859,-0.018847362,0.029614299,-0.015578102,0.006183659,-0.001383225,1.000707480,0.000825642,-0.004504479,0.004681640,0.000000000,0.000000000,0.000000000,0.000000000,0.016613577,0.006931719,0.071701733,0.027220794,-0.029104954,-0.000314875,0.007953403,-0.007106918,0.000710485,0.395777297,-0.110701023,3.608826243,0.003421665,0.001074317,0.031484173,0.999497053,0.000000000,0.000000000,0.000000000,0.000000000,0.000000000,0.000000000,3.612778186,0.000000000,4.069794655
1772692211.860315561,0.016364000,0.007205000,0.071693000,0.026275540,0.019251370,0.038339440,0.998733730,0.054023000,0.036447000,0.077723000,-0.000274845,0.000155109,0.000537627,-0.014546354,0.025799923,-0.012486755,0.006147113,-0.002463529,0.999800648,0.000481681,-0.000830926,0.002733536,0.000000000,0.000000000,0.000000000,0.000000000,0.016605191,0.006915964,0.071724474,0.027404590,-0.029315704,-0.000172112,0.008461437,-0.008010301,-0.000209983,0.398358950,-0.111888086,3.612216855,0.003443825,0.001085482,0.031513689,0.999495940,0.000000000,0.000000000,0.000000000,0.000000000,0.000000000,0.000000000,3.615459524,0.000000000,4.069794655
1772692211.870315552,0.016361000,0.007231000,0.071685000,0.026740640,0.018722190,0.038444240,0.998727420,0.054915000,0.035348000,0.077919000,-0.000413481,-0.000164278,0.001193086,-0.037852879,0.064331834,-0.018061345,0.006116552,-0.002935752,0.999680196,0.000301440,0.001093321,0.001412782,0.000000000,0.000000000,0.000000000,0.000000000,0.016617673,0.006916333,0.071710330,0.027654775,-0.029456197,-0.000177409,0.008734611,-0.009168246,0.000251250,0.398913504,-0.112202453,3.612853222,0.003448569,0.001088396,0.031519225,0.999495618,0.000000000,0.000000000,0.000000000,0.000000000,0.000000000,0.000000000,3.618938663,0.000000000,4.069794655
1772692211.880315304,0.016369000,0.007232000,0.071681000,0.027020390,0.018286750,0.038581970,0.998722650,0.055444000,0.034449000,0.078180000,0.000065346,-0.000151535,0.000310606,-0.029113755,0.054154845,-0.010622594,0.006252945,-0.003038785,1.000106497,0.000268441,0.000970592,0.001432775,0.000000000,0.000000000,0.000000000,0.000000000,0.016619146,0.006918292,0.071707902,0.027704309,-0.029502187,-0.000196360,0.008951552,-0.009622135,0.000555671,0.399394730,-0.112485249,3.613389962,0.003452684,0.001091011,0.031523894,0.999495465,0.000000000,0.000000000,0.000000000,0.000000000,0.000000000,0.000000000,3.619454890,0.000000000,4.069794655
1772692211.890316010,0.016301000,0.007173000,0.071812000,0.025185280,0.020800650,0.037935170,0.998746190,0.051950000,0.039649000,0.076959000,-0.000281780,-0.000805090,0.000953148,-0.056020499,0.090348556,-0.019512040,0.006389352,-0.003141827,1.000532838,0.000235439,0.000847852,0.001452770,0.000000000,0.000000000,0.000000000,0.000000000,0.016620618,0.006920251,0.071705473,0.027753848,-0.029548181,-0.000215312,0.009131238,-0.009609313,0.000756166,0.399876002,-0.112768073,3.613926752,0.003456799,0.001093627,0.031528564,0.999495312,0.000000000,0.000000000,0.000000000,0.000000000,0.000000000,0.000000000,3.619971167,0.000000000,4.069794655
1772692211.900316238,0.016356000,0.007218000,0.071699000,0.025960220,0.019955410,0.038198210,0.998733570,0.053443000,0.037886000,0.077469000,-0.000764628,-0.001327604,0.001821971,-0.095143764,0.141552466,-0.037713706,0.006525753,-0.003244864,1.000959158,0.000202438,0.000725117,0.001472764,0.000000000,0.000000000,0.000000000,0.000000000,0.016622091,0.006922209,0.071703044,0.027803385,-0.029594173,-0.000234263,0.009310915,-0.009596491,0.000956652,0.400357252,-0.113050883,3.614463517,0.003460913,0.001096242,0.031533233,0.999495159,0.000000000,0.000000000,0.000000000,0.000000000,0.000000000,0.000000000,3.620487419,0.000000000,4.069794655
1772692211.910315275,0.016319000,0.007161000,0.071795000,0.024593670,0.021704140,0.037859710,0.998744570,0.050835000,0.041503000,0.076834000,0.000039044,-0.000462646,0.000119445,-0.063062844,0.090984145,-0.023594755,0.006662137,-0.003347890,1.001385428,0.000169442,0.000602397,0.001492755,0.000000000,0.000000000,0.000000000,0.000000000,0.016623564,0.006924168,0.071700615,0.027852915,-0.029640160,-0.000253211,0.009490570,-0.009583672,0.001157114,0.400838444,-0.113333659,3.615000218,0.003465028,0.001098857,0.031537902,0.999495006,0.000000000,0.000000000,0.000000000,0.000000000,0.000000000,0.000000000,3.621003610,0.000000000,4.069794655
1772692211.920315981,0.016368000,0.007201000,0.071686000,0.025633530,0.020297300,0.038151270,0.998736910,0.052815000,0.038597000,0.077382000,0.000335548,0.000857441,-0.001407810,-0.002709953,0.002879452,-0.001082514,0.006798544,-0.003450932,1.001811769,0.000136439,0.000479657,0.001512750,0.000000000,0.000000000,0.000000000,0.000000000,0.016625037,0.006926127,0.071698186,0.027902454,-0.029686154,-0.000272163,0.009670256,-0.009570850,0.001357609,0.401511712,-0.113763833,3.615907435,0.003470773,0.001102822,0.031545796,0.999494854,0.000000000,0.000000000,0.000000000,0.000000000,0.000000000,0.000000000,3.621519886,0.000000000,4.069794655
1772692211.930315971,0.016315000,0.007168000,0.071799000,0.024335400,0.021953510,0.037673060,0.998752510,0.050330000,0.042031000,0.076463000,0.000621795,0.001503945,-0.002282248,0.059448676,-0.087636270,0.022655365,0.006659798,-0.003081955,1.001335920,-0.000524173,-0.001976437,0.000829939,0.000000000,0.000000000,0.000000000,0.000000000,0.016627893,0.006928441,0.071694745,0.028002941,-0.029788754,-0.000268682,0.009849929,-0.009558028,0.001558090,0.403163257,-0.114944811,3.618702109,0.003484826,0.001113662,0.031570116,0.999493987,0.000000000,0.000000000,0.000000000,0.000000000,0.000000000,0.000000000,3.622036126,0.000000000,4.069794655
1772692211.940316200,0.016350000,0.007219000,0.071699000,0.025377820,0.020583570,0.038003380,0.998743220,0.052320000,0.039197000,0.077091000,0.000416609,0.001284694,-0.001663211,0.081499130,-0.115596377,0.029699906,0.006491428,-0.002466729,1.000481933,0.001124135,-0.003165832,-0.000493336,0.000000000,0.000000000,0.000000000,0.000000000,0.016635601,0.006932004,0.071687754,0.028282102,-0.030089864,-0.000186539,0.008777612,-0.009123634,0.000891689,0.405012997,-0.114930691,3.621253043,0.003500938,0.001114127,0.031592349,0.999493179,0.000000000,0.000000000,0.000000000,0.000000000,0.000000000,0.000000000,3.625708700,0.000000000,4.069794655
1772692211.950315475,0.016357000,0.007240000,0.071675000,0.026151950,0.019626310,0.038346960,0.998729390,0.053806000,0.037206000,0.077755000,0.000932402,0.001181509,-0.002223390,0.118346426,-0.164564482,0.044940192,0.006246077,-0.002388618,0.999325345,0.004250991,-0.000568254,-0.001973872,0.000000000,0.000000000,0.000000000,0.000000000,0.016611736,0.006906764,0.071742475,0.028542522,-0.030451470,0.000134621,0.008644116,-0.008624238,-0.000152105,0.407437068,-0.113900513,3.623164440,0.003522347,0.001105868,0.031609031,0.999492556,0.000000000,0.000000000,0.000000000,0.000000000,0.000000000,0.000000000,3.627838207,0.000000000,4.069794655
1772692211.960315943,0.016355000,0.007245000,0.071660000,0.026781450,0.018838690,0.038443930,0.998724150,0.055006000,0.035578000,0.077927000,0.000731994,0.000149204,-0.000846427,0.100916655,-0.141375680,0.041803671,0.005893576,-0.003312066,0.998545627,0.001655648,0.002049747,-0.001204171,0.000000000,0.000000000,0.000000000,0.000000000,0.016620306,0.006908242,0.071730248,0.028805492,-0.030661715,0.000075984,0.009057653,-0.009216383,-0.001509430,0.409726867,-0.114375968,3.625226385,0.003542168,0.001110711,0.031626977,0.999491958,0.000000000,0.000000000,0.000000000,0.000000000,0.000000000,0.000000000,3.629721102,0.000000000,4.069794655
1772692211.970315695,0.016375000,0.007224000,0.071667000,0.027232870,0.018239560,0.038610010,0.998716650,0.055866000,0.034336000,0.078240000,0.001114259,0.000128030,-0.001384422,0.110708934,-0.159762599,0.046883550,0.006330854,-0.002275975,1.000130179,0.000497942,0.000751837,0.002966764,0.000000000,0.000000000,0.000000000,0.000000000,0.016616192,0.006889064,0.071752172,0.029039026,-0.031001809,0.000044306,0.008938543,-0.009307930,-0.000131748,0.411274603,-0.116592874,3.627622887,0.003555032,0.001130548,0.031647791,0.999491187,0.000000000,0.000000000,0.000000000,0.000000000,0.000000000,0.000000000,3.631891102,0.000000000,4.069794655
1772692211.980315924,0.016379000,0.007222000,0.071673000,0.027424040,0.017960640,0.038704510,0.998712820,0.056229000,0.033759000,0.078419000,-0.000320533,-0.000942231,0.001406800,0.029796938,-0.045205466,0.012834410,0.005624624,-0.002968970,1.000139939,-0.000993507,-0.000268896,0.003438243,0.000000000,0.000000000,0.000000000,0.000000000,0.016630004,0.006887093,0.071731296,0.029367651,-0.031253492,-0.000118477,0.008350456,-0.009282541,0.000803238,0.412382062,-0.117888107,3.629927667,0.003564311,0.001142223,0.031667842,0.999490517,0.000000000,0.000000000,0.000000000,0.000000000,0.000000000,0.000000000,3.634088662,0.000000000,4.069794655
1772692211.990315914,0.016371000,0.007213000,0.071679000,0.027604020,0.017664940,0.038768390,0.998710660,0.056568000,0.033150000,0.078536000,-0.000734305,-0.000864065,0.001769796,-0.025525735,0.034499561,-0.009104145,0.005009557,-0.003371258,0.997068191,0.003052599,-0.002109307,-0.003823278,0.000000000,0.000000000,0.000000000,0.000000000,0.016624384,0.006877380,0.071750297,0.029586784,-0.031523448,0.000020525,0.008303117,-0.009709258,-0.001605496,0.412631484,-0.118056874,3.630099104,0.003566438,0.001143770,0.031669331,0.999490218,0.000000000,0.000000000,0.000000000,0.000000000,0.000000000,0.000000000,3.633068415,0.000000000,4.069794655
1772692212.000315905,0.016372000,0.007223000,0.071684000,0.027570070,0.017717680,0.038792800,0.998709710,0.056505000,0.033257000,0.078587000,-0.000751768,-0.000543415,0.001659772,-0.060537734,0.090644313,-0.022979207,0.007111639,-0.004049300,0.997861646,0.003263811,-0.001143276,0.000974179,0.000000000,0.000000000,0.000000000,0.000000000,0.016627891,0.006884879,0.071739501,0.029740908,-0.031765269,-0.000153643,0.008994996,-0.010173434,-0.002550662,0.412858250,-0.117204741,3.627875473,0.003568674,0.001136331,0.031649963,0.999491071,0.000000000,0.000000000,0.000000000,0.000000000,0.000000000,0.000000000,3.632378365,0.000000000,4.069794655
1772692212.010315418,0.016363000,0.007226000,0.071674000,0.027603380,0.017682530,0.038771270,0.998710250,0.056568000,0.033185000,0.078543000,-0.000560665,-0.000126710,0.000900739,-0.069846024,0.105019417,-0.028640619,0.005596652,-0.003882675,0.999506316,-0.001419481,-0.001696660,0.002320406,0.000000000,0.000000000,0.000000000,0.000000000,0.016636676,0.006899386,0.071714058,0.029958300,-0.031979887,-0.000460690,0.009080630,-0.010558027,-0.001042905,0.414260923,-0.117569026,3.630737377,0.003580779,0.001139985,0.031674901,0.999490298,0.000000000,0.000000000,0.000000000,0.000000000,0.000000000,0.000000000,3.634331426,0.000000000,4.069794655
1772692212.020314693,0.016310000,0.007175000,0.071794000,0.025702570,0.020307090,0.038119410,0.998736160,0.052953000,0.038613000,0.077321000,0.000079099,0.000054021,0.000005808,-0.054297564,0.073340817,-0.021876834,0.006490950,-0.003245791,1.000152589,0.000475431,0.000379712,0.000122532,0.000000000,0.000000000,0.000000000,0.000000000,0.016643276,0.006911065,0.071692215,0.030169977,-0.032213504,-0.000687318,0.008081943,-0.010084631,-0.000606378,0.415022322,-0.117785516,3.632651240,0.003587341,0.001142143,0.031691578,0.999489705,0.000000000,0.000000000,0.000000000,0.000000000,0.000000000,0.000000000,3.637001391,0.000000000,4.069794655
1772692212.030314684,0.016366000,0.007214000,0.071701000,0.026192930,0.019594040,0.038333120,0.998729480,0.053885000,0.037139000,0.077727000,0.000482518,0.000352700,-0.000872514,-0.022440812,0.019908232,-0.007829210,0.007167862,-0.002648499,0.999610721,0.000299010,0.000819108,-0.000768849,0.000000000,0.000000000,0.000000000,0.000000000,0.016648969,0.006916757,0.071674380,0.030319087,-0.032491356,-0.000783230,0.010551936,-0.010060295,0.000935680,0.416754238,-0.118115089,3.634495925,0.003602338,0.001145555,0.031707641,0.999489123,0.000000000,0.000000000,0.000000000,0.000000000,0.000000000,0.000000000,3.639241317,0.000000000,4.069794655
1772692212.040314913,0.016378000,0.007222000,0.071681000,0.026586260,0.019089560,0.038432050,0.998725060,0.054635000,0.036095000,0.077911000,0.000673583,0.000538870,-0.001659228,0.021994530,-0.043865471,0.010223929,0.007580688,-0.001677721,0.999173549,0.000980897,0.001331461,0.000935377,0.000000000,0.000000000,0.000000000,0.000000000,0.016661547,0.006909677,0.071667242,0.030571178,-0.032762257,-0.000794421,0.010400610,-0.009067370,-0.000663175,0.418123120,-0.118032434,3.636709745,0.003614278,0.001145283,0.031726938,0.999488463,0.000000000,0.000000000,0.000000000,0.000000000,0.000000000,0.000000000,3.641405593,0.000000000,4.069794655
1772692212.050315142,0.016369000,0.007227000,0.071669000,0.026754050,0.018605860,0.038529370,0.998725950,0.054935000,0.035110000,0.078084000,0.000710024,0.000669970,-0.001841863,0.055583983,-0.090027489,0.024677384,0.007310063,-0.001525734,0.999922848,0.003244685,0.002230798,0.001971626,0.000000000,0.000000000,0.000000000,0.000000000,0.016670325,0.006904726,0.071666345,0.030851491,-0.032980398,-0.000801900,0.010110947,-0.008146782,-0.000299478,0.420076831,-0.118285722,3.640143708,0.003631214,0.001148142,0.031756860,0.999487492,0.000000000,0.000000000,0.000000000,0.000000000,0.000000000,0.000000000,3.643640583,0.000000000,4.069794655
1772692212.060315132,0.016374000,0.007224000,0.071667000,0.026996270,0.018154690,0.038587580,0.998725490,0.055385000,0.034186000,0.078182000,0.000604701,0.000722495,-0.001921039,0.086689373,-0.132257758,0.035516720,0.005890171,-0.003637360,1.000180890,0.002718873,-0.000055127,0.000681466,0.000000000,0.000000000,0.000000000,0.000000000,0.016672971,0.006896065,0.071668977,0.031174730,-0.033091567,-0.000822414,0.008941833,-0.009830196,0.000088965,0.421974546,-0.118397027,3.643444188,0.003647703,0.001149743,0.031785623,0.999486487,0.000000000,0.000000000,0.000000000,0.000000000,0.000000000,0.000000000,3.647737754,0.000000000,4.069794655
1772692212.070315123,0.016366000,0.007228000,0.071664000,0.027195540,0.018128770,0.038651970,0.998718070,0.055784000,0.034115000,0.078316000,-0.000759247,-0.000524690,0.001228381,0.025134422,-0.031859401,0.006797143,0.006491498,-0.004907958,0.999808303,0.002303441,-0.000690190,0.001697329,0.000000000,0.000000000,0.000000000,0.000000000,0.016675656,0.006896206,0.071672896,0.031328904,-0.033299909,-0.000736522,0.008969179,-0.011883454,-0.000621213,0.424006789,-0.117066212,3.646371408,0.003665768,0.001138793,0.031811178,0.999485642,0.000000000,0.000000000,0.000000000,0.000000000,0.000000000,0.000000000,3.650657062,0.000000000,4.069794655
1772692212.080315113,0.016372000,0.007226000,0.071658000,0.027455460,0.017887080,0.038717500,0.998712770,0.056287000,0.033608000,0.078442000,-0.000790482,-0.000827584,0.002050857,-0.019784221,0.039765725,-0.012472096,0.007721164,-0.004325237,0.999735528,-0.000892935,0.002034348,0.002705225,0.000000000,0.000000000,0.000000000,0.000000000,0.016673436,0.006896529,0.071670223,0.031375452,-0.033616096,-0.000762865,0.010196255,-0.011465623,-0.000527792,0.424831011,-0.116214615,3.649005559,0.003673168,0.001131678,0.031834175,0.999484198,0.000000000,0.000000000,0.000000000,0.000000000,0.000000000,0.000000000,3.652926728,0.000000000,4.069794655
1772692212.090315104,0.016371000,0.007222000,0.071676000,0.027445020,0.017748020,0.038721520,0.998715390,0.056255000,0.033331000,0.078442000,-0.000710179,-0.000817872,0.002032306,-0.052021251,0.088843699,-0.027519975,0.006976526,-0.003242148,0.998153875,-0.001950545,0.002012306,0.001384466,0.000000000,0.000000000,0.000000000,0.000000000,0.016653123,0.006876657,0.071713070,0.031536245,-0.034031674,-0.000568533,0.010327619,-0.010336931,-0.001211749,0.424736910,-0.116399956,3.651416886,0.003672272,0.001133346,0.031855202,0.999482978,0.000000000,0.000000000,0.000000000,0.000000000,0.000000000,0.000000000,3.655274466,0.000000000,4.069794655
1772692212.100315571,0.016364000,0.007220000,0.071685000,0.027508790,0.017698540,0.038673350,0.998716380,0.056377000,0.033230000,0.078344000,-0.000604002,-0.000408042,0.001007907,-0.064349624,0.094969388,-0.031348475,0.006956070,-0.001890031,0.998632525,-0.001141891,-0.002664709,0.001290403,0.000000000,0.000000000,0.000000000,0.000000000,0.016657110,0.006872015,0.071717087,0.031800243,-0.034311679,-0.000646071,0.009760096,-0.009186874,-0.001637666,0.424428728,-0.116352031,3.653603157,0.003669575,0.001132913,0.031874276,0.999483546,0.000000000,0.000000000,0.000000000,0.000000000,0.000000000,0.000000000,3.657767136,0.000000000,4.069794655
1772692212.110315561,0.016308000,0.007168000,0.071809000,0.025564890,0.020493980,0.038000030,0.998740420,0.052687000,0.039003000,0.077087000,-0.000106857,0.000014588,-0.000358683,-0.048633479,0.062926399,-0.022005739,0.006045209,-0.001843979,0.999538250,0.000208906,-0.000585045,-0.000842795,0.000000000,0.000000000,0.000000000,0.000000000,0.016672865,0.006877510,0.071697374,0.032057221,-0.034409117,-0.000870485,0.009101600,-0.009102576,-0.001096234,0.424239333,-0.115493138,3.655485983,0.003668144,0.001125429,0.031890731,0.999483097,0.000000000,0.000000000,0.000000000,0.000000000,0.000000000,0.000000000,3.659949531,0.000000000,4.069794655
1772692212.120315313,0.016360000,0.007210000,0.071699000,0.026064730,0.019682530,0.038202360,0.998736100,0.053630000,0.037333000,0.077466000,0.000724146,0.000767580,-0.002084073,0.008050674,-0.021207555,0.005969055,0.007133871,-0.001958419,1.000062456,-0.000187352,0.001249332,0.001488493,0.000000000,0.000000000,0.000000000,0.000000000,0.016679825,0.006882696,0.071679917,0.032180556,-0.034449974,-0.001010210,0.009506965,-0.008978652,-0.000148221,0.424749258,-0.115442944,3.657935092,0.003672581,0.001125211,0.031912086,0.999482476,0.000000000,0.000000000,0.000000000,0.000000000,0.000000000,0.000000000,3.661996798,0.000000000,4.069794655
1772692212.130315542,0.016364000,0.007227000,0.071657000,0.026525380,0.019011970,0.038326880,0.998732200,0.054503000,0.035950000,0.077693000,0.000610140,0.000481469,-0.001110976,0.025517407,-0.039619334,0.015835525,0.007912774,-0.000781329,0.998487509,-0.000460184,-0.001116464,0.000828985,0.000000000,0.000000000,0.000000000,0.000000000,0.016684660,0.006884353,0.071667240,0.032289755,-0.034547727,-0.001081281,0.010247786,-0.007796774,-0.001231025,0.425101488,-0.115014944,3.660754501,0.003675745,0.001121667,0.031936688,0.999481581,0.000000000,0.000000000,0.000000000,0.000000000,0.000000000,0.000000000,3.665061921,0.000000000,4.069794655
1772692212.140315533,0.016365000,0.007231000,0.071647000,0.026823990,0.018471880,0.038484210,0.998728310,0.055063000,0.034839000,0.077988000,0.000315929,0.000015326,0.000302020,0.016515702,-0.027499828,0.013985872,0.006624025,-0.002739836,0.998979279,0.001139001,0.000219432,0.001864112,0.000000000,0.000000000,0.000000000,0.000000000,0.016684531,0.006886681,0.071659139,0.032545222,-0.034465827,-0.001164511,0.009451122,-0.008764574,-0.001487042,0.425398079,-0.115053959,3.663697692,0.003678292,0.001122184,0.031962355,0.999480757,0.000000000,0.000000000,0.000000000,0.000000000,0.000000000,0.000000000,3.667657114,0.000000000,4.069794655
1772692212.150315523,0.016378000,0.007222000,0.071664000,0.027087170,0.018204510,0.038640910,0.998720060,0.055573000,0.034276000,0.078295000,-0.000125156,-0.000329002,0.001222340,-0.005100438,0.002867171,0.003874775,0.006245646,-0.003455920,0.999977866,0.002163757,0.001186025,-0.000709418,0.000000000,0.000000000,0.000000000,0.000000000,0.016687618,0.006887068,0.071652362,0.032619898,-0.034520485,-0.001339305,0.009358656,-0.010295906,0.000025791,0.426468714,-0.114713485,3.666838639,0.003687695,0.001119614,0.031989754,0.999479839,0.000000000,0.000000000,0.000000000,0.000000000,0.000000000,0.000000000,3.670883035,0.000000000,4.069794655
1772692212.160315990,0.016376000,0.007223000,0.071691000,0.027214420,0.018060370,0.038698140,0.998717000,0.055818000,0.033975000,0.078406000,-0.000837977,-0.000688035,0.002025721,-0.047964437,0.072118772,-0.017495589,0.005713094,-0.003244833,0.998517808,0.001757069,-0.000733225,-0.000304410,0.000000000,0.000000000,0.000000000,0.000000000,0.016688638,0.006884166,0.071659381,0.032684428,-0.034744227,-0.001266172,0.007853318,-0.009980315,-0.001760620,0.427779621,-0.113614852,3.669423042,0.003699410,0.001110481,0.032012317,0.999479064,0.000000000,0.000000000,0.000000000,0.000000000,0.000000000,0.000000000,3.673943941,0.000000000,4.069794655
1772692212.170315504,0.016315000,0.007170000,0.071819000,0.025354630,0.020746650,0.038044740,0.998738860,0.052289000,0.039522000,0.077182000,-0.000370435,-0.000075622,0.000151418,-0.036556777,0.054671377,-0.014497313,0.005757310,-0.002123584,0.998638108,0.000820454,0.001978104,0.000541295,0.000000000,0.000000000,0.000000000,0.000000000,0.016679088,0.006887793,0.071666525,0.032373560,-0.034617715,-0.001229634,0.008896000,-0.010400809,-0.001569554,0.429500996,-0.111278705,3.672973204,0.003715044,0.001090701,0.032043340,0.999478087,0.000000000,0.000000000,0.000000000,0.000000000,0.000000000,0.000000000,3.675507735,0.000000000,4.069794655
1772692212.180315495,0.016356000,0.007209000,0.071705000,0.025843580,0.019781320,0.038225620,0.998739010,0.053197000,0.037546000,0.077509000,0.000355090,0.000710529,-0.002082228,0.018970551,-0.028406130,0.006053332,0.004739730,-0.003177935,0.998942617,-0.001207341,0.002569715,0.001211415,0.000000000,0.000000000,0.000000000,0.000000000,0.016647369,0.006915998,0.071669939,0.031084388,-0.033270575,-0.001408811,0.009843555,-0.009576224,-0.001059981,0.373395865,-0.070228830,3.658583893,0.003237255,0.000716569,0.031919526,0.999481979,0.000000000,0.000000000,0.000000000,0.000000000,0.000000000,0.000000000,3.675361639,0.000000000,4.069794655
1772692212.190315962,0.016362000,0.007229000,0.071655000,0.026394010,0.019054850,0.038394170,0.998732270,0.054246000,0.036042000,0.077826000,0.000566590,0.000726574,-0.002309229,0.056961070,-0.080798151,0.021519985,0.005563211,-0.002432165,0.997072755,-0.001665819,-0.000033207,-0.000292035,0.000000000,0.000000000,0.000000000,0.000000000,0.016615648,0.006944204,0.071673354,0.029795155,-0.031923371,-0.001587996,0.008392729,-0.009181119,-0.002397480,0.387858036,-0.080108542,3.677922397,0.003360512,0.000807332,0.032087830,0.999478151,0.000000000,0.000000000,0.000000000,0.000000000,0.000000000,0.000000000,3.680865983,0.000000000,4.069794655
1772692212.200316429,0.016360000,0.007231000,0.071650000,0.026792060,0.018746150,0.038492400,0.998723740,0.055021000,0.035389000,0.078019000,0.000011558,-0.000441589,0.000327526,0.028059078,-0.029867926,0.010742107,0.006321264,-0.003346995,0.997874847,-0.003283738,-0.001118627,0.001802800,0.000000000,0.000000000,0.000000000,0.000000000,0.016583927,0.006972410,0.071676769,0.028505922,-0.030576166,-0.001767181,0.008253679,-0.009202968,-0.002527919,0.391133706,-0.083865652,3.677698233,0.003388033,0.000841012,0.032085741,0.999477914,0.000000000,0.000000000,0.000000000,0.000000000,0.000000000,0.000000000,3.680654502,0.000000000,4.069794655
1772692212.210316658,0.016371000,0.007222000,0.071660000,0.027068420,0.018294890,0.038638760,0.998719000,0.055543000,0.034458000,0.078295000,-0.000503342,-0.001213424,0.002659521,-0.026885528,0.055223134,-0.012186996,0.007683596,-0.003942995,0.998958337,-0.000249154,0.001955600,0.001506344,0.000000000,0.000000000,0.000000000,0.000000000,0.016602281,0.006959154,0.071657682,0.028449524,-0.030616319,-0.002047723,0.009587496,-0.009692973,-0.001303062,0.390266686,-0.084754479,3.674853300,0.003380243,0.000848438,0.032060908,0.999478799,0.000000000,0.000000000,0.000000000,0.000000000,0.000000000,0.000000000,3.676881692,0.000000000,4.069794655
1772692212.220316648,0.016375000,0.007216000,0.071680000,0.027362060,0.017992530,0.038700380,0.998714110,0.056108000,0.033827000,0.078411000,-0.001138676,-0.001587356,0.003938213,-0.093229903,0.155629532,-0.041810824,0.006237553,-0.004141611,0.999465195,-0.001913209,0.000868700,-0.000172696,0.000000000,0.000000000,0.000000000,0.000000000,0.016627865,0.006938364,0.071647682,0.028897024,-0.031103720,-0.002190603,0.008777810,-0.010211219,-0.000834561,0.391316841,-0.086311909,3.674873198,0.003388966,0.000862316,0.032061024,0.999478920,0.000000000,0.000000000,0.000000000,0.000000000,0.000000000,0.000000000,3.678463200,0.000000000,4.069794655
1772692212.230316401,0.016320000,0.007162000,0.071809000,0.025607710,0.020568410,0.038111140,0.998733560,0.052783000,0.039143000,0.077315000,-0.000550719,-0.000646562,0.001734850,-0.087165598,0.138892801,-0.039577591,0.005831364,-0.004375259,0.998834348,-0.001603970,0.003454028,0.000411426,0.000000000,0.000000000,0.000000000,0.000000000,0.016644495,0.006922507,0.071652170,0.029227929,-0.031560944,-0.002166593,0.007956317,-0.010958686,-0.001260037,0.393604350,-0.088609946,3.677893738,0.003408252,0.000883090,0.032087281,0.999477992,0.000000000,0.000000000,0.000000000,0.000000000,0.000000000,0.000000000,3.679341353,0.000000000,4.069794655
1772692212.240316391,0.016307000,0.007144000,0.071845000,0.024262570,0.022320650,0.037659880,0.998746640,0.050213000,0.042771000,0.076453000,0.000423446,0.000743726,-0.001656490,-0.020331503,0.027681728,-0.010309070,0.006597348,-0.004310724,0.998691295,-0.003525118,-0.000797573,-0.001561673,0.000000000,0.000000000,0.000000000,0.000000000,0.016628938,0.006887396,0.071715746,0.029353427,-0.032074109,-0.001904619,0.008642692,-0.010451347,-0.000749509,0.393232465,-0.089756637,3.677572854,0.003404690,0.000892978,0.032084456,0.999477880,0.000000000,0.000000000,0.000000000,0.000000000,0.000000000,0.000000000,3.679234144,0.000000000,4.069794655
1772692212.250316381,0.016358000,0.007211000,0.071704000,0.025334350,0.020805970,0.037971960,0.998740910,0.052250000,0.039646000,0.077039000,0.000813831,0.001270223,-0.003084482,0.042929760,-0.072851050,0.017992618,0.007422532,-0.005384189,1.000638255,0.002011263,0.000108255,-0.003594459,0.000000000,0.000000000,0.000000000,0.000000000,0.016614237,0.006858991,0.071767597,0.029516572,-0.032469469,-0.001799806,0.009019865,-0.011109527,-0.000129168,0.392061873,-0.089583685,3.674271591,0.003394554,0.000891044,0.032055677,0.999478744,0.000000000,0.000000000,0.000000000,0.000000000,0.000000000,0.000000000,3.676995008,0.000000000,4.069794655
1772692212.260315895,0.016362000,0.007229000,0.071658000,0.026141570,0.019744920,0.038228960,0.998731850,0.053790000,0.037450000,0.077525000,0.000331508,0.000709461,-0.001402293,0.043674127,-0.084860754,0.020664352,0.006925374,-0.004011876,1.000961909,-0.000966211,0.000094225,0.000477001,0.000000000,0.000000000,0.000000000,0.000000000,0.016626841,0.006870024,0.071733980,0.029845638,-0.032827275,-0.001850067,0.008997247,-0.011053882,0.000499577,0.391563103,-0.089159351,3.670426653,0.003390351,0.000887090,0.032022156,0.999479801,0.000000000,0.000000000,0.000000000,0.000000000,0.000000000,0.000000000,3.672995387,0.000000000,4.069794655
1772692212.270316362,0.016370000,0.007225000,0.071658000,0.026656500,0.018929100,0.038457970,0.998725240,0.054763000,0.035767000,0.077956000,-0.000139549,-0.000055633,0.000621329,0.015978225,-0.046729372,0.009745937,0.005214170,-0.004404486,1.000626673,0.002195741,-0.000501443,-0.000023607,0.000000000,0.000000000,0.000000000,0.000000000,0.016644670,0.006888525,0.071684132,0.030204684,-0.033180372,-0.001926275,0.008881876,-0.010352939,0.000736492,0.391267096,-0.089290593,3.665308809,0.003387773,0.000888000,0.031977514,0.999481240,0.000000000,0.000000000,0.000000000,0.000000000,0.000000000,0.000000000,3.669049807,0.000000000,4.069794655
1772692212.280316353,0.016373000,0.007223000,0.071661000,0.026974620,0.018205750,0.038608230,0.998724350,0.055347000,0.034289000,0.078226000,-0.000871155,-0.000889667,0.002664280,-0.044807344,0.052087906,-0.017664383,0.005126718,-0.005070182,1.000693816,0.000851630,-0.002049701,0.002185969,0.000000000,0.000000000,0.000000000,0.000000000,0.016656013,0.006892943,0.071661326,0.030326455,-0.033516681,-0.001886637,0.008744689,-0.010034080,0.000684332,0.391438953,-0.089486405,3.663421581,0.003389232,0.000889700,0.031961045,0.999481980,0.000000000,0.000000000,0.000000000,0.000000000,0.000000000,0.000000000,3.667824717,0.000000000,4.069794655
1772692212.290316343,0.016316000,0.007169000,0.071806000,0.025377460,0.020494280,0.038045630,0.998743460,0.052314000,0.039016000,0.077171000,-0.000487976,-0.000612860,0.001687783,-0.052632505,0.074769711,-0.021227251,0.005232080,-0.004592653,1.000674017,0.000530762,-0.001463719,0.001865302,0.000000000,0.000000000,0.000000000,0.000000000,0.016657371,0.006892794,0.071659734,0.030332161,-0.033581159,-0.001869135,0.008607502,-0.009715222,0.000632171,0.391488669,-0.089332028,3.663066872,0.003389712,0.000888357,0.031957955,0.999482083,0.000000000,0.000000000,0.000000000,0.000000000,0.000000000,0.000000000,3.666953248,0.000000000,4.069794655
1772692212.300316334,0.016301000,0.007163000,0.071851000,0.024112030,0.022131650,0.037583830,0.998757360,0.049893000,0.042409000,0.076284000,-0.000196814,-0.000076496,0.000042288,-0.033397436,0.053798480,-0.013900888,0.005337441,-0.004115124,1.000654218,0.000209894,-0.000877737,0.001544636,0.000000000,0.000000000,0.000000000,0.000000000,0.016658728,0.006892646,0.071658142,0.030337867,-0.033645637,-0.001851633,0.008470315,-0.009396363,0.000580010,0.391538385,-0.089177651,3.662712163,0.003390191,0.000887014,0.031954866,0.999482186,0.000000000,0.000000000,0.000000000,0.000000000,0.000000000,0.000000000,3.666081780,0.000000000,4.069794655
1772692212.310317039,0.016357000,0.007207000,0.071709000,0.025270890,0.020643460,0.037991430,0.998745150,0.052111000,0.039325000,0.077067000,0.000468435,0.000556838,-0.002034209,0.019062187,-0.018133881,0.008698276,0.005442811,-0.003637560,1.000634418,-0.000110996,-0.000291713,0.001223946,0.000000000,0.000000000,0.000000000,0.000000000,0.016660086,0.006892498,0.071656550,0.030343574,-0.033710119,-0.001834130,0.008333118,-0.009077482,0.000527846,0.391588104,-0.089023264,3.662357429,0.003390670,0.000885671,0.031951776,0.999482289,0.000000000,0.000000000,0.000000000,0.000000000,0.000000000,0.000000000,3.665210249,0.000000000,4.069794655
1772692212.320317507,0.016365000,0.007227000,0.071660000,0.026120020,0.019663490,0.038243600,0.998733460,0.053741000,0.037288000,0.077549000,0.000566881,0.000210198,-0.001565716,0.034789435,-0.041703648,0.016634832,0.005548178,-0.003160009,1.000614618,-0.000431879,0.000294296,0.000903264,0.000000000,0.000000000,0.000000000,0.000000000,0.016661443,0.006892349,0.071654959,0.030349280,-0.033774599,-0.001816627,0.008195924,-0.008758608,0.000475682,0.391637822,-0.088868880,3.662002703,0.003391150,0.000884327,0.031948686,0.999482393,0.000000000,0.000000000,0.000000000,0.000000000,0.000000000,0.000000000,3.664338740,0.000000000,4.069794655
1772692212.330317497,0.016369000,0.007223000,0.071649000,0.026690700,0.018866630,0.038552860,0.998721850,0.054830000,0.035635000,0.078143000,0.000730012,0.000266473,-0.001267134,0.045746704,-0.065122996,0.023597037,0.005653540,-0.002682480,1.000594819,-0.000752747,0.000880278,0.000582597,0.000000000,0.000000000,0.000000000,0.000000000,0.016662801,0.006892201,0.071653367,0.030354986,-0.033839077,-0.001799125,0.008058737,-0.008439749,0.000423522,0.391687538,-0.088714503,3.661647995,0.003391629,0.000882984,0.031945597,0.999482496,0.000000000,0.000000000,0.000000000,0.000000000,0.000000000,0.000000000,3.663640897,0.000000000,4.069794655
1772692212.340317488,0.016314000,0.007168000,0.071778000,0.025197520,0.020742060,0.038025780,0.998743660,0.051973000,0.039526000,0.077138000,-0.000110878,-0.000377681,0.001250370,0.001590750,-0.005232133,0.002330986,0.006063007,-0.001869894,0.999990664,-0.001772534,-0.000963296,0.000948155,0.000000000,0.000000000,0.000000000,0.000000000,0.016649193,0.006875513,0.071692950,0.030368551,-0.034040604,-0.001560716,0.008180274,-0.008138788,-0.000026926,0.392505119,-0.089438258,3.662331919,0.003398553,0.000889545,0.031951535,0.999482086,0.000000000,0.000000000,0.000000000,0.000000000,0.000000000,0.000000000,3.663461077,0.000000000,4.069794655
1772692212.350318670,0.016370000,0.007205000,0.071701000,0.025993180,0.019732090,0.038292090,0.998733560,0.053495000,0.037432000,0.077645000,-0.001255052,-0.000903264,0.003584988,-0.077648318,0.110615125,-0.034511084,0.006062431,-0.002293767,0.998311722,-0.001353763,0.000610408,-0.000558691,0.000000000,0.000000000,0.000000000,0.000000000,0.016622402,0.006847877,0.071772695,0.030450066,-0.034216888,-0.001143240,0.008393556,-0.008300943,-0.001124751,0.391186084,-0.089037063,3.657399038,0.003387198,0.000885533,0.031908533,0.999483560,0.000000000,0.000000000,0.000000000,0.000000000,0.000000000,0.000000000,3.660284554,0.000000000,4.069794655
1772692212.360318422,0.016329000,0.007170000,0.071805000,0.024815060,0.021375830,0.037862430,0.998746080,0.051252000,0.040830000,0.076830000,-0.000690502,-0.000088792,0.001507344,-0.069944674,0.102198998,-0.031941684,0.005688446,-0.002010926,0.998817404,-0.001314550,-0.001486589,-0.000195340,0.000000000,0.000000000,0.000000000,0.000000000,0.016639422,0.006858900,0.071736920,0.030675496,-0.034228304,-0.001388582,0.007799222,-0.008432978,-0.001508083,0.390741970,-0.089575671,3.653127192,0.003383208,0.000889980,0.031871261,0.999484776,0.000000000,0.000000000,0.000000000,0.000000000,0.000000000,0.000000000,3.655636708,0.000000000,4.069794655
1772692212.370318651,0.016359000,0.007225000,0.071700000,0.025706640,0.020097760,0.038185500,0.998737760,0.052947000,0.038191000,0.077442000,-0.000867736,-0.000035023,0.000913618,-0.067192662,0.107204270,-0.032254621,0.007084522,-0.002822741,1.000860128,-0.000907847,-0.004882093,0.000756468,0.000000000,0.000000000,0.000000000,0.000000000,0.016654708,0.006876027,0.071685776,0.030786272,-0.034219055,-0.001709917,0.008231748,-0.009019843,0.000857623,0.390421248,-0.087623122,3.647781972,0.003380994,0.000872703,0.031824699,0.999486209,0.000000000,0.000000000,0.000000000,0.000000000,0.000000000,0.000000000,3.654087135,0.000000000,4.069794655
1772692212.380318642,0.016311000,0.007183000,0.071796000,0.024670710,0.021495810,0.037729130,0.998752120,0.050967000,0.041088000,0.076564000,-0.000628147,-0.000101030,0.000014705,-0.050575099,0.085176332,-0.023491504,0.006306072,-0.002667737,1.000655447,0.000431884,0.002245376,0.000238844,0.000000000,0.000000000,0.000000000,0.000000000,0.016650431,0.006867649,0.071687886,0.030919236,-0.034366792,-0.001575485,0.007947281,-0.009330421,0.000247958,0.391137540,-0.085809743,3.649046324,0.003387736,0.000857123,0.031835776,0.999485871,0.000000000,0.000000000,0.000000000,0.000000000,0.000000000,0.000000000,3.651843167,0.000000000,4.069794655
1772692212.390318871,0.016289000,0.007172000,0.071816000,0.023663760,0.023076430,0.037449880,0.998751730,0.049065000,0.044337000,0.076046000,-0.000224165,-0.000367483,-0.000172669,-0.032485349,0.054305830,-0.016568047,0.004150019,-0.004204881,0.998886301,0.001380447,-0.002092812,0.001044713,0.000000000,0.000000000,0.000000000,0.000000000,0.016641988,0.006851450,0.071726550,0.030996031,-0.034600079,-0.001299619,0.006938111,-0.009919066,-0.000185375,0.391259982,-0.086690079,3.645008258,0.003388590,0.000864716,0.031800525,0.999486978,0.000000000,0.000000000,0.000000000,0.000000000,0.000000000,0.000000000,3.647274547,0.000000000,4.069794655
1772692212.400318861,0.016352000,0.007211000,0.071694000,0.025015680,0.021154500,0.037943430,0.998742710,0.051639000,0.040368000,0.076989000,0.001470747,0.000592250,-0.002501925,0.057785278,-0.083632425,0.021091781,0.005942882,-0.003046454,1.000858170,0.000640369,0.003897932,-0.001924678,0.000000000,0.000000000,0.000000000,0.000000000,0.016645879,0.006845866,0.071746889,0.031026347,-0.034790929,-0.001181786,0.007461067,-0.009383162,0.000941269,0.391128758,-0.089051054,3.640483812,0.003386825,0.000885139,0.031760996,0.999488181,0.000000000,0.000000000,0.000000000,0.000000000,0.000000000,0.000000000,3.643551490,0.000000000,4.069794655
1772692212.410317898,0.016305000,0.007161000,0.071809000,0.024038930,0.022595950,0.037529680,0.998750760,0.049781000,0.043345000,0.076197000,0.001288463,0.000222572,-0.001213385,0.079666726,-0.116852502,0.031803767,0.006461247,-0.004134930,1.000122927,-0.002568358,-0.001818118,0.001501621,0.000000000,0.000000000,0.000000000,0.000000000,0.016651120,0.006862801,0.071724070,0.031038472,-0.034839325,-0.001119950,0.009144457,-0.011399915,0.000328777,0.390828218,-0.089582003,3.636122505,0.003384090,0.000889557,0.031722943,0.999489473,0.000000000,0.000000000,0.000000000,0.000000000,0.000000000,0.000000000,3.638440812,0.000000000,4.069794655
1772692212.420317888,0.016365000,0.007206000,0.071695000,0.025315840,0.020738150,0.037963450,0.998743120,0.052207000,0.039512000,0.077018000,0.001424729,0.001031877,-0.002136579,0.118097620,-0.176991955,0.052442245,0.005768133,-0.003333945,0.999380285,-0.001431539,0.000291700,0.001467666,0.000000000,0.000000000,0.000000000,0.000000000,0.016628568,0.006848846,0.071761700,0.031124552,-0.035071772,-0.000866466,0.008019178,-0.009217736,-0.000407867,0.389041506,-0.089841919,3.633066727,0.003368458,0.000891240,0.031696293,0.999490394,0.000000000,0.000000000,0.000000000,0.000000000,0.000000000,0.000000000,3.634834245,0.000000000,4.069794655
